Timestamp_ms,ADC1_Raw,ADC1_V_milli,ADC2_Raw,ADC2_V_milli,Heading_deci,Roll_deci,Pitch_deci,Quat_W_milli,Quat_X_milli,Quat_Y_milli,Quat_Z_milli,LinAccel_X_centi,LinAccel_Y_centi,LinAccel_Z_centi,AngVel_X_deci,AngVel_Y_deci,AngVel_Z_deci,Temp_C_deci,Encoder_Count,Encoder_RPM_deci
4899428,2376,2901,2222,2713,3256,31,75,-952,54,46,-294,-8,0,13,-8,-12,-11,410,-36636.0,0.0
4899446,2376,2901,2224,2715,3256,31,75,-952,54,46,-294,-8,0,13,-8,-12,-11,410,-36636.0,0.0
4899458,2376,2901,2228,2720,3256,32,75,-953,54,46,-294,-17,0,49,-7,-1,-8,410,-36636.0,0.0
4899477,2368,2891,2220,2710,3256,32,75,-953,54,46,-294,-17,0,49,-7,-1,-8,410,-36636.0,0.0
4899489,2371,2894,2223,2714,3256,32,75,-953,54,46,-294,-8,5,-1,-5,-23,-1,410,-36636.0,0.0
4899507,2375,2899,2222,2713,3256,32,75,-953,54,46,-294,-8,5,-1,-5,-23,-1,410,-36636.0,0.0
4899519,2374,2898,2224,2715,3256,33,75,-952,54,47,-294,-5,3,-16,-8,-35,6,410,-36636.0,0.0
4899538,2377,2902,2222,2713,3256,33,75,-952,54,47,-294,-5,3,-16,-8,-35,6,410,-36636.0,0.0
4899550,2375,2899,2223,2714,3256,34,75,-952,54,48,-294,-12,2,19,-8,-23,3,410,-36636.0,0.0
4899569,2375,2899,2222,2713,3256,34,75,-952,54,48,-294,-12,2,19,-8,-23,3,410,-36636.0,0.0
4899970,2362,2884,2214,2703,3256,27,76,-953,57,42,-294,-16,15,13,-26,59,10,410,-36627.0,0.0
4899989,2379,2904,2217,2706,3256,27,76,-953,57,42,-294,-16,15,13,-26,59,10,410,-36625.0,169.0
4900002,2373,2897,2208,2695,3255,25,77,-952,58,41,-295,-1,22,-17,-41,25,35,410,-36621.0,169.0
4900020,2383,2909,2218,2708,3255,25,77,-952,58,41,-295,-1,22,-17,-41,25,35,410,-36620.0,169.0
4900032,2391,2919,2215,2704,3255,24,78,-952,59,41,-295,3,21,-19,-6,30,16,410,-36620.0,169.0
4900050,2368,2891,2214,2703,3255,24,78,-952,59,41,-295,3,21,-19,-6,30,16,410,-36619.0,169.0
4900062,2386,2913,2217,2706,3255,23,77,-952,58,39,-295,9,2,-10,46,36,-5,410,-36619.0,169.0
4900081,2380,2905,2212,2700,3255,23,77,-952,58,39,-295,9,2,-10,46,36,-5,410,-36619.0,169.0
4900093,2375,2899,2215,2704,3254,22,76,-952,57,38,-295,11,0,-2,44,26,17,410,-36619.0,96.0
4900110,2389,2916,2231,2724,3254,22,76,-952,57,38,-295,11,0,-2,44,26,17,410,-36619.0,96.0
4900122,2385,2912,2213,2702,3253,21,75,-952,56,38,-296,8,-6,-4,41,10,18,410,-36619.0,96.0
4900140,2383,2909,2223,2714,3253,21,75,-952,56,38,-296,8,-6,-4,41,10,18,410,-36619.0,96.0
4900152,2383,2909,2224,2715,3253,21,74,-952,55,37,-296,5,-12,0,39,-8,5,410,-36619.0,96.0
4900169,2391,2919,2218,2708,3253,21,74,-952,55,37,-296,5,-12,0,39,-8,5,410,-36619.0,96.0
4900181,2392,2920,2216,2705,3253,22,73,-952,54,37,-296,8,-5,-6,38,-14,-4,410,-36619.0,96.0
4900199,2388,2915,2214,2703,3253,22,73,-952,54,37,-296,8,-5,-6,38,-14,-4,410,-36619.0,0.0
4900211,2383,2909,2221,2711,3253,22,71,-952,53,37,-296,9,-1,-21,34,3,1,410,-36619.0,0.0
4900230,2382,2908,2218,2708,3253,22,71,-952,53,37,-296,9,-1,-21,34,3,1,410,-36619.0,0.0
4900241,2385,2912,2217,2706,3253,22,71,-952,53,37,-296,7,-9,-10,29,8,6,410,-36619.0,0.0
4900259,2384,2910,2217,2706,3253,22,71,-952,53,37,-296,7,-9,-10,29,8,6,410,-36619.0,0.0
4900270,2385,2912,2216,2705,3253,22,70,-952,52,37,-296,3,-13,-10,25,3,-5,410,-36619.0,0.0
4900289,2385,2912,2219,2709,3253,22,70,-952,52,37,-296,3,-13,-10,25,3,-5,410,-36619.0,0.0
4900301,2392,2920,2200,2686,3253,22,70,-952,52,37,-296,4,-14,-5,17,9,-8,410,-36619.0,0.0
4900319,2380,2905,2214,2703,3253,22,70,-952,52,37,-296,4,-14,-5,17,9,-8,410,-36619.0,0.0
4900330,2383,2909,2214,2703,3253,22,69,-952,52,36,-296,-2,-21,6,0,6,-1,410,-36619.0,0.0
4900349,2384,2910,2214,2703,3253,22,69,-952,52,36,-296,-2,-21,6,0,6,-1,410,-36619.0,0.0
4900360,2375,2899,2215,2704,3253,22,70,-952,52,37,-296,0,-17,-5,-8,-12,-11,410,-36619.0,0.0
4900379,2379,2904,2214,2703,3253,22,70,-952,52,37,-296,0,-17,-5,-8,-12,-11,410,-36619.0,0.0
4900391,2374,2898,2216,2705,3254,23,70,-953,52,37,-295,-5,-4,-3,-13,-21,-27,410,-36619.0,0.0
4900409,2381,2907,2212,2700,3254,23,70,-953,52,37,-295,-5,-4,-3,-13,-21,-27,410,-36619.0,0.0
4900421,2382,2908,2212,2700,3255,23,70,-953,53,38,-295,1,5,-6,-21,-20,-4,410,-36619.0,0.0
4900440,2377,2902,2212,2700,3255,23,70,-953,53,38,-295,1,5,-6,-21,-20,-4,410,-36619.0,0.0
4900452,2381,2907,2209,2697,3255,24,71,-952,53,39,-295,0,-3,-2,-25,-15,16,410,-36619.0,0.0
4900469,2380,2905,2221,2711,3255,24,71,-952,53,39,-295,0,-3,-2,-25,-15,16,410,-36619.0,0.0
4900481,2380,2905,2213,2702,3254,24,72,-952,54,39,-296,6,-10,-3,-26,-19,0,410,-36619.0,0.0
4900500,2376,2901,2214,2703,3254,24,72,-952,54,39,-296,6,-10,-3,-26,-19,0,410,-36619.0,0.0
4900512,2371,2894,2212,2700,3254,25,73,-952,54,40,-295,0,-2,12,-23,-30,-16,410,-36619.0,0.0
4900530,2375,2899,2237,2731,3254,25,73,-952,54,40,-295,0,-2,12,-23,-30,-16,410,-36619.0,0.0
4900542,2371,2894,2217,2706,3255,26,73,-952,54,41,-295,-6,4,9,-26,-60,-8,410,-36619.0,0.0
4900560,2373,2897,2208,2695,3255,26,73,-952,54,41,-295,-6,4,9,-26,-60,-8,410,-36619.0,0.0
4900572,2373,2897,2216,2705,3255,28,74,-952,54,43,-295,-3,2,-17,-32,-66,4,410,-36619.0,0.0
4900590,2369,2892,2214,2703,3255,28,74,-952,54,43,-295,-3,2,-17,-32,-66,4,410,-36619.0,0.0
4900602,2372,2896,2224,2715,3255,30,75,-952,55,45,-295,-11,0,-9,-34,-42,10,410,-36619.0,0.0
4900620,2395,2924,2216,2705,3255,30,75,-952,55,45,-295,-11,0,-9,-34,-42,10,410,-36619.0,0.0
4900632,2373,2897,2208,2695,3254,30,76,-952,56,46,-295,-15,-3,1,-31,-16,-9,410,-36619.0,0.0
4900651,2371,2894,2221,2711,3254,30,76,-952,56,46,-295,-15,-3,1,-31,-16,-9,410,-36619.0,0.0
4900663,2368,2891,2214,2703,3255,31,77,-952,56,46,-295,-14,6,-9,-26,2,-26,410,-36619.0,0.0
4900681,2374,2898,2231,2724,3255,31,77,-952,56,46,-295,-14,6,-9,-26,2,-26,410,-36619.0,0.0
4900693,2372,2896,2216,2705,3255,30,78,-952,57,46,-294,-15,18,-1,-28,5,-7,410,-36619.0,0.0
4900711,2375,2899,2214,2703,3255,30,78,-952,57,46,-294,-15,18,-1,-28,5,-7,410,-36619.0,0.0
4900723,2370,2893,2211,2699,3255,30,78,-952,57,46,-294,-15,29,-11,-14,-6,1,410,-36619.0,0.0
4900742,2369,2892,2220,2710,3255,30,78,-952,57,46,-294,-15,29,-11,-14,-6,1,410,-36619.0,0.0
4900754,2375,2899,2231,2724,3256,30,78,-952,57,46,-294,-15,24,-9,6,0,-16,410,-36619.0,0.0
4900772,2359,2880,2213,2702,3256,30,78,-952,57,46,-294,-15,24,-9,6,0,-16,410,-36619.0,0.0
4900784,2370,2893,2215,2704,3256,30,77,-952,56,45,-294,-14,8,0,18,0,-5,410,-36619.0,0.0
4900801,2373,2897,2214,2703,3256,30,77,-952,56,45,-294,-14,8,0,18,0,-5,410,-36619.0,0.0
4900813,2381,2907,2216,2705,3256,30,76,-952,56,45,-294,-18,-10,0,15,-11,19,410,-36619.0,0.0
4900831,2372,2896,2219,2709,3256,30,76,-952,56,45,-294,-18,-10,0,15,-11,19,410,-36619.0,0.0
4900843,2376,2901,2217,2706,3255,30,76,-952,56,45,-295,-17,-10,-4,13,-15,8,410,-36619.0,0.0
4900861,2365,2887,2220,2710,3255,30,76,-952,56,45,-295,-17,-10,-4,13,-15,8,410,-36619.0,0.0
4900873,2371,2894,2215,2704,3255,30,76,-952,55,45,-294,-15,-3,-5,15,-11,-10,410,-36619.0,0.0
4900892,2372,2896,2212,2700,3255,30,76,-952,55,45,-294,-15,-3,-5,15,-11,-10,410,-36619.0,0.0
4900904,2372,2896,2218,2708,3255,30,76,-952,55,45,-294,-12,0,-9,6,0,-3,410,-36618.0,0.0
4900922,2371,2894,2224,2715,3255,30,76,-952,55,45,-294,-12,0,-9,6,0,-3,410,-36617.0,0.0
4900934,2368,2891,2217,2706,3255,30,76,-952,55,45,-294,-11,3,-13,-8,13,16,410,-36616.0,48.0
4900952,2373,2897,2215,2704,3255,30,76,-952,55,45,-294,-11,3,-13,-8,13,16,410,-36615.0,48.0
4900965,2374,2898,2217,2706,3255,29,76,-952,56,44,-295,-13,-6,-5,-11,26,19,410,-36614.0,48.0
4900983,2368,2891,2216,2705,3255,29,76,-952,56,44,-295,-13,-6,-5,-11,26,19,410,-36614.0,48.0
4905367,2380,2905,2211,2699,3252,13,78,-952,61,31,-297,-16,0,-16,1,-15,-7,410,-36576.0,0.0
4905385,2375,2899,2208,2695,3252,13,78,-952,61,31,-297,-16,0,-16,1,-15,-7,410,-36576.0,0.0
4905397,2371,2894,2208,2695,3252,13,78,-952,61,31,-297,-20,3,-8,0,1,-5,410,-36576.0,0.0
4905415,2366,2888,2206,2693,3252,13,78,-952,61,31,-297,-20,3,-8,0,1,-5,410,-36576.0,0.0
4905427,2374,2898,2223,2714,3252,12,78,-952,61,31,-297,-22,-1,1,0,0,-4,410,-36576.0,0.0
4905445,2376,2901,2208,2695,3252,12,78,-952,61,31,-297,-22,-1,1,0,0,-4,410,-36576.0,0.0
4905457,2383,2909,2204,2691,3252,12,78,-952,61,31,-297,-17,1,-11,-3,2,2,410,-36575.0,0.0
4905475,2375,2899,2218,2708,3252,12,78,-952,61,31,-297,-17,1,-11,-3,2,2,410,-36575.0,15.0
4905488,2377,2902,2209,2697,3252,12,78,-952,61,31,-297,-24,-2,-7,-3,3,5,410,-36575.0,15.0
4905506,2376,2901,2206,2693,3252,12,78,-952,61,31,-297,-24,-2,-7,-3,3,5,410,-36575.0,15.0
4905518,2385,2912,2208,2695,3252,12,78,-952,61,31,-297,-19,1,0,-10,0,-7,410,-36574.0,15.0
4905537,2390,2918,2210,2698,3252,12,78,-952,61,31,-297,-19,1,0,-10,0,-7,410,-36573.0,15.0
4905549,2372,2896,2207,2694,3253,11,78,-952,62,30,-297,-13,5,-14,-23,21,-7,410,-36571.0,15.0
4905567,2387,2914,2204,2691,3253,11,78,-952,62,30,-297,-13,5,-14,-23,21,-7,410,-36569.0,15.0
4905579,2371,2894,2206,2693,3253,11,79,-952,63,30,-297,-17,22,-8,-41,32,8,410,-36566.0,144.0
4905598,2377,2902,2203,2689,3253,11,79,-952,63,30,-297,-17,22,-8,-41,32,8,410,-36565.0,144.0
4905610,2376,2901,2208,2695,3253,10,80,-952,64,29,-297,-14,36,-14,-20,47,0,410,-36563.0,144.0
4905628,2375,2899,2196,2681,3253,10,80,-952,64,29,-297,-14,36,-14,-20,47,0,410,-36562.0,144.0
4905640,2371,2894,2209,2697,3253,8,80,-952,64,27,-296,-12,28,-15,8,55,-6,410,-36559.0,144.0
4905659,2387,2914,2199,2684,3253,8,80,-952,64,27,-296,-12,28,-15,8,55,-6,410,-36558.0,144.0
4905671,2380,2905,2198,2683,3253,6,78,-952,64,26,-297,-7,10,-2,8,45,16,410,-36555.0,144.0
4905689,2387,2914,2198,2683,3253,6,78,-952,64,26,-297,-7,10,-2,8,45,16,410,-36553.0,196.0
4905701,2374,2898,2204,2691,3252,5,78,-952,64,24,-297,-8,4,11,8,47,28,410,-36549.0,196.0
4905719,2387,2914,2198,2683,3252,5,78,-952,64,24,-297,-8,4,11,8,47,28,410,-36546.0,196.0
4905731,2370,2893,2197,2682,3251,3,78,-952,64,23,-298,-4,0,-2,-4,42,10,410,-36541.0,196.0
4905749,2375,2899,2208,2695,3251,3,78,-952,64,23,-298,-4,0,-2,-4,42,10,410,-36538.0,196.0
4905761,2368,2891,2201,2687,3251,1,78,-952,65,22,-298,-3,6,-3,-4,50,-4,410,-36534.0,196.0
4905779,2380,2905,2198,2683,3251,1,78,-952,65,22,-298,-3,6,-3,-4,50,-4,410,-36531.0,196.0
4905791,2378,2903,2204,2691,3251,0,78,-952,65,21,-298,0,3,-1,0,49,10,410,-36527.0,408.0
4905810,2376,2901,2192,2676,3251,0,78,-952,65,21,-298,0,3,-1,0,49,10,410,-36525.0,408.0
4905821,2380,2905,2199,2684,3251,0,78,-951,65,20,-298,1,-3,-5,8,38,18,410,-36522.0,408.0
4905840,2379,2904,2202,2688,3251,0,78,-951,65,20,-298,1,-3,-5,8,38,18,410,-36519.0,408.0
4905852,2381,2907,2194,2678,3251,-1,78,-951,65,19,-298,3,-13,-11,2,44,17,410,-36516.0,408.0
4905870,2383,2909,2196,2681,3251,-1,78,-951,65,19,-298,3,-13,-11,2,44,17,410,-36514.0,408.0
4905882,2374,2898,2196,2681,3251,-2,78,-951,66,18,-298,0,-20,-8,0,29,5,410,-36510.0,408.0
4905902,2378,2903,2192,2676,3251,-3,78,-951,66,17,-298,3,-7,0,1,30,-3,410,-36507.0,300.0
4905919,2375,2899,2199,2684,3251,-3,78,-951,66,17,-298,3,-7,0,1,30,-3,410,-36505.0,300.0
4905931,2385,2912,2188,2671,3251,-3,78,-951,66,17,-298,0,-7,-7,-6,34,0,410,-36502.0,300.0
4905950,2377,2902,2193,2677,3251,-3,78,-951,66,17,-298,0,-7,-7,-6,34,0,410,-36500.0,300.0
4905962,2382,2908,2198,2683,3251,-5,78,-951,67,16,-298,-2,-20,-1,0,18,11,410,-36499.0,300.0
4905980,2384,2910,2186,2669,3251,-5,78,-951,67,16,-298,-2,-20,-1,0,18,11,410,-36498.0,300.0
4905992,2377,2902,2196,2681,3250,-5,78,-951,67,15,-299,4,-23,-12,7,30,7,410,-36498.0,300.0
4906011,2380,2905,2192,2676,3250,-5,78,-951,67,15,-299,4,-23,-12,7,30,7,410,-36498.0,137.0
4906023,2383,2909,2192,2676,3250,-6,78,-951,67,15,-298,-3,-13,5,24,26,-5,410,-36498.0,137.0
4906043,2383,2909,2192,2676,3251,-6,78,-951,67,14,-298,2,-18,-4,13,17,-16,410,-36498.0,137.0
4906063,2379,2904,2192,2676,3251,-6,78,-951,67,14,-298,5,-6,-4,8,22,-8,410,-36498.0,137.0
4906081,2379,2904,2192,2676,3251,-6,78,-951,67,14,-298,5,-6,-4,8,22,-8,410,-36498.0,137.0
4906093,2379,2904,2194,2678,3251,-7,78,-951,67,13,-298,-5,-6,-2,-5,15,7,410,-36498.0,137.0
4906113,2383,2909,2192,2676,3251,-7,78,-951,67,13,-298,-1,-11,-3,-12,0,5,410,-36498.0,0.0
4906133,2382,2908,2195,2680,3251,-7,79,-951,68,13,-298,2,-4,-13,-15,9,1,410,-36498.0,0.0
4906153,2381,2907,2191,2675,3251,-8,79,-951,68,13,-298,-6,-4,-4,-16,21,0,410,-36498.0,0.0
4906170,2379,2904,2192,2676,3251,-8,79,-951,68,13,-298,-6,-4,-4,-16,21,0,410,-36498.0,0.0
4906182,2379,2904,2193,2677,3251,-8,80,-951,69,13,-298,-6,-3,-2,-20,5,-1,410,-36498.0,0.0
4906201,2389,2916,2193,2677,3251,-8,80,-951,69,13,-298,-6,-3,-2,-20,5,-1,410,-36498.0,0.0
4906213,2382,2908,2191,2675,3251,-8,80,-951,69,13,-298,0,18,-14,-18,15,-5,410,-36498.0,0.0
4906231,2377,2902,2190,2673,3251,-8,80,-951,69,13,-298,0,18,-14,-18,15,-5,410,-36498.0,0.0
4906243,2370,2893,2194,2678,3251,-9,80,-951,69,13,-298,-5,24,0,-2,11,-12,410,-36498.0,0.0
4906262,2378,2903,2194,2678,3251,-9,80,-951,69,13,-298,-5,24,0,-2,11,-12,410,-36498.0,0.0
4906274,2376,2901,2188,2671,3251,-9,80,-951,69,13,-298,5,18,-3,11,-84,0,410,-36498.0,0.0
4906294,2387,2914,2184,2666,3251,-9,80,-951,69,12,-298,4,0,-13,7,3,23,410,-36498.0,0.0
4906313,2391,2919,2185,2667,3251,-9,80,-951,69,12,-298,4,0,-13,7,3,23,410,-36498.0,0.0
4906325,2384,2910,2203,2689,3250,-9,80,-951,69,12,-299,-3,-18,3,5,-10,18,410,-36498.0,0.0
4906345,2380,2905,2199,2684,3250,-9,80,-951,69,13,-299,0,-20,3,2,-9,-6,410,-36498.0,0.0
4906365,2379,2904,2189,2672,3250,-8,80,-951,69,13,-299,1,-11,-7,2,-3,-15,410,-36498.0,0.0
4906383,2375,2899,2191,2675,3250,-8,80,-951,69,13,-299,1,-11,-7,2,-3,-15,410,-36498.0,0.0
4906394,2372,2896,2191,2675,3251,-8,80,-951,69,13,-298,0,2,-7,-5,-8,-15,410,-36498.0,0.0
4906414,2374,2898,2191,2675,3251,-8,80,-951,69,13,-298,-3,7,-1,-8,-8,-2,410,-36498.0,0.0
4906434,2379,2904,2190,2673,3251,-8,80,-951,69,13,-298,-4,13,-8,-8,-8,5,410,-36498.0,0.0
4906454,2376,2901,2192,2676,3251,-8,80,-951,69,13,-298,-4,11,-6,-1,-5,6,410,-36498.0,0.0
4906471,2372,2896,2193,2677,3251,-8,80,-951,69,13,-298,-4,11,-6,-1,-5,6,410,-36498.0,0.0
4906483,2377,2902,2203,2689,3251,-8,80,-951,69,13,-298,-3,4,-9,9,-3,-1,410,-36498.0,0.0
4906502,2376,2901,2192,2676,3251,-8,80,-951,69,13,-298,-3,4,-9,9,-3,-1,410,-36498.0,0.0
4906513,2374,2898,2186,2669,3251,-8,80,-951,69,13,-298,-5,-5,0,5,4,6,410,-36498.0,0.0
4906532,2384,2910,2187,2670,3251,-8,80,-951,69,13,-298,-5,-5,0,5,4,6,410,-36498.0,0.0
4906544,2377,2902,2194,2678,3250,-8,80,-951,69,13,-299,-7,-9,-1,-1,-3,4,410,-36498.0,0.0
4906563,2368,2891,2191,2675,3250,-8,80,-951,69,13,-299,-7,-9,-1,-1,-3,4,410,-36498.0,0.0
4906575,2376,2901,2197,2682,3250,-8,80,-951,69,13,-298,-3,-2,-3,-3,1,-8,410,-36498.0,0.0
4906595,2371,2894,2186,2669,3251,-8,80,-951,69,13,-298,-5,5,-1,-1,0,-10,410,-36498.0,0.0
4906615,2371,2894,2190,2673,3251,-8,80,-951,69,13,-298,-8,8,1,-2,-6,-3,410,-36498.0,0.0
4906635,2374,2898,2193,2677,3251,-8,80,-951,69,13,-298,-3,9,-5,0,-13,1,410,-36498.0,0.0
4906655,2384,2910,2199,2684,3251,-8,80,-951,69,14,-298,-3,8,-7,2,-16,8,410,-36498.0,0.0
4906672,2376,2901,2190,2673,3251,-8,80,-951,69,14,-298,-3,8,-7,2,-16,8,410,-36498.0,0.0
4906684,2380,2905,2186,2669,3250,-7,80,-951,69,14,-299,-2,4,-9,3,-20,15,410,-36498.0,0.0
4906703,2381,2907,2182,2664,3250,-7,80,-951,69,14,-299,-2,4,-9,3,-20,15,410,-36498.0,0.0
4906714,2378,2903,2189,2672,3250,-6,80,-951,68,14,-299,-1,-6,-4,6,-21,11,410,-36498.0,0.0
4906732,2384,2910,2192,2676,3250,-6,80,-951,68,14,-299,-1,-6,-4,6,-21,11,410,-36498.0,0.0
4906744,2380,2905,2192,2676,3250,-6,80,-951,68,15,-299,0,-6,-1,3,-16,5,410,-36498.0,0.0
4906762,2378,2903,2199,2684,3250,-6,80,-951,68,15,-299,0,-6,-1,3,-16,5,410,-36498.0,0.0
4906774,2381,2907,2186,2669,3250,-6,80,-951,68,15,-299,-1,0,1,-1,-18,5,410,-36498.0,0.0
4906793,2375,2899,2197,2682,3250,-6,80,-951,68,15,-299,-1,0,1,-1,-18,5,410,-36498.0,0.0
4906804,2391,2919,2193,2677,3250,-5,80,-951,68,16,-299,0,3,0,-1,-24,0,410,-36498.0,0.0
4906821,2374,2898,2192,2676,3250,-5,80,-951,68,16,-299,0,3,0,-1,-24,0,410,-36498.0,0.0
4906833,2376,2901,2193,2677,3250,-5,80,-951,68,16,-299,0,7,-13,3,-24,-5,410,-36498.0,0.0
4906851,2368,2891,2192,2676,3250,-5,80,-951,68,16,-299,0,7,-13,3,-24,-5,410,-36498.0,0.0
4906863,2377,2902,2189,2672,3250,-4,80,-951,67,17,-299,0,4,-5,2,-26,2,410,-36498.0,0.0
4906880,2382,2908,2196,2681,3250,-4,80,-951,67,17,-299,0,4,-5,2,-26,2,410,-36498.0,0.0
4906892,2381,2907,2192,2676,3250,-3,80,-951,67,17,-299,-2,-1,-8,3,-18,1,410,-36498.0,0.0
4906910,2368,2891,2195,2680,3250,-3,80,-951,67,17,-299,-2,-1,-8,3,-18,1,410,-36498.0,0.0
4906922,2376,2901,2195,2680,3249,-3,80,-951,67,18,-299,-5,1,-5,5,-15,-8,410,-36498.0,0.0
4906939,2377,2902,2202,2688,3249,-3,80,-951,67,18,-299,-5,1,-5,5,-15,-8,410,-36498.0,0.0
4906951,2385,2912,2194,2678,3250,-2,80,-951,67,18,-299,-4,2,-2,4,-17,-5,410,-36498.0,0.0
4906970,2387,2914,2191,2675,3250,-2,80,-951,67,18,-299,-4,2,-2,4,-17,-5,410,-36498.0,0.0
4906982,2368,2891,2197,2682,3250,-2,80,-951,67,19,-299,-8,2,6,4,-19,4,410,-36498.0,0.0
4907000,2371,2894,2194,2678,3250,-2,80,-951,67,19,-299,-8,2,6,4,-19,4,410,-36498.0,0.0
4907012,2378,2903,2196,2681,3249,-1,80,-951,67,19,-299,-6,-1,3,3,-30,5,410,-36498.0,0.0
4907029,2375,2899,2196,2681,3249,-1,80,-951,67,19,-299,-6,-1,3,3,-30,5,410,-36498.0,0.0
4907041,2375,2899,2192,2676,3249,0,80,-951,67,20,-300,-7,1,-9,6,-28,-9,410,-36498.0,0.0
4907060,2377,2902,2199,2684,3249,0,80,-951,67,20,-300,-7,1,-9,6,-28,-9,410,-36498.0,0.0
4907072,2377,2902,2198,2683,3250,0,80,-951,66,20,-299,-10,6,1,10,-25,-13,410,-36498.0,0.0
4907089,2377,2902,2198,2683,3250,0,80,-951,66,20,-299,-10,6,1,10,-25,-13,410,-36498.0,0.0
4907101,2375,2899,2205,2692,3250,0,79,-951,66,21,-299,-8,10,-6,10,-31,0,410,-36498.0,0.0
4907120,2389,2916,2199,2684,3250,0,79,-951,66,21,-299,-8,10,-6,10,-31,0,410,-36498.0,0.0
4907132,2375,2899,2196,2681,3250,1,79,-951,65,22,-299,-7,6,-13,9,-24,8,410,-36498.0,0.0
4907150,2372,2896,2197,2682,3250,1,79,-951,65,22,-299,-7,6,-13,9,-24,8,410,-36498.0,0.0
4907162,2380,2905,2207,2694,3249,1,78,-951,65,22,-299,-10,-2,-1,9,-28,10,410,-36498.0,0.0
4907180,2383,2909,2221,2711,3249,1,78,-951,65,22,-299,-10,-2,-1,9,-28,10,410,-36498.0,0.0
4907192,2384,2910,2200,2686,3249,2,78,-951,64,23,-300,-8,-1,-6,13,-29,-11,410,-36498.0,0.0
4907211,2379,2904,2197,2682,3249,2,78,-951,64,23,-300,-8,-1,-6,13,-29,-11,410,-36498.0,0.0
4907223,2380,2905,2201,2687,3250,3,78,-951,64,23,-299,-8,5,-10,13,-16,-13,410,-36498.0,0.0
4907241,2377,2902,2194,2678,3250,3,78,-951,64,23,-299,-8,5,-10,13,-16,-13,410,-36498.0,0.0
4907253,2378,2903,2200,2686,3250,3,77,-951,63,24,-299,-10,3,-3,7,-13,3,410,-36498.0,0.0
4907271,2376,2901,2202,2688,3250,3,77,-951,63,24,-299,-10,3,-3,7,-13,3,410,-36498.0,0.0
4907283,2383,2909,2196,2681,3250,4,77,-951,63,24,-299,-13,-3,-2,6,-10,7,410,-36498.0,0.0
4907302,2380,2905,2199,2684,3250,4,77,-951,63,24,-299,-13,-3,-2,6,-10,7,410,-36498.0,0.0
4907313,2376,2901,2192,2676,3250,4,77,-951,63,24,-299,-9,-2,0,9,-8,-12,410,-36498.0,0.0
4907332,2373,2897,2199,2684,3250,4,77,-951,63,24,-299,-9,-2,0,9,-8,-12,410,-36498.0,0.0
4907344,2376,2901,2202,2688,3250,5,76,-951,62,24,-299,-11,4,-5,9,-11,-22,410,-36498.0,0.0
4907362,2375,2899,2204,2691,3250,5,76,-951,62,24,-299,-11,4,-5,9,-11,-22,410,-36498.0,0.0
4907374,2378,2903,2203,2689,3250,5,76,-951,62,24,-299,-11,5,-4,3,-8,3,410,-36498.0,0.0
4907393,2383,2909,2206,2693,3250,5,76,-951,62,24,-299,-11,5,-4,3,-8,3,410,-36498.0,0.0
4907404,2369,2892,2202,2688,3250,5,76,-951,62,24,-299,-14,-2,0,0,1,16,410,-36498.0,0.0
4907422,2369,2892,2199,2684,3250,5,76,-951,62,24,-299,-14,-2,0,0,1,16,410,-36498.0,0.0
4907434,2372,2896,2205,2692,3250,5,76,-951,62,24,-299,-13,-3,-10,3,3,0,410,-36498.0,0.0
4907452,2379,2904,2204,2691,3250,5,76,-951,62,24,-299,-13,-3,-10,3,3,0,410,-36498.0,0.0
4907464,2375,2899,2201,2687,3250,5,76,-951,62,24,-299,-8,3,-7,4,8,-12,410,-36498.0,0.0
4907482,2377,2902,2202,2688,3250,5,76,-951,62,24,-299,-8,3,-7,4,8,-12,410,-36498.0,0.0
4907494,2383,2909,2192,2676,3250,5,76,-951,62,24,-299,-13,0,0,-3,10,9,410,-36498.0,0.0
4907512,2375,2899,2196,2681,3250,5,76,-951,62,24,-299,-13,0,0,-3,10,9,410,-36498.0,0.0
4919578,2378,2903,2203,2689,3247,12,76,-950,60,31,-301,-19,-6,3,5,1,4,410,-36255.0,0.0
4919599,2369,2892,2208,2695,3247,12,76,-950,60,31,-301,-16,-1,7,5,1,2,410,-36255.0,0.0
4919617,2383,2909,2201,2687,3247,12,76,-950,60,31,-301,-16,-1,7,5,1,2,410,-36255.0,0.0
4919629,2376,2901,2205,2692,3247,12,76,-950,60,30,-301,-16,3,5,2,14,5,410,-36255.0,0.0
4919649,2372,2896,2206,2693,3247,12,76,-950,60,30,-301,-16,0,2,0,16,8,410,-36255.0,0.0
4919666,2376,2901,2201,2687,3247,12,76,-950,60,30,-301,-16,0,2,0,16,8,410,-36255.0,0.0
4919678,2379,2904,2200,2686,3246,11,76,-950,60,30,-302,-14,-8,-22,-6,23,15,410,-36254.0,0.0
4919698,2383,2909,2204,2691,3246,11,76,-950,60,29,-302,-14,-2,-27,-1,30,-1,410,-36254.0,0.0
4919715,2381,2907,2202,2688,3246,11,76,-950,60,29,-302,-14,-2,-27,-1,30,-1,410,-36254.0,14.0
4919728,2375,2899,2208,2695,3247,10,76,-950,60,28,-301,-15,8,-23,0,30,-15,410,-36253.0,14.0
4919748,2371,2894,2195,2680,3247,10,76,-950,60,28,-301,-9,13,-11,-8,18,-6,410,-36253.0,14.0
4919766,2384,2910,2202,2688,3247,10,76,-950,60,28,-301,-9,13,-11,-8,18,-6,410,-36253.0,14.0
4919778,2379,2904,2198,2683,3246,9,76,-950,61,28,-302,-15,4,0,-13,21,33,410,-36252.0,14.0
4919798,2389,2916,2192,2676,3246,8,76,-950,61,27,-302,-17,-5,8,-17,27,32,410,-36251.0,14.0
4919815,2383,2909,2193,2677,3246,8,76,-950,61,27,-302,-17,-5,8,-17,27,32,410,-36250.0,66.0
4919828,2375,2899,2206,2693,3246,7,77,-950,62,27,-302,-14,-4,-1,-18,34,2,410,-36248.0,66.0
4919990,2379,2904,2201,2687,3245,1,78,-950,64,22,-303,-10,8,-6,8,40,-2,410,-36239.0,119.0
4920187,2379,2904,2184,2666,3245,-3,78,-950,66,17,-304,-1,-3,-9,8,20,6,410,-36231.0,75.0
4920205,2381,2907,2195,2680,3245,-3,78,-950,66,17,-304,-1,-3,-9,8,20,6,410,-36231.0,75.0
4920216,2380,2905,2192,2676,3245,-3,78,-950,66,17,-304,-3,0,-18,2,0,3,410,-36231.0,75.0
4920234,2378,2903,2193,2677,3245,-3,78,-950,66,17,-304,-3,0,-18,2,0,3,410,-36231.0,75.0
4920246,2383,2909,2199,2684,3245,-3,78,-950,66,17,-304,0,1,-21,0,0,2,410,-36231.0,0.0
4920264,2377,2902,2193,2677,3245,-3,78,-950,66,17,-304,0,1,-21,0,0,2,410,-36231.0,0.0
4920275,2381,2907,2193,2677,3245,-3,78,-950,66,17,-304,-1,1,-15,-3,9,4,410,-36231.0,0.0
4920294,2386,2913,2195,2680,3245,-3,78,-950,66,17,-304,-1,1,-15,-3,9,4,410,-36231.0,0.0
4920305,2376,2901,2195,2680,3245,-3,78,-950,66,17,-304,-3,0,7,-3,6,5,410,-36231.0,0.0
4920324,2382,2908,2200,2686,3245,-3,78,-950,66,17,-304,-3,0,7,-3,6,5,410,-36231.0,0.0
4920335,2383,2909,2199,2684,3245,-3,78,-950,66,17,-303,-2,0,8,-5,1,1,410,-36231.0,0.0
4920353,2383,2909,2203,2689,3245,-3,78,-950,66,17,-303,-2,0,8,-5,1,1,410,-36231.0,0.0
4920365,2382,2908,2195,2680,3245,-3,78,-950,66,17,-304,-6,1,7,-4,-8,0,410,-36231.0,0.0
4920383,2383,2909,2198,2683,3245,-3,78,-950,66,17,-304,-6,1,7,-4,-8,0,410,-36231.0,0.0
4920395,2382,2908,2192,2676,3245,-3,78,-950,66,17,-304,-1,2,2,-2,-10,1,410,-36231.0,0.0
4920414,2382,2908,2193,2677,3245,-3,78,-950,66,17,-304,-1,2,2,-2,-10,1,410,-36231.0,0.0
4920425,2384,2910,2205,2692,3245,-3,78,-950,65,17,-304,-3,4,-11,-3,-7,1,410,-36231.0,0.0
4920848,2375,2899,2192,2676,3246,0,78,-950,65,21,-302,-14,4,2,0,2,6,410,-36224.0,61.0
4920865,2372,2896,2190,2673,3246,0,78,-950,65,21,-302,-14,4,2,0,2,6,410,-36224.0,61.0
4920877,2379,2904,2198,2683,3246,0,78,-950,64,21,-303,-18,-1,12,10,-15,7,410,-36224.0,49.0
4920896,2379,2904,2199,2684,3246,0,78,-950,64,21,-303,-18,-1,12,10,-15,7,410,-36224.0,49.0
4920908,2379,2904,2195,2680,3245,0,77,-950,64,21,-303,-11,-1,-7,11,-21,2,410,-36223.0,49.0
4920925,2375,2899,2196,2681,3245,0,77,-950,64,21,-303,-11,-1,-7,11,-21,2,410,-36222.0,49.0
4920937,2379,2904,2205,2692,3245,0,77,-950,64,21,-303,-9,0,-15,-3,-22,-1,410,-36220.0,49.0
4920956,2368,2891,2204,2691,3245,0,77,-950,64,21,-303,-9,0,-15,-3,-22,-1,410,-36219.0,49.0
4920968,2400,2930,2193,2677,3245,1,77,-950,64,22,-303,-11,2,-1,-5,-16,-5,410,-36218.0,49.0
4920985,2377,2902,2207,2694,3245,1,77,-950,64,22,-303,-11,2,-1,-5,-16,-5,410,-36217.0,108.0
4920998,2377,2902,2194,2678,3245,1,77,-950,64,22,-303,-11,6,-7,-1,3,0,410,-36216.0,108.0
4921016,2383,2909,2196,2681,3245,1,77,-950,64,22,-303,-11,6,-7,-1,3,0,410,-36216.0,108.0
4921028,2377,2902,2207,2694,3245,1,77,-950,64,22,-303,-12,0,-14,6,5,5,410,-36215.0,108.0
4921047,2379,2904,2207,2694,3245,1,77,-950,64,22,-303,-12,0,-14,6,5,5,410,-36215.0,108.0
4921058,2374,2898,2198,2683,3245,1,77,-950,64,21,-303,-15,-4,-1,9,10,5,410,-36214.0,108.0
4921077,2380,2905,2192,2676,3245,1,77,-950,64,21,-303,-15,-4,-1,9,10,5,410,-36214.0,108.0
4921089,2378,2903,2199,2684,3245,1,77,-950,64,21,-303,-15,1,6,1,12,2,410,-36212.0,80.0
4921107,2381,2907,2199,2684,3245,1,77,-950,64,21,-303,-15,1,6,1,12,2,410,-36211.0,80.0
4921119,2379,2904,2203,2689,3245,0,77,-950,64,21,-303,-13,4,-2,-10,10,1,410,-36209.0,80.0
4921138,2376,2901,2188,2671,3245,0,77,-950,64,21,-303,-13,4,-2,-10,10,1,410,-36208.0,80.0
4921150,2376,2901,2199,2684,3245,0,77,-950,64,21,-303,-13,9,-9,-13,20,3,410,-36206.0,80.0
4921167,2372,2896,2200,2686,3245,0,77,-950,64,21,-303,-13,9,-9,-13,20,3,410,-36204.0,80.0
4921179,2387,2914,2196,2681,3245,0,78,-950,65,20,-303,-12,9,-9,-7,27,5,410,-36203.0,80.0
4921198,2383,2909,2195,2680,3245,0,78,-950,65,20,-303,-12,9,-9,-7,27,5,410,-36201.0,168.0
4921210,2376,2901,2197,2682,3245,0,78,-950,65,19,-303,-12,6,-9,-1,25,3,410,-36200.0,168.0
4921227,2368,2891,2195,2680,3245,0,78,-950,65,19,-303,-12,6,-9,-1,25,3,410,-36199.0,168.0
4921239,2375,2899,2203,2689,3245,-1,78,-950,65,19,-303,-11,7,-11,3,16,3,410,-36197.0,168.0
4921258,2378,2903,2199,2684,3245,-1,78,-950,65,19,-303,-11,7,-11,3,16,3,410,-36196.0,168.0
4921270,2378,2903,2197,2682,3245,-1,78,-950,65,19,-303,-9,5,-8,5,14,10,410,-36194.0,168.0
4921289,2376,2901,2194,2678,3245,-1,78,-950,65,19,-303,-9,5,-8,5,14,10,410,-36192.0,168.0
4921301,2383,2909,2194,2678,3245,-2,78,-950,65,18,-303,-12,3,6,-3,17,6,410,-36189.0,194.0
4921318,2376,2901,2196,2681,3245,-2,78,-950,65,18,-303,-12,3,6,-3,17,6,410,-36187.0,194.0
4921330,2374,2898,2199,2684,3245,-3,78,-950,66,18,-303,-13,5,-2,-8,30,4,410,-36184.0,194.0
4921349,2383,2909,2192,2676,3245,-3,78,-950,66,18,-303,-13,5,-2,-8,30,4,410,-36182.0,194.0
4921361,2375,2899,2196,2681,3245,-3,78,-950,66,17,-303,-14,9,1,-8,31,8,410,-36179.0,194.0
4921378,2379,2904,2196,2681,3245,-3,78,-950,66,17,-303,-14,9,1,-8,31,8,410,-36177.0,194.0
4921390,2368,2891,2193,2677,3245,-5,78,-950,66,16,-303,-14,8,10,-3,23,9,410,-36174.0,194.0
4921409,2383,2909,2199,2684,3245,-5,78,-950,66,16,-303,-14,8,10,-3,23,9,410,-36173.0,246.0
4921421,2383,2909,2188,2671,3245,-5,78,-950,67,16,-303,-12,4,-3,12,17,13,410,-36170.0,246.0
4921441,2379,2904,2193,2677,3244,-5,78,-950,66,15,-304,-8,0,-10,8,13,15,410,-36167.0,246.0
4921459,2383,2909,2199,2684,3244,-5,78,-950,66,15,-304,-8,0,-10,8,13,15,410,-36166.0,246.0
4921471,2373,2897,2193,2677,3244,-6,78,-950,66,15,-304,-3,0,-21,3,18,8,410,-36162.0,246.0
4921489,2380,2905,2195,2680,3244,-6,78,-950,66,15,-304,-3,0,-21,3,18,8,410,-36160.0,246.0
4921501,2382,2908,2188,2671,3244,-6,78,-950,67,14,-304,-9,-1,4,-6,35,1,410,-36157.0,246.0
4921518,2384,2910,2184,2666,3244,-6,78,-950,67,14,-304,-9,-1,4,-6,35,1,410,-36155.0,275.0
4921531,2380,2905,2186,2669,3244,-8,78,-950,67,13,-304,-8,1,3,-5,35,-3,410,-36151.0,275.0
4921549,2380,2905,2187,2670,3244,-8,78,-950,67,13,-304,-8,1,3,-5,35,-3,410,-36149.0,275.0
4921561,2370,2893,2192,2676,3244,-8,78,-950,67,13,-304,-3,3,-9,-5,26,1,410,-36146.0,275.0
4921578,2379,2904,2191,2675,3244,-8,78,-950,67,13,-304,-3,3,-9,-5,26,1,410,-36144.0,275.0
4921590,2385,2912,2193,2677,3244,-9,78,-950,68,12,-304,-5,-2,2,-3,18,6,410,-36141.0,275.0
4921609,2380,2905,2192,2676,3244,-9,78,-950,68,12,-304,-5,-2,2,-3,18,6,410,-36140.0,275.0
4921621,2379,2904,2189,2672,3244,-10,78,-949,68,12,-304,-4,-2,0,5,12,11,410,-36138.0,275.0
4921640,2386,2913,2193,2677,3244,-10,78,-949,68,12,-304,-4,-2,0,5,12,11,410,-36137.0,275.0
4921652,2382,2908,2195,2680,3243,-10,78,-949,68,11,-304,-2,-4,-15,13,23,9,410,-36135.0,275.0
4921670,2383,2909,2187,2670,3243,-10,78,-949,68,11,-304,-2,-4,-15,13,23,9,410,-36134.0,275.0
4921682,2387,2914,2189,2672,3243,-11,77,-949,67,11,-304,-3,-11,-6,13,20,3,410,-36133.0,275.0
4921701,2387,2914,2188,2671,3243,-11,77,-949,67,11,-304,-3,-11,-6,13,20,3,410,-36133.0,275.0
4921713,2399,2929,2191,2675,3243,-11,77,-950,67,10,-304,-4,-12,5,18,3,-8,410,-36132.0,275.0
4921731,2380,2905,2190,2673,3243,-11,77,-950,67,10,-304,-4,-12,5,18,3,-8,410,-36132.0,90.0
4921743,2382,2908,2191,2675,3244,-11,76,-950,66,10,-304,-2,0,-4,28,-11,-13,410,-36132.0,90.0
4921763,2382,2908,2190,2673,3244,-11,76,-950,66,10,-304,-5,-1,-11,22,-15,-6,410,-36132.0,90.0
4921780,2383,2909,2189,2672,3244,-11,76,-950,66,10,-304,-5,-1,-11,22,-15,-6,410,-36132.0,90.0
4921793,2382,2908,2188,2671,3244,-10,75,-950,65,11,-304,-5,-4,-1,18,-12,3,410,-36132.0,90.0
4921812,2384,2910,2190,2673,3244,-10,75,-950,65,11,-304,-5,-4,-1,18,-12,3,410,-36132.0,90.0
4921824,2387,2914,2190,2673,3244,-10,75,-950,65,11,-304,-6,-7,0,12,0,10,410,-36132.0,90.0
4921845,2383,2909,2189,2672,3244,-10,75,-950,65,10,-304,-5,-8,-8,13,2,1,410,-36132.0,0.0
4921865,2383,2909,2191,2675,3244,-10,74,-950,65,10,-304,-5,-6,-6,10,-5,-13,410,-36132.0,0.0
4921886,2383,2909,2193,2677,3244,-10,74,-950,64,10,-304,-4,-4,-1,6,-14,-10,410,-36132.0,0.0
4921906,2385,2912,2195,2680,3244,-10,74,-950,64,11,-304,-4,-3,4,3,-14,-3,410,-36132.0,0.0
4922306,2375,2899,2184,2666,3245,-3,79,-950,67,18,-303,-6,14,11,-3,-11,-10,410,-36132.0,0.0
4922323,2371,2894,2189,2672,3245,-3,79,-950,67,18,-303,-6,14,11,-3,-11,-10,410,-36132.0,0.0
4922335,2375,2899,2182,2664,3245,-3,79,-950,67,18,1696,-9,6,7,3,-21,-1,410,-36132.0,0.0
4922355,2380,2905,2191,2675,3245,-2,79,-950,67,18,-303,-11,2,17,5,-20,-1,410,-36132.0,0.0
4922373,2371,2894,2189,2672,3245,-2,79,-950,67,18,-303,-11,2,17,5,-20,-1,410,-36132.0,0.0
4922385,2373,2897,2186,2669,3245,-1,79,-950,66,19,-303,-18,0,4,11,-110,-8,410,-36132.0,0.0
4922405,2386,2913,2188,2671,3246,-1,78,-950,66,19,-303,-13,-2,3,12,-28,-10,410,-36132.0,0.0
4922422,2387,2914,2189,2672,3246,-1,78,-950,66,19,-303,-13,-2,3,12,-28,-10,410,-36132.0,0.0
4922434,2375,2899,2190,2673,3246,0,78,-950,65,20,-302,-19,-1,-5,9,-20,-4,410,-36132.0,0.0
4922453,2373,2897,2187,2670,3246,0,78,-950,65,20,-302,-19,-1,-5,9,-20,-4,410,-36132.0,0.0
4922465,2372,2896,2193,2677,3246,0,78,-950,65,20,-302,-17,-1,-15,9,-26,0,410,-36132.0,0.0
4922483,2368,2891,2194,2678,3246,0,78,-950,65,20,-302,-17,-1,-15,9,-26,0,410,-36132.0,0.0
4922495,2382,2908,2190,2673,3246,0,78,-950,65,21,-303,-15,0,-27,5,-26,-5,410,-36132.0,0.0
4922514,2378,2903,2191,2675,3246,0,78,-950,65,21,-303,-15,0,-27,5,-26,-5,410,-36132.0,0.0
4922526,2377,2902,2191,2675,3246,1,78,-950,64,22,-303,-17,1,-18,0,-32,0,410,-36132.0,0.0
4922546,2369,2892,2192,2676,3245,1,78,-950,64,22,-303,-17,-2,-1,-1,-36,2,410,-36132.0,0.0
4922566,2375,2899,2199,2684,3245,2,78,-950,64,23,-303,-16,0,0,0,-35,-3,410,-36132.0,0.0
4922583,2367,2890,2186,2669,3245,2,78,-950,64,23,-303,-16,0,0,0,-35,-3,410,-36132.0,0.0
4922594,2375,2899,2204,2691,3245,3,78,-950,64,24,-303,-16,0,3,1,-28,-2,410,-36132.0,0.0
4922613,2375,2899,2195,2680,3245,3,78,-950,64,24,-303,-16,0,3,1,-28,-2,410,-36132.0,0.0
4922624,2373,2897,2196,2681,3245,4,78,-950,64,24,-303,-17,0,18,-1,-28,3,410,-36132.0,0.0
4922643,2370,2893,2197,2682,3245,4,78,-950,64,24,-303,-17,0,18,-1,-28,3,410,-36132.0,0.0
4922655,2371,2894,2196,2681,3245,5,78,-950,63,25,-303,-12,0,2,2,-14,-1,410,-36132.0,0.0
4922672,2374,2898,2196,2681,3245,5,78,-950,63,25,-303,-12,0,2,2,-14,-1,410,-36132.0,0.0
4922683,2373,2897,2200,2686,3245,5,78,-950,63,25,-303,-13,2,-17,2,-4,-6,410,-36132.0,0.0
4922703,2368,2891,2194,2678,3246,5,78,-950,63,25,-303,-12,3,-14,1,-6,-6,410,-36132.0,0.0
4922721,2368,2891,2197,2682,3246,5,78,-950,63,25,-303,-12,3,-14,1,-6,-6,410,-36132.0,0.0
4922733,2374,2898,2199,2684,3246,5,78,-950,63,25,-302,-10,5,-19,6,-4,-6,410,-36132.0,0.0
4922752,2378,2903,2188,2671,3246,5,78,-950,63,25,-302,-10,5,-19,6,-4,-6,410,-36132.0,0.0
4922763,2369,2892,2197,2682,3246,5,78,-950,63,25,-302,-12,3,-17,1,-3,0,410,-36132.0,0.0
4922782,2370,2893,2194,2678,3246,5,78,-950,63,25,-302,-12,3,-17,1,-3,0,410,-36132.0,0.0
4922794,2380,2905,2207,2694,3246,5,78,-950,63,25,-302,-11,0,-11,0,-6,3,410,-36131.0,15.0
4922812,2374,2898,2207,2694,3246,5,78,-950,63,25,-302,-11,0,-11,0,-6,3,410,-36131.0,15.0
4922824,2373,2897,2195,2680,3246,5,78,-950,63,25,-302,-15,2,4,0,0,-5,410,-36131.0,15.0
4922842,2391,2919,2196,2681,3246,5,78,-950,63,25,-302,-15,2,4,0,0,-5,410,-36131.0,15.0
4922854,2373,2897,2202,2688,3246,5,78,-950,63,25,-302,-16,3,6,-1,1,-1,410,-36130.0,15.0
4922872,2368,2891,2191,2675,3246,5,78,-950,63,25,-302,-16,3,6,-1,1,-1,410,-36129.0,15.0
4922884,2374,2898,2199,2684,3246,5,78,-950,63,25,-302,-18,4,4,-5,-3,6,410,-36129.0,15.0
4922902,2374,2898,2195,2680,3246,5,78,-950,63,25,-302,-18,4,4,-5,-3,6,410,-36128.0,46.0
4922914,2375,2899,2196,2681,3246,5,78,-950,63,25,-302,-19,5,0,-4,0,5,410,-36127.0,46.0
4922932,2374,2898,2200,2686,3246,5,78,-950,63,25,-302,-19,5,0,-4,0,5,410,-36127.0,46.0
4922944,2375,2899,2192,2676,3246,5,78,-950,63,25,-302,-16,4,-12,2,0,2,410,-36127.0,46.0
4922962,2378,2903,2207,2694,3246,5,78,-950,63,25,-302,-16,4,-12,2,0,2,410,-36126.0,46.0
4922974,2371,2894,2185,2667,3246,5,78,-950,63,25,-302,-13,5,-12,5,5,1,410,-36126.0,46.0
4922992,2374,2898,2192,2676,3246,5,78,-950,63,25,-302,-13,5,-12,5,5,1,410,-36125.0,46.0
4923004,2368,2891,2194,2678,3246,5,78,-950,63,25,-303,-14,4,-15,3,13,8,410,-36124.0,65.0
4923023,2375,2899,2192,2676,3246,5,78,-950,63,25,-303,-14,4,-15,3,13,8,410,-36123.0,65.0
4923034,2373,2897,2192,2676,3245,5,78,-950,63,24,-303,-14,2,-10,-1,13,9,410,-36122.0,65.0
4923053,2370,2893,2193,2677,3245,5,78,-950,63,24,-303,-14,2,-10,-1,13,9,410,-36121.0,65.0
4923065,2374,2898,2214,2703,3245,4,78,-950,64,24,-303,-14,0,4,-7,18,2,410,-36120.0,65.0
4923082,2374,2898,2195,2680,3245,4,78,-950,64,24,-303,-14,0,4,-7,18,2,410,-36119.0,65.0
4923094,2375,2899,2202,2688,3245,3,78,-950,64,24,-303,-15,2,3,0,18,0,410,-36118.0,65.0
4923112,2370,2893,2192,2676,3245,3,78,-950,64,24,-303,-15,2,3,0,18,0,410,-36117.0,108.0
4923124,2371,2894,2196,2681,3245,3,78,-950,64,23,-303,-13,4,0,1,21,0,410,-36116.0,108.0
4923142,2380,2905,2195,2680,3245,3,78,-950,64,23,-303,-13,4,0,1,21,0,410,-36115.0,108.0
4923153,2374,2898,2192,2676,3245,2,78,-950,64,22,-303,-16,2,6,-1,25,10,410,-36113.0,108.0
4923172,2374,2898,2193,2677,3245,2,78,-950,64,22,-303,-16,2,6,-1,25,10,410,-36113.0,108.0
4923184,2374,2898,2191,2675,3245,1,78,-950,64,22,-303,-13,0,-6,-1,18,13,410,-36111.0,108.0
4923203,2374,2898,2195,2680,3245,1,78,-950,64,22,-303,-13,0,-6,-1,18,13,410,-36111.0,108.0
4923215,2372,2896,2194,2678,3245,1,78,-950,65,21,-303,-9,2,-17,5,19,0,410,-36109.0,129.0
4923233,2375,2899,2189,2672,3245,1,78,-950,65,21,-303,-9,2,-17,5,19,0,410,-36108.0,129.0
4923245,2376,2901,2185,2667,3245,0,78,-950,65,21,-303,-10,4,-9,-6,11,2,410,-36106.0,129.0
4923264,2377,2902,2182,2664,3245,0,78,-950,65,21,-303,-10,4,-9,-6,11,2,410,-36105.0,129.0
4923275,2374,2898,2190,2673,3245,0,78,-950,65,21,-303,-7,6,5,-5,6,11,410,-36103.0,129.0
4923294,2375,2899,2188,2671,3245,0,78,-950,65,21,-303,-7,6,5,-5,6,11,410,-36102.0,129.0
4923306,2379,2904,2198,2683,3245,0,78,-950,65,20,-304,-7,2,-2,-6,20,10,410,-36100.0,129.0
4923324,2383,2909,2176,2656,3245,0,78,-950,65,20,-304,-7,2,-2,-6,20,10,410,-36099.0,152.0
4923336,2376,2901,2191,2675,3244,0,78,-950,65,20,-304,-8,1,4,-4,17,3,410,-36097.0,152.0
4923354,2375,2899,2188,2671,3244,0,78,-950,65,20,-304,-8,1,4,-4,17,3,410,-36096.0,152.0
4923366,2383,2909,2187,2670,3245,0,78,-950,65,20,-304,-7,0,2,6,17,-1,410,-36094.0,152.0
4923383,2372,2896,2184,2666,3245,0,78,-950,65,20,-304,-7,0,2,6,17,-1,410,-36093.0,152.0
4923395,2375,2899,2187,2670,3245,-1,78,-950,65,19,-304,-4,1,-12,9,13,9,410,-36091.0,152.0
4923414,2379,2904,2185,2667,3245,-1,78,-950,65,19,-304,-4,1,-12,9,13,9,410,-36090.0,152.0
4923426,2375,2899,2189,2672,3244,-1,78,-950,65,19,-304,-3,-7,-16,-2,8,14,410,-36089.0,163.0
4923444,2383,2909,2189,2672,3244,-1,78,-950,65,19,-304,-3,-7,-16,-2,8,14,410,-36087.0,163.0
4923457,2376,2901,2191,2675,3244,-1,78,-950,65,19,-304,-4,-1,-1,1,15,-3,410,-36086.0,163.0
4923474,2377,2902,2180,2661,3244,-1,78,-950,65,19,-304,-4,-1,-1,1,15,-3,410,-36084.0,163.0
4923486,2376,2901,2188,2671,3244,-2,78,-950,66,18,-304,-2,1,-14,0,16,-5,410,-36082.0,163.0
4923505,2375,2899,2191,2675,3244,-2,78,-950,66,18,-304,-2,1,-14,0,16,-5,410,-36081.0,163.0
4923517,2376,2901,2190,2673,3244,-2,78,-950,66,18,-304,-1,6,-12,-8,31,8,410,-36079.0,163.0
4923534,2378,2903,2186,2669,3244,-2,78,-950,66,18,-304,-1,6,-12,-8,31,8,410,-36078.0,169.0
4923547,2376,2901,2186,2669,3244,-3,78,-949,66,17,-304,-13,-3,15,-8,16,3,410,-36076.0,169.0
4923566,2381,2907,2189,2672,3244,-3,78,-949,66,17,-304,-13,-3,15,-8,16,3,410,-36075.0,169.0
4923578,2374,2898,2188,2671,3244,-3,78,-950,66,17,-304,-13,-4,7,8,-11,-21,410,-36074.0,169.0
4923598,2376,2901,2187,2670,3245,-3,78,-950,66,18,-303,-11,0,-6,15,-108,-21,410,-36073.0,169.0
4923617,2381,2907,2181,2663,3245,-3,78,-950,66,18,-303,-11,0,-6,15,-108,-21,410,-36073.0,169.0
4923630,2376,2901,2195,2680,3245,-2,78,-950,65,18,-303,-8,-1,-15,13,-22,5,410,-36073.0,169.0
4923650,2377,2902,2190,2673,3244,-2,77,-950,65,18,-304,-6,-7,-5,16,-1,19,410,-36072.0,86.0
4923671,2375,2899,2187,2670,3244,-2,77,-950,65,18,-304,-9,-5,1,12,16,13,410,-36072.0,86.0
4923688,2385,2912,2188,2671,3244,-2,77,-950,65,18,-304,-9,-5,1,12,16,13,410,-36072.0,86.0
4923700,2375,2899,2198,2683,3244,-3,76,-950,65,17,-304,-6,-8,-12,16,11,-15,410,-36072.0,86.0
4923721,2371,2894,2190,2673,3245,-3,76,-950,64,17,-303,-5,1,-12,12,-3,-26,410,-36072.0,86.0
4923739,2374,2898,2191,2675,3245,-3,76,-950,64,17,-303,-5,1,-12,12,-3,-26,410,-36071.0,86.0
4923751,2372,2896,2184,2666,3245,-1,76,1049,64,18,-311,-6,1,6,0,-34,-6,410,-36071.0,16.0
4923771,2378,2903,2185,2667,3245,-1,76,-950,64,19,-303,-6,-3,0,-2,-45,11,410,-36071.0,16.0
4923789,2379,2904,2186,2669,3245,-1,76,-950,64,19,-303,-6,-3,0,-2,-45,11,410,-36071.0,16.0
4923801,2370,2893,2187,2670,3245,0,76,-950,64,19,-304,-5,-13,-13,-3,-28,10,410,-36071.0,16.0
4923822,2368,2891,2191,2675,3245,0,76,-950,63,20,-304,-4,-9,-7,-1,1,-15,410,-36071.0,16.0
4923842,2376,2901,2195,2680,3245,0,76,-950,64,20,-303,-5,-13,-2,0,7,-26,410,-36071.0,16.0
4923862,2376,2901,2187,2670,3245,0,76,-950,64,20,-303,-13,-2,14,-2,5,-26,410,-36071.0,0.0
4923880,2379,2904,2187,2670,3245,0,76,-950,64,20,-303,-13,-2,14,-2,5,-26,410,-36071.0,0.0
4923892,2370,2893,2190,2673,3246,0,76,-950,64,20,-302,-12,4,-5,-10,-21,0,410,-36071.0,0.0
4923912,2387,2914,2186,2669,3246,0,76,-950,64,20,-302,-15,2,-7,-12,-26,9,410,-36071.0,0.0
4923930,2376,2901,2189,2672,3246,0,76,-950,64,20,-302,-15,2,-7,-12,-26,9,410,-36071.0,0.0
4923942,2372,2896,2197,2682,3245,0,77,-950,64,21,-303,-10,-1,-18,-17,-18,18,410,-36071.0,0.0
4923962,2375,2899,2188,2671,3245,0,77,-950,64,21,-303,-17,-10,-5,-19,-6,7,410,-36070.0,16.0
4923980,2376,2901,2186,2669,3245,0,77,-950,64,21,-303,-17,-10,-5,-19,-6,7,410,-36070.0,16.0
4923992,2380,2905,2188,2671,3245,0,78,-950,65,21,-303,-16,-3,-10,-15,5,-30,410,-36070.0,16.0
4924012,2368,2891,2196,2681,3246,0,78,-950,65,21,-302,-17,3,-8,-16,6,-31,410,-36070.0,16.0
4924030,2372,2896,2189,2672,3246,0,78,-950,65,21,-302,-17,3,-8,-16,6,-31,410,-36069.0,16.0
4924042,2371,2894,2187,2670,3246,0,78,-950,65,21,1697,-18,18,-2,-9,-1,-13,410,-36069.0,16.0
4924062,2373,2897,2176,2656,3246,0,78,-950,65,21,-302,-18,14,-2,-10,-13,6,410,-36070.0,0.0
4924080,2371,2894,2188,2671,3246,0,78,-950,65,21,-302,-18,14,-2,-10,-13,6,410,-36070.0,0.0
4924092,2371,2894,2191,2675,3246,1,78,-950,65,22,-310,-17,10,-135,0,-16,4,410,-36070.0,0.0
4924112,2364,2886,2192,2676,3246,1,78,-950,65,22,-302,-16,4,-12,6,-14,-10,410,-36070.0,0.0
4924130,2378,2903,2189,2672,3246,1,78,-950,65,22,-302,-16,4,-12,6,-14,-10,410,-36070.0,0.0
4924142,2368,2891,2194,2678,3246,1,78,-950,64,22,-302,-14,8,-15,11,-16,-11,410,-36070.0,0.0
4924162,2372,2896,2183,2665,3246,1,78,-950,64,22,-302,-13,4,-2,12,-12,0,410,-36069.0,16.0
4924180,2371,2894,2194,2678,3246,1,78,-950,64,22,-302,-13,4,-2,12,-12,0,410,-36069.0,16.0
4924192,2376,2901,2186,2669,3246,1,78,-950,64,22,-302,-16,-2,15,5,-8,18,410,-36068.0,16.0
4924213,2374,2898,2189,2672,3246,1,78,-950,64,22,-302,-18,-7,11,2,-14,15,410,-36068.0,16.0
4924231,2373,2897,2196,2681,3246,1,78,-950,64,22,-302,-18,-7,11,2,-14,15,410,-36067.0,16.0
4924243,2372,2896,2189,2672,3246,1,78,-950,64,22,-302,-14,-1,1,3,-10,-5,410,-36066.0,16.0
4924263,2368,2891,2190,2673,3246,1,78,-950,64,22,-302,-14,0,-1,3,-10,-8,410,-36065.0,66.0
4924282,2374,2898,2189,2672,3246,1,78,-950,64,22,-302,-14,0,-1,3,-10,-8,410,-36065.0,66.0
4924294,2379,2904,2189,2672,3246,2,78,-950,64,23,-302,-13,4,-9,0,-18,5,410,-36064.0,66.0
4924314,2371,2894,2195,2680,3246,2,78,-950,64,23,-302,-8,4,-19,1,-15,10,410,-36064.0,66.0
4924331,2360,2881,2189,2672,3246,2,78,-950,64,23,-302,-8,4,-19,1,-15,10,410,-36063.0,66.0
4924343,2380,2905,2190,2673,3245,3,78,-950,64,23,-303,-9,0,-26,1,-1,16,410,-36063.0,66.0
4924363,2371,2894,2195,2680,3245,2,78,-950,64,23,-303,-10,-2,-17,1,3,10,410,-36062.0,50.0
4924381,2365,2887,2190,2673,3245,2,78,-950,64,23,-303,-10,-2,-17,1,3,10,410,-36061.0,50.0
4924393,2373,2897,2185,2667,3245,2,78,-950,64,23,-303,-11,1,-7,3,7,-5,410,-36060.0,50.0
4924413,2368,2891,2190,2673,3245,2,78,-950,64,22,-303,-14,4,2,-3,13,-5,410,-36058.0,50.0
4924431,2373,2897,2189,2672,3245,2,78,-950,64,22,-303,-14,4,2,-3,13,-5,410,-36057.0,50.0
4924443,2373,2897,2196,2681,3245,1,78,-950,64,22,-303,-13,3,-4,-5,7,4,410,-36056.0,50.0
4924463,2373,2897,2195,2680,3245,1,78,-950,64,22,-303,-14,0,8,-5,6,7,410,-36055.0,116.0
4924480,2375,2899,2187,2670,3245,1,78,-950,64,22,-303,-14,0,8,-5,6,7,410,-36054.0,116.0
4924492,2364,2886,2191,2675,3245,1,78,-950,64,22,-303,-13,0,2,0,14,1,410,-36052.0,116.0
4924512,2369,2892,2184,2666,3245,0,78,-950,64,21,-303,-13,0,0,1,15,-3,410,-36052.0,116.0
4924529,2374,2898,2194,2678,3245,0,78,-950,64,21,-303,-13,0,0,1,15,-3,410,-36051.0,116.0
4924541,2371,2894,2189,2672,3245,0,78,-950,64,21,-303,-11,1,-5,10,15,-2,410,-36050.0,116.0
4924559,2370,2893,2189,2672,3245,0,78,-950,64,21,-303,-11,1,-5,10,15,-2,410,-36049.0,116.0
4924571,2375,2899,2184,2666,3245,0,77,-950,64,20,-303,-12,0,-5,3,17,4,410,-36048.0,108.0
4924589,2383,2909,2188,2671,3245,0,77,-950,64,20,-303,-12,0,-5,3,17,4,410,-36047.0,108.0
4924601,2375,2899,2184,2666,3245,0,77,-950,64,20,-303,-11,0,-12,-1,11,6,410,-36045.0,108.0
4924619,2372,2896,2188,2671,3245,0,77,-950,64,20,-303,-11,0,-12,-1,11,6,410,-36044.0,108.0
4924631,2372,2896,2187,2670,3245,0,77,-950,65,20,-303,-10,0,-14,-2,5,0,410,-36042.0,108.0
4924649,2362,2884,2183,2665,3245,0,77,-950,65,20,-303,-10,0,-14,-2,5,0,410,-36042.0,108.0
4924661,2371,2894,2196,2681,3245,0,77,-950,65,20,-303,-10,2,-4,1,5,-1,410,-36040.0,108.0
4924678,2371,2894,2191,2675,3245,0,77,-950,65,20,-303,-10,2,-4,1,5,-1,410,-36039.0,140.0
4924690,2367,2890,2188,2671,3245,0,77,-950,65,20,-303,-9,0,-3,2,2,5,410,-36038.0,140.0
4924708,2366,2888,2188,2671,3245,0,77,-950,65,20,-303,-9,0,-3,2,2,5,410,-36037.0,140.0
4924720,2370,2893,2186,2669,3245,0,77,-950,65,20,-303,-11,1,0,0,5,10,410,-36035.0,140.0
4924738,2383,2909,2184,2666,3245,0,77,-950,65,20,-303,-11,1,0,0,5,10,410,-36034.0,140.0
4924750,2376,2901,2185,2667,3245,0,77,-950,65,19,-303,-12,0,0,-8,6,2,410,-36032.0,140.0
4924768,2374,2898,2187,2670,3245,0,77,-950,65,19,-303,-12,0,0,-8,6,2,410,-36031.0,140.0
4924779,2369,2892,2176,2656,3245,0,78,-950,65,19,-303,-10,0,0,0,6,-2,410,-36029.0,165.0
4924798,2368,2891,2189,2672,3245,0,78,-950,65,19,-303,-10,0,0,0,6,-2,410,-36028.0,165.0
4924810,2376,2901,2184,2666,3245,-1,78,-950,65,19,-303,-8,0,-5,1,10,3,410,-36026.0,165.0
4924828,2373,2897,2191,2675,3245,-1,78,-950,65,19,-303,-8,0,-5,1,10,3,410,-36025.0,165.0
4924840,2370,2893,2186,2669,3245,-1,77,-950,65,19,-303,-10,0,-10,-1,13,6,410,-36023.0,165.0
4924858,2370,2893,2184,2666,3245,-1,77,-950,65,19,-303,-10,0,-10,-1,13,6,410,-36022.0,165.0
4924870,2372,2896,2195,2680,3245,-1,77,-950,65,18,-303,-11,-2,-5,-3,15,4,410,-36020.0,165.0
4924888,2371,2894,2182,2664,3245,-1,77,-950,65,18,-303,-11,-2,-5,-3,15,4,410,-36020.0,137.0
4924901,2374,2898,2186,2669,3245,-2,78,-950,65,18,-303,-8,-4,-11,5,16,1,410,-36019.0,137.0
4924919,2373,2897,2188,2671,3245,-2,78,-950,65,18,-303,-8,-4,-11,5,16,1,410,-36019.0,137.0
4924931,2376,2901,2188,2671,3245,-3,77,-950,65,17,-303,-6,-9,-13,12,15,2,410,-36018.0,137.0
4924949,2375,2899,2180,2661,3245,-3,77,-950,65,17,-303,-6,-9,-13,12,15,2,410,-36018.0,137.0
4924961,2376,2901,2185,2667,3245,-3,77,-950,65,17,-303,-13,-8,3,11,16,2,410,-36018.0,137.0
4924979,2370,2893,2184,2666,3245,-3,77,-950,65,17,-303,-13,-8,3,11,16,2,410,-36017.0,137.0
4924991,2383,2909,2189,2672,3245,-4,76,-950,65,16,-303,-13,-7,4,10,12,0,410,-36017.0,48.0
4925010,2374,2898,2197,2682,3245,-4,76,-950,65,16,-303,-13,-7,4,10,12,0,410,-36017.0,48.0
4925022,2375,2899,2190,2673,3245,-5,76,-950,65,16,-303,-8,-3,-9,7,13,-5,410,-36017.0,48.0
4925039,2368,2891,2183,2665,3245,-5,76,-950,65,16,-303,-8,-3,-9,7,13,-5,410,-36016.0,48.0
4925051,2371,2894,2191,2675,3245,-5,76,-950,65,15,-303,-9,-1,-3,1,10,0,410,-36016.0,48.0
4925070,2379,2904,2186,2669,3245,-5,76,-950,65,15,-303,-9,-1,-3,1,10,0,410,-36016.0,48.0
4925081,2372,2896,2186,2669,3245,-5,76,-950,65,15,-303,-10,-2,5,-1,8,4,410,-36015.0,48.0
4925100,2376,2901,2195,2680,3245,-5,76,-950,65,15,-303,-10,-2,5,-1,8,4,410,-36015.0,30.0
4925112,2375,2899,2183,2665,3245,-5,76,-950,65,15,-303,-4,0,-16,-2,7,1,410,-36014.0,30.0
4925130,2372,2896,2181,2663,3245,-5,76,-950,65,15,-303,-4,0,-16,-2,7,1,410,-36014.0,30.0
4925141,2371,2894,2183,2665,3245,-6,76,-950,65,15,-303,-7,1,-10,-6,10,4,410,-36014.0,30.0
4925160,2376,2901,2187,2670,3245,-6,76,-950,65,15,-303,-7,1,-10,-6,10,4,410,-36013.0,30.0
4925172,2383,2909,2183,2665,3245,-6,76,-950,66,15,-303,-7,-2,4,-7,6,5,410,-36013.0,30.0
4925190,2373,2897,2186,2669,3245,-6,76,-950,66,15,-303,-7,-2,4,-7,6,5,410,-36013.0,30.0
4925202,2370,2893,2183,2665,3245,-6,76,-950,66,14,-303,-8,-4,-1,-3,6,5,410,-36013.0,32.0
4925221,2368,2891,2186,2669,3245,-6,76,-950,66,14,-303,-8,-4,-1,-3,6,5,410,-36013.0,32.0
4925233,2375,2899,2189,2672,3245,-6,76,-950,66,14,-303,-7,-1,-6,0,3,1,410,-36013.0,32.0
4925251,2378,2903,2186,2669,3245,-6,76,-950,66,14,-303,-7,-1,-6,0,3,1,410,-36013.0,32.0
4925263,2369,2892,2186,2669,3245,-6,76,-950,66,14,-303,-8,-2,-1,-1,0,0,410,-36013.0,32.0
4925280,2374,2898,2177,2658,3245,-6,76,-950,66,14,-303,-8,-2,-1,-1,0,0,410,-36013.0,32.0
4925292,2377,2902,2186,2669,3245,-6,76,-950,66,14,-303,-9,-1,-2,-3,3,0,410,-36013.0,32.0
4925311,2375,2899,2191,2675,3245,-6,76,-950,66,14,-303,-9,-1,-2,-3,3,0,410,-36013.0,0.0
4925323,2368,2891,2188,2671,3245,-6,76,-950,66,14,-303,-10,0,-3,-3,1,2,410,-36013.0,0.0
4925341,2381,2907,2179,2660,3245,-6,76,-950,66,14,-303,-10,0,-3,-3,1,2,410,-36013.0,0.0
4925353,2371,2894,2188,2671,3245,-6,76,-950,66,14,-303,-11,-3,-13,-5,4,1,410,-36013.0,0.0
4925371,2374,2898,2188,2671,3245,-6,76,-950,66,14,-303,-11,-3,-13,-5,4,1,410,-36013.0,0.0
4925383,2373,2897,2183,2665,3245,-6,77,-950,66,14,-303,-13,0,-4,-6,4,1,410,-36013.0,0.0
4925401,2375,2899,2191,2675,3245,-6,77,-950,66,14,-303,-13,0,-4,-6,4,1,410,-36013.0,0.0
4925413,2375,2899,2187,2670,3245,-6,77,-950,66,14,-303,-12,-1,-2,-8,6,3,410,-36013.0,0.0
4925431,2379,2904,2185,2667,3245,-6,77,-950,66,14,-303,-12,-1,-2,-8,6,3,410,-36013.0,0.0
4925443,2373,2897,2187,2670,3245,-6,77,-950,66,14,-303,-10,0,-11,-10,7,3,410,-36013.0,0.0
4925461,2368,2891,2186,2669,3245,-6,77,-950,66,14,-303,-10,0,-11,-10,7,3,410,-36013.0,0.0
4925473,2381,2907,2180,2661,3245,-7,78,-950,67,14,-303,-13,0,-2,-8,9,1,410,-36013.0,0.0
4925491,2374,2898,2186,2669,3245,-7,78,-950,67,14,-303,-13,0,-2,-8,9,1,410,-36013.0,0.0
4925503,2383,2909,2184,2666,3245,-7,78,-950,67,14,-303,-11,5,-5,-6,9,-2,410,-36013.0,0.0
4925521,2374,2898,2186,2669,3245,-7,78,-950,67,14,-303,-11,5,-5,-6,9,-2,410,-36013.0,0.0
4925533,2375,2899,2186,2669,3245,-8,78,-950,67,14,-303,-9,4,-7,-6,9,0,410,-36013.0,0.0
4925551,2374,2898,2185,2667,3245,-8,78,-950,67,14,-303,-9,4,-7,-6,9,0,410,-36013.0,0.0
4925563,2376,2901,2191,2675,3245,-8,78,-950,67,13,-303,-9,5,-4,-4,10,7,410,-36013.0,0.0
4925581,2377,2902,2178,2659,3245,-8,78,-950,67,13,-303,-9,5,-4,-4,10,7,410,-36013.0,0.0
4925593,2371,2894,2183,2665,3245,-8,78,-950,67,13,-304,-10,2,-2,1,11,4,410,-36013.0,0.0
4925611,2376,2901,2183,2665,3245,-8,78,-950,67,13,-304,-10,2,-2,1,11,4,410,-36013.0,0.0
4925623,2375,2899,2187,2670,3245,-8,78,-950,67,13,-303,-11,-2,-2,1,12,-2,410,-36013.0,0.0
4925641,2374,2898,2189,2672,3245,-8,78,-950,67,13,-303,-11,-2,-2,1,12,-2,410,-36013.0,0.0
4925653,2374,2898,2184,2666,3245,-9,78,-950,67,12,-303,-12,0,-1,2,10,-5,410,-36013.0,0.0
4925672,2372,2896,2186,2669,3245,-9,78,-950,67,12,-303,-12,0,-1,2,10,-5,410,-36013.0,0.0
4925683,2396,2925,2179,2660,3245,-9,78,-950,68,12,-303,-13,-1,3,2,7,3,410,-36013.0,0.0
4925702,2375,2899,2183,2665,3245,-9,78,-950,68,12,-303,-13,-1,3,2,7,3,410,-36013.0,0.0
4925713,2374,2898,2191,2675,3245,-9,78,-950,68,12,-303,-11,-2,-5,0,6,5,410,-36012.0,0.0
4925731,2383,2909,2183,2665,3245,-9,78,-950,68,12,-303,-11,-2,-5,0,6,5,410,-36012.0,15.0
4925743,2374,2898,2190,2673,3245,-10,78,-950,68,12,-303,-8,-3,-8,-1,5,-1,410,-36011.0,15.0
4925762,2383,2909,2176,2656,3245,-10,78,-950,68,12,-303,-8,-3,-8,-1,5,-1,410,-36011.0,15.0
4925774,2371,2894,2186,2669,3245,-10,78,-950,68,12,-303,-8,-1,-9,-5,4,-5,410,-36011.0,15.0
4925793,2379,2904,2181,2663,3245,-10,78,-950,68,12,-303,-8,-1,-9,-5,4,-5,410,-36011.0,15.0
4925805,2375,2899,2191,2675,3245,-10,78,-950,68,12,-303,-12,0,-3,-5,4,3,410,-36010.0,15.0
4925824,2376,2901,2177,2658,3245,-10,78,-950,68,12,-303,-12,0,-3,-5,4,3,410,-36010.0,15.0
4925836,2376,2901,2182,2664,3245,-10,78,-950,68,12,-304,-10,-1,-5,-1,1,9,410,-36010.0,31.0
4925856,2378,2903,2176,2656,3244,-10,78,-950,68,12,-304,-11,-2,-1,-1,3,10,410,-36010.0,31.0
4925877,2376,2901,2183,2665,3244,-10,78,-950,68,12,-304,-14,-2,2,0,3,7,410,-36010.0,31.0
4925896,2379,2904,2185,2667,3244,-10,78,-950,68,12,-304,-14,-2,2,0,3,7,410,-36010.0,31.0
4925908,2375,2899,2176,2656,3244,-10,78,-950,68,12,-304,-11,-2,0,1,5,-6,410,-36010.0,31.0
4925929,2374,2898,2186,2669,3244,-10,78,1049,68,12,-304,-11,0,-7,1,8,-3,410,-36010.0,31.0
4925949,2393,2921,2180,2661,3244,-10,78,-950,68,12,-304,-12,1,-15,0,9,3,410,-36010.0,0.0
4925969,2376,2901,2181,2663,3244,-10,78,-950,68,12,-304,-14,-2,-10,-2,8,6,410,-36010.0,0.0
4925988,2379,2904,2177,2658,3244,-10,78,-950,68,12,-304,-14,-2,-10,-2,8,6,410,-36010.0,0.0
4926000,2369,2892,2181,2663,3244,-10,78,-950,68,11,-304,-13,-2,-10,-1,8,0,410,-36010.0,0.0
4926020,2374,2898,2183,2665,3244,-10,78,-950,68,11,-304,-10,1,-11,0,5,-5,410,-36010.0,0.0
4926039,2369,2892,2183,2665,3244,-10,78,-950,68,11,-304,-10,1,-11,0,5,-5,410,-36010.0,0.0
4926051,2375,2899,2179,2660,3244,-10,78,-950,68,11,-304,-11,1,-4,-1,3,-1,410,-36010.0,0.0
4926071,2387,2914,2176,2656,3244,-10,78,-950,68,11,1695,-13,-2,1,-3,2,3,410,-36010.0,0.0
4926090,2368,2891,2181,2663,3244,-10,78,-950,68,11,1695,-13,-2,1,-3,2,3,410,-36010.0,0.0
4926102,2377,2902,2187,2670,3244,-10,78,-950,68,11,-304,-14,-2,-3,-1,3,5,410,-36010.0,0.0
4926121,2379,2904,2183,2665,3244,-10,78,-950,68,11,-304,-14,-2,-3,-1,3,5,410,-36010.0,0.0
4926133,2384,2910,2184,2666,3244,-10,78,-950,68,11,-304,-14,1,6,0,2,-3,410,-36010.0,0.0
4926151,2375,2899,2182,2664,3244,-10,78,-950,68,11,-304,-14,1,6,0,2,-3,410,-36010.0,0.0
4926163,2378,2903,2182,2664,3244,-90,78,-950,68,11,-304,-14,-2,0,0,0,-3,410,-36010.0,0.0
4926182,2375,2899,2191,2675,3244,-90,78,-950,68,11,-304,-14,-2,0,0,0,-3,410,-36010.0,0.0
4926194,2374,2898,2183,2665,3244,-10,78,-950,68,11,-304,-15,1,2,3,-4,0,410,-36010.0,0.0
4926212,2376,2901,2182,2664,3244,-10,78,-950,68,11,-304,-15,1,2,3,-4,0,410,-36010.0,0.0
4926224,2377,2902,2192,2676,3244,-10,78,-950,68,11,-304,-16,0,-5,2,-4,3,410,-36010.0,0.0
4926242,2375,2899,2185,2667,3244,-10,78,-950,68,11,-304,-16,0,-5,2,-4,3,410,-36010.0,0.0
4926254,2376,2901,2186,2669,3244,-10,78,-950,68,11,-304,-13,-1,-18,1,-4,4,410,-36010.0,0.0
4926273,2377,2902,2176,2656,3244,-10,78,-950,68,11,-304,-13,-1,-18,1,-4,4,410,-36010.0,0.0
4926285,2375,2899,2185,2667,3244,-10,78,-950,68,11,-304,-14,-1,-12,0,-6,4,410,-36010.0,0.0
4926303,2375,2899,2185,2667,3244,-10,78,-950,68,11,-304,-14,-1,-12,0,-6,4,410,-36010.0,0.0
4926315,2372,2896,2182,2664,3244,-10,78,-950,68,12,-304,-12,-1,-4,0,-7,3,410,-36010.0,0.0
4926334,2384,2910,2199,2684,3244,-10,78,-950,68,12,-304,-12,-1,-4,0,-7,3,410,-36010.0,0.0
4926345,2374,2898,2186,2669,3244,-10,78,-950,68,12,-304,-7,-4,-11,0,-3,0,410,-36010.0,0.0
4926364,2379,2904,2176,2656,3244,-10,78,-950,68,12,-304,-7,-4,-11,0,-3,0,410,-36010.0,0.0
4926376,2370,2893,2179,2660,3244,-10,78,-950,68,12,-304,-7,-2,-8,-2,0,5,410,-36010.0,0.0
4926395,2368,2891,2183,2665,3244,-10,78,-950,68,12,-304,-7,-2,-8,-2,0,5,410,-36010.0,0.0
4926407,2374,2898,2185,2667,3244,-10,78,-950,68,12,-304,-5,-2,-3,-3,3,1,410,-36010.0,0.0
4926425,2379,2904,2184,2666,3244,-10,78,-950,68,12,-304,-5,-2,-3,-3,3,1,410,-36010.0,0.0
4926437,2374,2898,2183,2665,3244,-10,78,-950,68,12,-304,-9,-3,3,-2,1,-1,410,-36010.0,0.0
4926456,2370,2893,2183,2665,3244,-10,78,-950,68,12,-304,-9,-3,3,-2,1,-1,410,-36010.0,0.0
4926468,2377,2902,2186,2669,3244,-10,78,-950,68,12,-304,-7,-1,-9,0,-8,-9,410,-36010.0,0.0
4926485,2376,2901,2182,2664,3244,-10,78,-950,68,12,-304,-7,-1,-9,0,-8,-9,410,-36010.0,0.0
4926497,2372,2896,2182,2664,3245,-10,78,-950,68,12,-304,-7,0,-10,-5,-8,-7,410,-36010.0,0.0
4926516,2386,2913,2181,2663,3245,-10,78,-950,68,12,-304,-7,0,-10,-5,-8,-7,410,-36010.0,0.0
4926528,2375,2899,2179,2660,3245,-9,78,-950,68,12,-304,-11,2,6,-3,-15,-1,410,-36010.0,0.0
4926545,2378,2903,2180,2661,3245,-9,78,-950,68,12,-304,-11,2,6,-3,-15,-1,410,-36010.0,0.0
4926557,2377,2902,2187,2670,3245,-8,78,-950,67,13,-304,-14,1,4,-1,-17,-7,410,-36010.0,0.0
4926575,2368,2891,2184,2666,3245,-8,78,-950,67,13,-304,-14,1,4,-1,-17,-7,410,-36010.0,0.0
4926587,2383,2909,2182,2664,3245,-8,78,-950,67,13,-303,-15,2,4,2,-24,-10,410,-36010.0,0.0
4926606,2381,2907,2184,2666,3245,-8,78,-950,67,13,-303,-15,2,4,2,-24,-10,410,-36010.0,0.0
4926618,2381,2907,2183,2665,3245,-7,78,-950,67,14,-303,-18,2,13,3,-36,-4,410,-36010.0,0.0
4926636,2383,2909,2207,2694,3245,-7,78,-950,67,14,-303,-18,2,13,3,-36,-4,410,-36010.0,0.0
4926647,2379,2904,2182,2664,3245,-6,78,-950,67,15,-303,-15,0,-12,6,-35,4,410,-36010.0,0.0
4926666,2377,2902,2193,2677,3245,-6,78,-950,67,15,-303,-15,0,-12,6,-35,4,410,-36010.0,0.0
4926678,2377,2902,2185,2667,3245,-5,78,-950,66,16,-303,-11,0,-24,3,-25,8,410,-36010.0,0.0
4926695,2374,2898,2184,2666,3245,-5,78,-950,66,16,-303,-11,0,-24,3,-25,8,410,-36010.0,0.0
4926707,2375,2899,2180,2661,3245,-5,78,-950,66,16,-304,-15,-3,-14,4,-17,-1,410,-36010.0,0.0
4926726,2374,2898,2191,2675,3245,-5,78,-950,66,16,-304,-15,-3,-14,4,-17,-1,410,-36010.0,0.0
4926738,2368,2891,2176,2656,3245,-4,78,-950,66,17,-303,-15,-2,1,6,-93,-8,410,-36011.0,0.0
4926757,2368,2891,2187,2670,3245,-4,78,-950,66,17,-303,-15,-2,1,6,-93,-8,410,-36011.0,0.0
4926769,2380,2905,2186,2669,3245,-3,78,-950,66,17,-303,-18,-1,0,2,-20,-1,410,-36011.0,0.0
4926786,2376,2901,2185,2667,3245,-3,78,-950,66,17,-303,-18,-1,0,2,-20,-1,410,-36011.0,-15.0
4926799,2377,2902,2188,2671,3245,-3,78,-950,66,18,-303,-13,-3,-3,-1,-25,3,410,-36011.0,-15.0
4926818,2381,2907,2185,2667,3245,-3,78,-950,66,18,-303,-13,-3,-3,-1,-25,3,410,-36011.0,-15.0
4926830,2374,2898,2181,2663,3245,-2,78,-950,66,18,-303,-15,-4,-1,-1,-8,-3,410,-36010.0,-15.0
4926851,2374,2898,2187,2670,3245,-2,78,-950,66,18,-303,-15,-8,0,0,-1,-9,410,-36010.0,-15.0
4926871,2383,2909,2184,2666,3245,-2,78,-950,66,18,-303,-15,0,2,-1,-2,-10,410,-36010.0,-15.0
4926889,2374,2898,2190,2673,3245,-2,78,-950,66,18,-303,-15,0,2,-1,-2,-10,410,-36010.0,16.0
4926901,2375,2899,2189,2672,3245,-2,78,-950,66,18,-303,-18,0,-1,-1,-5,-9,410,-36010.0,16.0
4926922,2354,2874,2200,2686,3245,-2,78,-950,66,18,-303,-20,1,-4,0,-13,-8,410,-36010.0,16.0
4926939,2371,2894,2191,2675,3245,-2,78,-950,66,18,-303,-20,1,-4,0,-13,-8,410,-36010.0,16.0
4926951,2370,2893,2190,2673,3245,-1,78,1049,65,19,1696,-17,1,-139,1,-27,-5,410,-36010.0,16.0
4926972,2376,2901,2184,2666,3245,-1,78,-950,65,19,-303,-15,4,-7,3,-21,-1,410,-36010.0,16.0
4926989,2372,2896,2181,2663,3245,-1,78,-950,65,19,-303,-15,4,-7,3,-21,-1,410,-36010.0,0.0
4927001,2377,2902,2199,2684,3245,0,78,-950,65,19,-311,-18,5,-11,3,-13,1,410,-36010.0,0.0
4927022,2368,2891,2191,2675,3245,0,78,-950,65,20,-303,-17,3,-13,5,-5,4,410,-36010.0,0.0
4927039,2368,2891,2189,2672,3245,0,78,-950,65,20,-303,-17,3,-13,5,-5,4,410,-36010.0,0.0
4927051,2375,2899,2181,2663,3245,0,78,-950,65,20,-303,-18,-1,-16,6,0,1,410,-36010.0,0.0
4927071,2371,2894,2191,2675,3245,0,78,-950,65,20,-303,-21,-3,0,5,-4,0,410,-36011.0,0.0
4927089,2368,2891,2192,2676,3245,0,78,-950,65,20,-303,-21,-3,0,5,-4,0,410,-36011.0,-16.0
4927101,2370,2893,2189,2672,3245,0,78,-950,65,20,-303,-18,-3,2,4,-11,0,410,-36011.0,-16.0
4927121,2375,2899,2196,2681,3245,0,78,-950,65,20,-303,-14,-2,-2,3,-4,0,410,-36011.0,-16.0
4927139,2373,2897,2184,2666,3245,0,78,-950,65,20,-303,-14,-2,-2,3,-4,0,410,-36011.0,-16.0
4927151,2374,2898,2186,2669,3245,0,78,-950,65,20,-303,-16,-2,-20,0,15,3,410,-36011.0,-16.0
4927171,2378,2903,2184,2666,3245,-1,78,-950,65,19,-303,-19,-2,0,-1,25,3,410,-36011.0,-16.0
4927189,2380,2905,2207,2694,3245,-1,78,-950,65,19,-303,-19,-2,0,-1,25,3,410,-36011.0,0.0
4927201,2376,2901,2190,2673,3245,-1,78,-950,65,19,-303,-19,0,0,-1,26,3,410,-36011.0,0.0
4927221,2375,2899,2189,2672,3245,-2,78,-950,65,18,-303,-19,-2,-8,-6,21,1,410,-36011.0,0.0
4927238,2376,2901,2187,2670,3245,-2,78,-950,65,18,-303,-19,-2,-8,-6,21,1,410,-36011.0,0.0
4927250,2383,2909,2184,2666,3245,-2,78,-950,66,18,-303,-16,-3,-17,-5,11,3,410,-36010.0,0.0
4927269,2378,2903,2188,2671,3245,-2,78,-950,66,18,-303,-16,-3,-17,-5,11,3,410,-36010.0,0.0
4927281,2376,2901,2184,2666,3245,-3,78,-950,66,18,-303,-14,4,-139,-5,11,0,410,-36010.0,0.0
4927301,2375,2899,2195,2680,3245,-3,78,-950,66,17,-303,-11,7,-10,-3,18,1,410,-36010.0,14.0
4927321,2373,2897,2189,2672,3245,-3,78,-950,66,17,-303,-10,5,-13,-7,23,11,410,-36010.0,14.0
4927339,2379,2904,2187,2670,3245,-3,78,-950,66,17,-303,-10,5,-13,-7,23,11,410,-36010.0,14.0
4927351,2376,2901,2183,2665,3245,-5,78,-950,66,16,-303,-14,0,-3,-3,31,15,410,-36010.0,14.0
4927370,2371,2894,2192,2676,3245,-5,78,-950,66,16,-303,-14,0,-3,-3,31,15,410,-36010.0,14.0
4927382,2383,2909,2184,2666,3245,-5,78,-950,66,15,-303,-19,-2,10,-2,29,5,410,-36010.0,14.0
4927400,2375,2899,2191,2675,3245,-5,78,-950,66,15,-303,-19,-2,10,-2,29,5,410,-36010.0,14.0
4927412,2376,2901,2184,2666,3245,-6,78,-950,67,15,-303,-14,-4,1,0,19,-1,410,-36010.0,0.0
4927432,2368,2891,2184,2666,3245,-6,78,-950,67,15,-303,-17,0,1,3,13,1,410,-36010.0,0.0
4927449,2374,2898,2191,2675,3245,-6,78,-950,67,15,-303,-17,0,1,3,13,1,410,-36010.0,0.0
4927461,2370,2893,2185,2667,3245,-6,78,-950,67,14,-303,-15,0,-1,0,13,5,410,-36010.0,0.0
4927480,2371,2894,2181,2663,3245,-6,78,-950,67,14,-303,-15,0,-1,0,13,5,410,-36010.0,0.0
4927492,2380,2905,2194,2678,3245,-7,78,-950,67,14,-303,-14,1,-8,0,20,10,410,-36010.0,0.0
4927512,2376,2901,2190,2673,3245,-8,78,-950,67,13,-304,-16,-3,-14,-1,27,8,410,-36010.0,0.0
4927532,2378,2903,2185,2667,3245,-8,78,-950,67,13,-304,-18,-2,-10,-1,25,1,410,-36010.0,0.0
4927549,2383,2909,2186,2669,3245,-8,78,-950,67,13,-304,-18,-2,-10,-1,25,1,410,-36010.0,0.0
4927561,2368,2891,2193,2677,3245,-9,78,-950,67,13,-303,-20,3,1,1,16,-5,410,-36010.0,0.0
4927580,2374,2898,2183,2665,3245,-9,78,-950,67,13,-303,-20,3,1,1,16,-5,410,-36010.0,0.0
4927592,2384,2910,2180,2661,3245,-9,78,-950,67,12,-304,-13,3,-4,-2,3,11,410,-36010.0,0.0
4927611,2387,2914,2180,2661,3245,-9,78,-950,67,12,-304,-13,3,-4,-2,3,11,410,-36010.0,0.0
4927623,2380,2905,2180,2661,3244,-9,78,-950,67,12,-304,-8,-2,-18,-4,0,20,410,-36010.0,0.0
4927641,2378,2903,2180,2661,3244,-9,78,-950,67,12,-304,-8,-2,-18,-4,0,20,410,-36010.0,0.0
4927653,2389,2916,2178,2659,3243,-10,78,-949,68,12,1695,-10,-2,-7,-2,19,5,410,-36010.0,0.0
4927673,2376,2901,2177,2658,3243,-10,78,-949,68,12,-304,-9,-1,-5,-1,25,-2,410,-36010.0,0.0
4927691,2372,2896,2179,2660,3243,-10,78,-949,68,12,-304,-9,-1,-5,-1,25,-2,410,-36010.0,0.0
4927702,2381,2907,2187,2670,3244,-11,78,-949,68,11,-304,-12,0,-2,-2,18,-1,410,-36010.0,0.0
4927722,2379,2904,2183,2665,3244,-11,78,-949,68,11,-304,-15,-2,3,-3,15,-1,410,-36010.0,0.0
4927740,2375,2899,2178,2659,3244,-11,78,-949,68,11,-304,-15,-2,3,-3,15,-1,410,-36010.0,0.0
4927752,2377,2902,2183,2665,3244,-11,78,-949,68,10,-304,-14,-1,-2,-2,15,-2,410,-36010.0,0.0
