Timestamp_ms,ADC1_Raw,ADC1_V_milli,ADC2_Raw,ADC2_V_milli,Heading_deci,Roll_deci,Pitch_deci,Quat_W_milli,Quat_X_milli,Quat_Y_milli,Quat_Z_milli,LinAccel_X_centi,LinAccel_Y_centi,LinAccel_Z_centi,AngVel_X_deci,AngVel_Y_deci,AngVel_Z_deci,Temp_C_deci,Encoder_Count,Encoder_RPM_deci
4936979,2378,2903,2200,2686,3241,-15,73,-949,65,6,-307.0,-11.0,-4.0,0.0,0.0,-28.0,5.0,410.0,-36004.0,0.0
4936991,2388,2915,2194,2678,3241,-15,73,-949,64,7,-307.0,-12.0,-2.0,2.0,0.0,-15.0,-8.0,410.0,-36004.0,0.0
4937010,2388,2915,2197,2682,3241,-15,73,-949,64,7,-307.0,-12.0,-2.0,2.0,0.0,-15.0,-8.0,410.0,-36004.0,0.0
4937022,2387,2914,2197,2682,3241,-14,73,-949,64,7,-306.0,-11.0,-1.0,-2.0,0.0,-9.0,-12.0,410.0,-36004.0,0.0
4937042,2390,2918,2196,2681,3241,-14,73,-949,64,7,-306.0,-12.0,2.0,4.0,-5.0,1.0,-9.0,410.0,-36004.0,0.0
4937062,2399,2929,2194,2678,3241,-14,73,-949,64,7,-306.0,-11.0,1.0,14.0,-2.0,5.0,-5.0,410.0,-36004.0,0.0
4937082,2385,2912,2200,2686,3241,-14,73,-949,64,7,-306.0,-14.0,1.0,7.0,0.0,-5.0,-5.0,410.0,-36004.0,0.0
4937101,2391,2919,2193,2677,3241,-14,73,-949,64,7,-306.0,-14.0,1.0,7.0,0.0,-5.0,-5.0,410.0,-36004.0,0.0
4937113,2391,2919,2200,2686,3241,-13,73,-949,64,8,-306.0,-13.0,2.0,-11.0,2.0,-31.0,-3.0,410.0,-36004.0,0.0
4937131,2391,2919,2202,2688,3241,-13,73,-949,64,8,-306.0,-13.0,2.0,-11.0,2.0,-31.0,-3.0,410.0,-36004.0,0.0
4937143,2386,2913,2197,2682,3241,-12,73,-949,64,9,-306.0,-13.0,3.0,-9.0,3.0,-41.0,-4.0,410.0,-36004.0,0.0
4937163,2391,2919,2205,2692,3241,-11,73,-949,64,9,-306.0,-15.0,3.0,-3.0,4.0,-44.0,-1.0,410.0,-36004.0,0.0
4937181,2391,2919,2196,2681,3241,-11,73,-949,64,9,-306.0,-15.0,3.0,-3.0,4.0,-44.0,-1.0,410.0,-36004.0,0.0
4937192,2382,2908,2197,2682,3241,-10,73,-949,63,10,-306.0,-18.0,2.0,8.0,3.0,-44.0,1.0,410.0,-36004.0,0.0
4937212,2386,2913,2200,2686,3241,-9,73,-949,63,11,-306.0,-17.0,-1.0,-1.0,5.0,-45.0,1.0,410.0,-36004.0,0.0
4937230,2393,2921,2200,2686,3241,-9,73,-949,63,11,-306.0,-17.0,-1.0,-1.0,5.0,-45.0,1.0,410.0,-36004.0,0.0
4937242,2391,2919,2205,2692,3241,-8,73,-949,63,12,-306.0,-14.0,0.0,-13.0,3.0,-34.0,-1.0,410.0,-36004.0,0.0
4937261,2395,2924,2205,2692,3241,-8,73,-949,63,12,-306.0,-14.0,0.0,-13.0,3.0,-34.0,-1.0,410.0,-36004.0,0.0
4937273,2388,2915,2204,2691,3241,-7,73,-949,62,13,-306.0,-19.0,0.0,1.0,5.0,-26.0,-5.0,410.0,-36004.0,0.0
4937293,2395,2924,2199,2684,3241,-6,73,-949,62,13,-306.0,-21.0,2.0,4.0,3.0,-104.0,-4.0,410.0,-36004.0,0.0
4937313,2391,2919,2193,2677,3241,-6,73,-949,62,13,-307.0,-14.0,5.0,-19.0,3.0,-23.0,1.0,410.0,-36004.0,0.0
4937331,2387,2914,2203,2689,3241,-6,73,-949,62,13,-307.0,-14.0,5.0,-19.0,3.0,-23.0,1.0,410.0,-36004.0,0.0
4937343,2390,2918,2200,2686,3241,-6,73,-949,62,14,-307.0,-10.0,0.0,-22.0,1.0,-13.0,5.0,410.0,-36004.0,0.0
4937363,2391,2919,2201,2687,3241,-6,73,-949,62,14,-307.0,-12.0,0.0,-145.0,0.0,0.0,-2.0,410.0,-36004.0,0.0
4937383,2394,2923,2207,2694,3241,-6,73,-949,62,14,-306.0,-15.0,0.0,-15.0,0.0,6.0,-7.0,410.0,-36004.0,0.0
4937402,2394,2923,2200,2686,3241,-6,73,-949,62,14,-306.0,-15.0,0.0,-15.0,0.0,6.0,-7.0,410.0,-36004.0,0.0
4937414,2380,2905,2206,2693,3241,-6,73,-949,62,14,-306.0,-16.0,0.0,5.0,-1.0,0.0,-3.0,410.0,-36004.0,0.0
4937434,2391,2919,2204,2691,3241,-6,73,-949,62,14,-306.0,-9.0,1.0,0.0,-1.0,-7.0,0.0,410.0,-36004.0,0.0
4937454,2392,2920,2178,2659,3241,-5,73,-949,62,14,-306.0,-12.0,0.0,5.0,-3.0,-7.0,0.0,410.0,-36004.0,0.0
4937471,2389,2916,2196,2681,3241,-5,73,-949,62,14,-306.0,-12.0,0.0,5.0,-3.0,-7.0,0.0,410.0,-36004.0,0.0
4937483,2395,2924,2200,2686,3241,-5,73,-949,62,14,-306.0,-17.0,0.0,10.0,-1.0,-11.0,-3.0,410.0,-36004.0,0.0
4937503,2392,2920,2192,2676,3241,-5,73,-949,62,15,-306.0,-13.0,4.0,8.0,0.0,-26.0,-3.0,410.0,-36004.0,0.0
4937521,2391,2919,2201,2687,3241,-5,73,-949,62,15,-306.0,-13.0,4.0,8.0,0.0,-26.0,-3.0,410.0,-36004.0,0.0
4937532,2385,2912,2198,2683,3241,-4,73,-949,62,15,-306.0,-13.0,5.0,4.0,-1.0,-30.0,5.0,410.0,-36004.0,0.0
4937551,2386,2913,2201,2687,3241,-4,73,-949,62,15,-306.0,-13.0,5.0,4.0,-1.0,-30.0,5.0,410.0,-36004.0,0.0
4937563,2384,2910,2201,2687,3241,-3,73,-949,61,16,-307.0,-18.0,2.0,6.0,0.0,-26.0,8.0,410.0,-36004.0,0.0
4937580,2384,2910,2211,2699,3241,-3,73,-949,61,16,-307.0,-18.0,2.0,6.0,0.0,-26.0,8.0,410.0,-36004.0,0.0
4937592,2387,2914,2204,2691,3241,-2,73,-949,61,17,-307.0,-21.0,1.0,-3.0,5.0,-28.0,0.0,410.0,-36004.0,0.0
4937611,2387,2914,2207,2694,3241,-2,73,-949,61,17,-307.0,-21.0,1.0,-3.0,5.0,-28.0,0.0,410.0,-36004.0,0.0
4937622,2392,2920,2208,2695,3241,-1,73,-949,61,18,-307.0,-12.0,0.0,-23.0,5.0,-35.0,-3.0,410.0,-36004.0,0.0
4937641,2378,2903,2197,2682,3241,-1,73,-949,61,18,-307.0,-12.0,0.0,-23.0,5.0,-35.0,-3.0,410.0,-36004.0,0.0
4937653,2388,2915,2203,2689,3240,-1,73,-949,61,18,-307.0,-12.0,2.0,-20.0,3.0,-15.0,-3.0,410.0,-36004.0,0.0
4937671,2390,2918,2204,2691,3240,-1,73,-949,61,18,-307.0,-12.0,2.0,-20.0,3.0,-15.0,-3.0,410.0,-36004.0,0.0
4937683,2386,2913,2202,2688,3240,-1,73,-949,61,18,-307.0,-14.0,5.0,-24.0,2.0,5.0,-1.0,410.0,-36004.0,0.0
4937702,2386,2913,2202,2688,3240,-1,73,-949,61,18,-307.0,-14.0,5.0,-24.0,2.0,5.0,-1.0,410.0,-36004.0,0.0
4937714,2386,2913,2204,2691,3240,-1,73,-949,61,18,-307.0,-16.0,3.0,-12.0,-1.0,0.0,3.0,410.0,-36004.0,0.0
4937734,2390,2918,2197,2682,3240,-1,73,-949,61,18,-307.0,-16.0,0.0,8.0,0.0,0.0,5.0,410.0,-36004.0,0.0
4937753,2388,2915,2203,2689,3240,-1,73,-949,61,18,-307.0,-16.0,0.0,8.0,0.0,0.0,5.0,410.0,-36004.0,0.0
4937765,2384,2910,2202,2688,3240,-1,73,-949,61,18,-307.0,-19.0,0.0,25.0,-1.0,4.0,1.0,410.0,-36004.0,0.0
4937785,2381,2907,2203,2689,3240,-1,73,-949,61,18,-307.0,-13.0,3.0,8.0,0.0,0.0,0.0,410.0,-36004.0,0.0
4937805,2387,2914,2200,2686,3240,0,73,-949,61,18,-307.0,-11.0,3.0,-2.0,0.0,-6.0,3.0,410.0,-36004.0,0.0
4937823,2391,2919,2201,2687,3240,0,73,-949,61,18,-307.0,-11.0,3.0,-2.0,0.0,-6.0,3.0,410.0,-36004.0,0.0
4937835,2391,2919,2208,2695,3240,0,73,-949,61,18,-307.0,-9.0,5.0,-141.0,-1.0,-6.0,3.0,410.0,-36004.0,0.0
4937855,2384,2910,2206,2693,3240,0,73,-949,61,18,-307.0,-11.0,3.0,0.0,0.0,-5.0,0.0,410.0,-36004.0,0.0
4937872,2389,2916,2223,2714,3240,0,73,-949,61,18,-307.0,-11.0,3.0,0.0,0.0,-5.0,0.0,410.0,-36004.0,0.0
4937883,2403,2934,2202,2688,3240,0,73,-949,61,19,-307.0,-9.0,3.0,-9.0,3.0,-88.0,-3.0,410.0,-36004.0,0.0
4937902,2389,2916,2197,2682,3240,0,73,-949,61,19,-307.0,-9.0,3.0,-9.0,3.0,-88.0,-3.0,410.0,-36004.0,0.0
4937914,2389,2916,2203,2689,3240,0,73,-949,60,19,-307.0,-7.0,5.0,-21.0,1.0,-5.0,-3.0,410.0,-36004.0,0.0
4937933,2389,2916,2200,2686,3240,0,73,-949,60,19,-307.0,-7.0,5.0,-21.0,1.0,-5.0,-3.0,410.0,-36004.0,0.0
4937945,2389,2916,2206,2693,3240,0,73,-949,60,19,-307.0,-14.0,2.0,-8.0,1.0,-85.0,0.0,410.0,-36004.0,0.0
4937964,2378,2903,2204,2691,3240,0,73,-949,60,19,-307.0,-14.0,2.0,-8.0,1.0,-85.0,0.0,410.0,-36004.0,0.0
4937976,2384,2910,2203,2689,3240,0,73,1050,60,19,-307.0,-18.0,0.0,7.0,-1.0,-16.0,1.0,410.0,-36004.0,0.0
4937996,2388,2915,2202,2688,3240,0,73,-949,60,19,-307.0,-16.0,-1.0,9.0,-1.0,-17.0,-3.0,410.0,-36004.0,0.0
4938017,2396,2925,2201,2687,3240,0,73,-949,60,19,-307.0,-15.0,0.0,4.0,0.0,-7.0,-6.0,410.0,-36004.0,0.0
4938037,2387,2914,2205,2692,3241,0,73,-949,60,20,-307.0,-14.0,5.0,-4.0,-3.0,-7.0,-5.0,410.0,-36004.0,0.0
4938057,2386,2913,2212,2700,3241,0,73,-949,60,20,-307.0,-18.0,5.0,-1.0,-1.0,-10.0,-1.0,410.0,-36004.0,0.0
4938075,2388,2915,2200,2686,3241,0,73,-949,60,20,-307.0,-18.0,5.0,-1.0,-1.0,-10.0,-1.0,410.0,-36004.0,0.0
4938087,2381,2907,2202,2688,3240,0,73,-949,60,20,-307.0,-15.0,4.0,-11.0,0.0,-13.0,4.0,410.0,-36004.0,0.0
4938107,2397,2926,2231,2724,3240,1,73,-949,60,20,-307.0,-14.0,2.0,-12.0,0.0,-10.0,0.0,410.0,-36004.0,0.0
4938126,2384,2910,2202,2688,3240,1,73,-949,60,20,-307.0,-14.0,2.0,-12.0,0.0,-10.0,0.0,410.0,-36004.0,0.0
4938138,2387,2914,2203,2689,3240,1,73,-949,60,20,-307.0,-16.0,5.0,2.0,1.0,0.0,-3.0,410.0,-36004.0,0.0
4938158,2389,2916,2208,2695,3240,1,73,-949,60,20,-307.0,-14.0,7.0,0.0,1.0,-3.0,-3.0,410.0,-36004.0,0.0
4938176,2389,2916,2204,2691,3240,1,73,-949,60,20,-307.0,-14.0,7.0,0.0,1.0,-3.0,-3.0,410.0,-36004.0,0.0
4938188,2386,2913,2203,2689,3240,1,73,-949,60,20,-307.0,-12.0,5.0,-14.0,0.0,-5.0,3.0,410.0,-36004.0,0.0
4938208,2378,2903,2211,2699,3240,1,73,-949,60,20,-307.0,-12.0,0.0,-1.0,3.0,-2.0,1.0,410.0,-36004.0,0.0
4938226,2391,2919,2207,2694,3240,1,73,-949,60,20,-307.0,-12.0,0.0,-1.0,3.0,-2.0,1.0,410.0,-36004.0,0.0
4938238,2380,2905,2202,2688,3240,1,73,-949,60,20,-307.0,-13.0,2.0,-12.0,2.0,-8.0,-1.0,410.0,-36004.0,0.0
4938258,2387,2914,2203,2689,3240,1,73,-949,60,20,-307.0,-14.0,3.0,-5.0,3.0,-11.0,0.0,410.0,-36004.0,0.0
4938277,2377,2902,2204,2691,3240,1,73,-949,60,20,-307.0,-14.0,3.0,-5.0,3.0,-11.0,0.0,410.0,-36004.0,0.0
4938288,2389,2916,2196,2681,3240,1,73,-949,60,21,-307.0,-14.0,4.0,-2.0,1.0,-4.0,3.0,410.0,-36004.0,0.0
4938308,2387,2914,2194,2678,3240,1,73,-949,60,21,-307.0,-12.0,3.0,1.0,1.0,-3.0,3.0,410.0,-36004.0,0.0
4938327,2387,2914,2203,2689,3240,1,73,-949,60,21,-307.0,-12.0,3.0,1.0,1.0,-3.0,3.0,410.0,-36004.0,0.0
4938339,2395,2924,2196,2681,3240,1,73,-949,60,21,-307.0,-11.0,0.0,-18.0,-1.0,-2.0,2.0,410.0,-36004.0,0.0
4938359,2385,2912,2203,2689,3240,1,73,-949,60,21,-307.0,-13.0,1.0,-5.0,-1.0,0.0,3.0,410.0,-36004.0,0.0
4938377,2387,2914,2196,2681,3240,1,73,-949,60,21,-307.0,-13.0,1.0,-5.0,-1.0,0.0,3.0,410.0,-36004.0,0.0
4938388,2388,2915,2200,2686,3240,1,73,-949,60,21,-307.0,-15.0,6.0,0.0,0.0,-3.0,1.0,410.0,-36004.0,0.0
4938408,2388,2915,2207,2694,3240,1,73,-949,60,21,-307.0,-12.0,2.0,-4.0,0.0,-3.0,1.0,410.0,-36004.0,0.0
4938427,2389,2916,2204,2691,3240,1,73,-949,60,21,-307.0,-12.0,2.0,-4.0,0.0,-3.0,1.0,410.0,-36004.0,0.0
4938438,2376,2901,2196,2681,3240,1,73,-949,60,21,-307.0,-13.0,2.0,-12.0,-1.0,1.0,-3.0,410.0,-36004.0,0.0
4938459,2387,2914,2207,2694,3240,1,73,-949,60,21,-307.0,-15.0,5.0,5.0,-2.0,0.0,-1.0,410.0,-36004.0,0.0
4938477,2384,2910,2205,2692,3240,1,73,-949,60,21,-307.0,-15.0,5.0,5.0,-2.0,0.0,-1.0,410.0,-36004.0,0.0
4938488,2380,2905,2198,2683,3240,1,73,-949,60,21,-307.0,-16.0,2.0,16.0,-3.0,-5.0,5.0,410.0,-36004.0,0.0
4938508,2387,2914,2203,2689,3240,1,73,-949,60,21,-307.0,-15.0,0.0,2.0,-1.0,-5.0,1.0,410.0,-36004.0,0.0
4938527,2386,2913,2198,2683,3240,1,73,-949,60,21,-307.0,-15.0,0.0,2.0,-1.0,-5.0,1.0,410.0,-36004.0,0.0
4938539,2372,2896,2205,2692,3240,1,73,-949,60,21,-307.0,-12.0,3.0,-7.0,0.0,-5.0,-5.0,410.0,-36004.0,0.0
4938559,2379,2904,2205,2692,3240,1,73,-949,60,21,-307.0,-16.0,2.0,3.0,1.0,-7.0,-5.0,410.0,-36004.0,0.0
4938577,2387,2914,2203,2689,3240,1,73,-949,60,21,-307.0,-16.0,2.0,3.0,1.0,-7.0,-5.0,410.0,-36004.0,0.0
4938588,2387,2914,2200,2686,3240,1,73,-949,60,21,-307.0,-11.0,6.0,-11.0,0.0,-14.0,3.0,410.0,-36004.0,0.0
4938608,2391,2919,2196,2681,3240,2,73,-949,60,21,-307.0,-10.0,5.0,-13.0,0.0,-13.0,5.0,410.0,-36004.0,0.0
4938626,2385,2912,2209,2697,3240,2,73,-949,60,21,-307.0,-10.0,5.0,-13.0,0.0,-13.0,5.0,410.0,-36004.0,0.0
4938638,2391,2919,2204,2691,3240,2,73,-949,59,22,-307.0,-8.0,4.0,-14.0,2.0,-12.0,8.0,410.0,-36004.0,0.0
4938658,2391,2919,2203,2689,3240,3,73,-949,59,22,-307.0,-11.0,0.0,-5.0,2.0,-8.0,5.0,410.0,-36004.0,0.0
4938675,2389,2916,2204,2691,3240,3,73,-949,59,22,-307.0,-11.0,0.0,-5.0,2.0,-8.0,5.0,410.0,-36004.0,0.0
4938687,2395,2924,2204,2691,3240,3,73,-949,59,22,-307.0,-7.0,2.0,-20.0,3.0,-6.0,1.0,410.0,-36004.0,0.0
4938707,2389,2916,2204,2691,3240,3,73,-949,59,22,-307.0,-7.0,2.0,-27.0,3.0,-6.0,0.0,410.0,-36004.0,0.0
4938724,2392,2920,2203,2689,3240,3,73,-949,59,22,-307.0,-7.0,2.0,-27.0,3.0,-6.0,0.0,410.0,-36004.0,0.0
4938735,2392,2920,2205,2692,3240,3,73,-949,59,22,-307.0,-12.0,1.0,-3.0,0.0,-4.0,1.0,410.0,-36004.0,0.0
4938754,2384,2910,2202,2688,3240,3,73,-949,59,22,-307.0,-12.0,1.0,-3.0,0.0,-4.0,1.0,410.0,-36004.0,0.0
4938766,2391,2919,2198,2683,3240,3,73,-949,59,22,-307.0,-14.0,1.0,17.0,1.0,-11.0,-3.0,410.0,-36004.0,0.0
4938785,2390,2918,2204,2691,3240,3,73,-949,59,22,-307.0,-14.0,1.0,17.0,1.0,-11.0,-3.0,410.0,-36004.0,0.0
4938796,2399,2929,2202,2688,3240,3,73,-949,59,22,-307.0,-12.0,-2.0,11.0,1.0,-3.0,-10.0,410.0,-36004.0,0.0
4938815,2391,2919,2223,2714,3240,3,73,-949,59,22,-307.0,-12.0,-2.0,11.0,1.0,-3.0,-10.0,410.0,-36004.0,0.0
4938827,2386,2913,2202,2688,3241,3,73,-949,59,22,-307.0,-12.0,2.0,0.0,0.0,25.0,-16.0,410.0,-36004.0,0.0
4938847,2385,2912,2213,2702,3241,2,73,-949,60,21,-306.0,-20.0,7.0,1.0,0.0,43.0,-14.0,410.0,-36004.0,0.0
4938866,2386,2913,2213,2702,3241,2,73,-949,60,21,-306.0,-20.0,7.0,1.0,0.0,43.0,-14.0,410.0,-36004.0,0.0
4938878,2399,2929,2198,2683,3241,1,73,-949,60,21,-306.0,-22.0,7.0,1.0,-3.0,6.0,-1.0,410.0,-36004.0,0.0
4938897,2376,2901,2200,2686,3241,1,73,-949,60,21,-306.0,-22.0,7.0,1.0,-3.0,6.0,-1.0,410.0,-36004.0,0.0
4938909,2388,2915,2207,2694,3241,1,73,-949,60,21,-306.0,-16.0,0.0,0.0,0.0,-35.0,-1.0,410.0,-36004.0,0.0
4938926,2386,2913,2209,2697,3241,1,73,-949,60,21,-306.0,-16.0,0.0,0.0,0.0,-35.0,-1.0,410.0,-36004.0,0.0
4938938,2390,2918,2202,2688,3241,3,73,-949,59,22,-306.0,-12.0,6.0,-19.0,1.0,-33.0,-5.0,410.0,-36004.0,0.0
4938957,2394,2923,2207,2694,3241,3,73,-949,59,22,-306.0,-12.0,6.0,-19.0,1.0,-33.0,-5.0,410.0,-36004.0,0.0
4938969,2387,2914,2205,2692,3241,3,73,-949,59,22,-306.0,-5.0,7.0,-27.0,-1.0,-11.0,5.0,410.0,-36004.0,0.0
4938989,2385,2912,2196,2681,3241,3,73,-949,59,22,-307.0,-5.0,5.0,-152.0,-3.0,10.0,6.0,410.0,-36004.0,0.0
4939009,2382,2908,2211,2699,3241,3,73,-949,59,22,-307.0,-13.0,6.0,-10.0,-3.0,20.0,9.0,410.0,-36004.0,0.0
4939027,2388,2915,2202,2688,3241,3,73,-949,59,22,-307.0,-13.0,6.0,-10.0,-3.0,20.0,9.0,410.0,-36004.0,0.0
4939038,2388,2915,2200,2686,3240,2,72,-949,59,22,-307.0,-13.0,3.0,-17.0,-3.0,4.0,7.0,410.0,-36004.0,0.0
4939058,2389,2916,2207,2694,3240,2,72,-949,59,21,-307.0,-10.0,1.0,-14.0,-1.0,-1.0,5.0,410.0,-36004.0,0.0
4939075,2389,2916,2199,2684,3240,2,72,-949,59,21,-307.0,-10.0,1.0,-14.0,-1.0,-1.0,5.0,410.0,-36004.0,0.0
4939087,2380,2905,2197,2682,3240,2,72,-949,59,21,-307.0,-7.0,0.0,-10.0,-3.0,4.0,5.0,410.0,-36004.0,0.0
4939106,2391,2919,2196,2681,3240,2,72,-949,59,21,-307.0,-7.0,0.0,-10.0,-3.0,4.0,5.0,410.0,-36004.0,0.0
4939118,2384,2910,2201,2687,3240,1,73,-949,60,21,-307.0,-6.0,-2.0,13.0,-4.0,21.0,0.0,410.0,-36004.0,0.0
4939135,2389,2916,2200,2686,3240,1,73,-949,60,21,-307.0,-6.0,-2.0,13.0,-4.0,21.0,0.0,410.0,-36004.0,0.0
4939147,2386,2913,2197,2682,3241,1,73,-949,60,20,-307.0,-3.0,-2.0,-1.0,-5.0,35.0,-13.0,410.0,-36004.0,0.0
4939165,2392,2920,2198,2683,3241,1,73,-949,60,20,-307.0,-3.0,-2.0,-1.0,-5.0,35.0,-13.0,410.0,-36004.0,0.0
4939177,2384,2910,2207,2694,3241,0,73,-949,60,20,-306.0,-6.0,1.0,12.0,-8.0,24.0,-13.0,410.0,-36004.0,0.0
4939194,2384,2910,2196,2681,3241,0,73,-949,60,20,-306.0,-6.0,1.0,12.0,-8.0,24.0,-13.0,410.0,-36004.0,0.0
4939206,2388,2915,2196,2681,3241,0,73,-949,61,19,-306.0,-6.0,5.0,17.0,-8.0,-3.0,-3.0,410.0,-36004.0,0.0
4939224,2389,2916,2205,2692,3241,0,73,-949,61,19,-306.0,-6.0,5.0,17.0,-8.0,-3.0,-3.0,410.0,-36004.0,0.0
4939236,2380,2905,2196,2681,3241,0,73,-949,61,20,-306.0,-8.0,5.0,-1.0,-6.0,-30.0,3.0,410.0,-36004.0,0.0
4939254,2384,2910,2204,2691,3241,0,73,-949,61,20,-306.0,-8.0,5.0,-1.0,-6.0,-30.0,3.0,410.0,-36004.0,0.0
4939265,2384,2910,2202,2688,3241,1,73,-949,60,21,-306.0,-9.0,7.0,-13.0,-3.0,-31.0,1.0,410.0,-36004.0,0.0
4939283,2394,2923,2201,2687,3241,1,73,-949,60,21,-306.0,-9.0,7.0,-13.0,-3.0,-31.0,1.0,410.0,-36004.0,0.0
4939295,2385,2912,2200,2686,3241,1,73,-949,60,22,-306.0,-14.0,4.0,-2.0,0.0,-36.0,-1.0,410.0,-36004.0,0.0
4939313,2383,2909,2202,2688,3241,1,73,-949,60,22,-306.0,-14.0,4.0,-2.0,0.0,-36.0,-1.0,410.0,-36004.0,0.0
4939325,2390,2918,2208,2695,3241,3,73,-949,60,22,-306.0,-13.0,4.0,1.0,5.0,-42.0,-6.0,410.0,-36004.0,0.0
4939343,2380,2905,2215,2704,3241,3,73,-949,60,22,-306.0,-13.0,4.0,1.0,5.0,-42.0,-6.0,410.0,-36004.0,0.0
4939354,2379,2904,2196,2681,3241,4,73,-949,59,23,-306.0,-10.0,6.0,-20.0,3.0,-45.0,0.0,410.0,-36004.0,0.0
4939374,2383,2909,2203,2689,3241,5,73,-949,59,24,-306.0,-11.0,7.0,-17.0,5.0,-43.0,10.0,410.0,-36004.0,0.0
4939391,2382,2908,2196,2681,3241,5,73,-949,59,24,-306.0,-11.0,7.0,-17.0,5.0,-43.0,10.0,410.0,-36004.0,0.0
4939403,2388,2915,2202,2688,3241,6,73,1050,59,25,-307.0,-10.0,1.0,4.0,5.0,-33.0,10.0,410.0,-36004.0,0.0
4939423,2380,2905,2207,2694,3240,6,73,-949,59,25,-307.0,-9.0,0.0,-3.0,6.0,-26.0,5.0,410.0,-36004.0,0.0
4939440,2393,2921,2202,2688,3240,6,73,-949,59,25,-307.0,-9.0,0.0,-3.0,6.0,-26.0,5.0,410.0,-36004.0,0.0
4939452,2383,2909,2200,2686,3240,6,73,-949,58,25,-307.0,-9.0,1.0,-10.0,10.0,-7.0,-11.0,410.0,-36004.0,0.0
4939472,2399,2929,2200,2686,3241,7,73,-949,58,25,-307.0,-8.0,4.0,-5.0,11.0,-6.0,-13.0,410.0,-36004.0,0.0
4939490,2384,2910,2198,2683,3241,7,73,-949,58,25,-307.0,-8.0,4.0,-5.0,11.0,-6.0,-13.0,410.0,-36004.0,0.0
4939501,2376,2901,2204,2691,3241,7,72,-949,58,26,-306.0,-7.0,3.0,-2.0,7.0,-12.0,-4.0,410.0,-36004.0,0.0
4939522,2386,2913,2204,2691,3241,7,72,-949,58,26,-307.0,-7.0,-2.0,-4.0,5.0,-9.0,2.0,410.0,-36004.0,0.0
4939541,2368,2891,2202,2688,3241,7,72,-949,58,26,-307.0,-7.0,-2.0,-4.0,5.0,-9.0,2.0,410.0,-36004.0,0.0
4939553,2384,2910,2204,2691,3241,8,72,-949,58,26,-307.0,-10.0,-7.0,-8.0,3.0,-10.0,-7.0,410.0,-36004.0,0.0
4939573,2406,2937,2195,2680,3241,8,72,-949,58,26,-306.0,-9.0,-6.0,-6.0,1.0,-10.0,-15.0,410.0,-36004.0,0.0
4939593,2380,2905,2202,2688,3241,8,72,-949,58,26,-306.0,-13.0,-2.0,14.0,-3.0,-6.0,-19.0,410.0,-36004.0,0.0
4939613,2384,2910,2207,2694,3241,8,72,-949,58,26,-306.0,-12.0,0.0,11.0,-3.0,-8.0,-16.0,410.0,-36004.0,0.0
4939631,2383,2909,2206,2693,3241,8,72,-949,58,26,-306.0,-12.0,0.0,11.0,-3.0,-8.0,-16.0,410.0,-36004.0,0.0
4939643,2378,2903,2204,2691,3242,8,72,-949,57,27,-306.0,-12.0,6.0,5.0,-6.0,-25.0,-1.0,410.0,-36004.0,0.0
4939663,2381,2907,2204,2691,3242,9,72,-949,57,27,-306.0,-8.0,5.0,-6.0,-5.0,-29.0,1.0,410.0,-36004.0,0.0
4939680,2377,2902,2207,2694,3242,9,72,-949,57,27,-306.0,-8.0,5.0,-6.0,-5.0,-29.0,1.0,410.0,-36004.0,0.0
4939692,2382,2908,2214,2703,3242,10,72,-949,57,28,-306.0,-12.0,4.0,-3.0,-3.0,-40.0,-2.0,410.0,-36004.0,0.0
4939712,2376,2901,2207,2694,3242,11,72,-949,57,28,-306.0,-10.0,4.0,2.0,-1.0,-41.0,-4.0,410.0,-36004.0,0.0
4939729,2389,2916,2204,2691,3242,11,72,-949,57,28,-306.0,-10.0,4.0,2.0,-1.0,-41.0,-4.0,410.0,-36004.0,0.0
4939741,2383,2909,2210,2698,3242,11,72,-949,57,29,-306.0,-9.0,10.0,-7.0,1.0,-38.0,-5.0,410.0,-36003.0,0.0
4939762,2387,2914,2205,2692,3242,12,72,-949,56,30,-306.0,-7.0,4.0,-16.0,-1.0,-36.0,-1.0,410.0,-36003.0,0.0
4939779,2388,2915,2217,2706,3242,12,72,-949,56,30,-306.0,-7.0,4.0,-16.0,-1.0,-36.0,-1.0,410.0,-36003.0,0.0
4939791,2378,2903,2208,2695,3242,13,72,-949,56,31,-306.0,-8.0,6.0,-14.0,1.0,-43.0,0.0,410.0,-36003.0,0.0
4939811,2378,2903,2206,2693,3241,14,72,-949,56,31,-306.0,-9.0,3.0,-1.0,3.0,-37.0,-1.0,410.0,-36003.0,0.0
4939828,2381,2907,2204,2691,3241,14,72,-949,56,31,-306.0,-9.0,3.0,-1.0,3.0,-37.0,-1.0,410.0,-36003.0,0.0
4939840,2379,2904,2207,2694,3241,15,72,-949,56,32,-306.0,-8.0,3.0,-13.0,3.0,-112.0,-2.0,410.0,-36003.0,15.0
4939860,2383,2909,2211,2699,3241,16,72,-949,55,33,-306.0,-7.0,0.0,-12.0,3.0,-27.0,-5.0,410.0,-36004.0,15.0
4939877,2383,2909,2204,2691,3241,16,72,-949,55,33,-306.0,-7.0,0.0,-12.0,3.0,-27.0,-5.0,410.0,-36004.0,15.0
4939889,2385,2912,2212,2700,3242,16,72,-949,55,33,-306.0,-10.0,0.0,-8.0,3.0,-13.0,-12.0,410.0,-36004.0,15.0
4939907,2379,2904,2208,2695,3242,16,72,-949,55,33,-306.0,-10.0,0.0,-8.0,3.0,-13.0,-12.0,410.0,-36004.0,15.0
4939919,2381,2907,2207,2694,3242,16,72,-949,55,33,-305.0,-13.0,4.0,9.0,4.0,-5.0,-15.0,410.0,-36004.0,15.0
4939937,2382,2908,2207,2694,3242,16,72,-949,55,33,-305.0,-13.0,4.0,9.0,4.0,-5.0,-15.0,410.0,-36004.0,15.0
4939949,2383,2909,2210,2698,3243,16,72,-949,55,33,-305.0,-13.0,8.0,1.0,2.0,-5.0,-1.0,410.0,-36004.0,-15.0
4939967,2381,2907,2204,2691,3243,16,72,-949,55,33,-305.0,-13.0,8.0,1.0,2.0,-5.0,-1.0,410.0,-36004.0,-15.0
4939979,2384,2910,2208,2695,3243,16,72,-949,55,33,-305.0,-14.0,1.0,7.0,3.0,-13.0,3.0,410.0,-36004.0,-15.0
4939998,2381,2907,2216,2705,3243,16,72,-949,55,33,-305.0,-14.0,1.0,7.0,3.0,-13.0,3.0,410.0,-36004.0,-15.0
4940010,2383,2909,2215,2704,3243,17,72,-949,55,34,-305.0,-13.0,4.0,-1.0,6.0,-18.0,-8.0,410.0,-36004.0,-15.0
4940028,2375,2899,2210,2698,3243,17,72,-949,55,34,-305.0,-13.0,4.0,-1.0,6.0,-18.0,-8.0,410.0,-36004.0,-15.0
4940040,2377,2902,2214,2703,3243,18,71,-949,55,34,-305.0,-10.0,4.0,-7.0,8.0,-27.0,-9.0,410.0,-36004.0,-15.0
4940058,2379,2904,2210,2698,3243,18,71,-949,55,34,-305.0,-10.0,4.0,-7.0,8.0,-27.0,-9.0,410.0,-36004.0,0.0
4940070,2379,2904,2211,2699,3243,19,71,-949,54,35,-305.0,-11.0,4.0,4.0,7.0,-30.0,0.0,410.0,-36004.0,0.0
4940087,2395,2924,2215,2704,3243,19,71,-949,54,35,-305.0,-11.0,4.0,4.0,7.0,-30.0,0.0,410.0,-36004.0,0.0
4940099,2380,2905,2208,2695,3243,20,71,-949,54,36,-305.0,-9.0,4.0,-9.0,5.0,-29.0,5.0,410.0,-36004.0,0.0
4940118,2376,2901,2212,2700,3243,20,71,-949,54,36,-305.0,-9.0,4.0,-9.0,5.0,-29.0,5.0,410.0,-36004.0,0.0
4940129,2380,2905,2208,2695,3243,20,71,-949,54,36,-305.0,-8.0,0.0,-16.0,4.0,-29.0,6.0,410.0,-36004.0,0.0
4940148,2384,2910,2202,2688,3243,20,71,-949,54,36,-305.0,-8.0,0.0,-16.0,4.0,-29.0,6.0,410.0,-36004.0,0.0
4940159,2376,2901,2213,2702,3243,21,71,-949,53,37,-305.0,-8.0,-2.0,-5.0,3.0,-29.0,0.0,410.0,-36004.0,0.0
4940177,2382,2908,2212,2700,3243,21,71,-949,53,37,-305.0,-8.0,-2.0,-5.0,3.0,-29.0,0.0,410.0,-36004.0,0.0
4940189,2372,2896,2208,2695,3243,22,71,-949,53,38,-305.0,-7.0,0.0,-9.0,3.0,-23.0,-7.0,410.0,-36004.0,0.0
4940208,2392,2920,2211,2699,3243,22,71,-949,53,38,-305.0,-7.0,0.0,-9.0,3.0,-23.0,-7.0,410.0,-36004.0,0.0
4940220,2382,2908,2213,2702,3243,23,71,-949,53,38,-305.0,-9.0,6.0,-3.0,1.0,-16.0,-8.0,410.0,-36004.0,0.0
4940237,2379,2904,2214,2703,3243,23,71,-949,53,38,-305.0,-9.0,6.0,-3.0,1.0,-16.0,-8.0,410.0,-36004.0,0.0
4940249,2391,2919,2203,2689,3243,23,71,-949,53,38,-305.0,-11.0,6.0,4.0,3.0,-6.0,-4.0,410.0,-36004.0,0.0
4940267,2382,2908,2208,2695,3243,23,71,-949,53,38,-305.0,-11.0,6.0,4.0,3.0,-6.0,-4.0,410.0,-36004.0,0.0
4940279,2373,2897,2208,2695,3243,23,71,-949,53,38,-305.0,-12.0,2.0,5.0,5.0,8.0,-5.0,410.0,-36004.0,0.0
4940297,2381,2907,2208,2695,3243,23,71,-949,53,38,-305.0,-12.0,2.0,5.0,5.0,8.0,-5.0,410.0,-36004.0,0.0
4940309,2368,2891,2209,2697,3243,23,71,-950,53,38,-305.0,-11.0,1.0,-3.0,3.0,3.0,-7.0,410.0,-36004.0,0.0
4940327,2377,2902,2215,2704,3243,23,71,-950,53,38,-305.0,-11.0,1.0,-3.0,3.0,3.0,-7.0,410.0,-36004.0,0.0
4940339,2379,2904,2208,2695,3243,23,71,-950,53,38,-305.0,-10.0,5.0,-12.0,1.0,-5.0,-5.0,410.0,-36004.0,0.0
4940358,2407,2938,2202,2688,3243,23,71,-950,53,38,-305.0,-10.0,5.0,-12.0,1.0,-5.0,-5.0,410.0,-36004.0,0.0
4940370,2382,2908,2211,2699,3243,23,71,-950,53,38,-305.0,-12.0,3.0,-8.0,-1.0,-14.0,0.0,410.0,-36004.0,0.0
4940387,2379,2904,2207,2694,3243,23,71,-950,53,38,-305.0,-12.0,3.0,-8.0,-1.0,-14.0,0.0,410.0,-36004.0,0.0
4940399,2372,2896,2210,2698,3243,23,71,-950,53,39,-305.0,-13.0,1.0,0.0,0.0,-22.0,-3.0,410.0,-36004.0,0.0
4940418,2379,2904,2215,2704,3243,23,71,-950,53,39,-305.0,-13.0,1.0,0.0,0.0,-22.0,-3.0,410.0,-36004.0,0.0
4940429,2377,2902,2209,2697,3243,24,71,-950,52,39,-304.0,-16.0,3.0,3.0,-3.0,-21.0,-8.0,410.0,-36004.0,0.0
4940447,2378,2903,2213,2702,3243,24,71,-950,52,39,-304.0,-16.0,3.0,3.0,-3.0,-21.0,-8.0,410.0,-36004.0,0.0
4940459,2380,2905,2208,2695,3243,25,71,-950,52,40,-304.0,-11.0,5.0,-4.0,-2.0,-15.0,-7.0,410.0,-36004.0,0.0
4940478,2370,2893,2212,2700,3243,25,71,-950,52,40,-304.0,-11.0,5.0,-4.0,-2.0,-15.0,-7.0,410.0,-36003.0,15.0
4940490,2376,2901,2215,2704,3243,25,71,-950,52,40,-304.0,-12.0,5.0,-3.0,-1.0,2.0,-9.0,410.0,-36003.0,15.0
4940509,2379,2904,2211,2699,3243,25,71,-950,52,40,-304.0,-12.0,5.0,-3.0,-1.0,2.0,-9.0,410.0,-36003.0,15.0
4940521,2387,2914,2208,2695,3244,25,71,-950,52,40,-304.0,-16.0,5.0,0.0,-2.0,-3.0,2.0,410.0,-36003.0,15.0
4940539,2384,2910,2208,2695,3244,25,71,-950,52,40,-304.0,-16.0,5.0,0.0,-2.0,-3.0,2.0,410.0,-36003.0,15.0
4940551,2374,2898,2211,2699,3244,25,71,-950,52,40,-304.0,-12.0,2.0,-2.0,-1.0,-11.0,3.0,410.0,-36004.0,15.0
4940570,2383,2909,2210,2698,3244,25,71,-950,52,40,-304.0,-12.0,2.0,-2.0,-1.0,-11.0,3.0,410.0,-36004.0,15.0
4940582,2379,2904,2214,2703,3244,25,71,-950,52,40,-304.0,-14.0,4.0,-4.0,2.0,0.0,-6.0,410.0,-36003.0,0.0
4940601,2379,2904,2223,2714,3244,25,71,-950,52,40,-304.0,-14.0,4.0,-4.0,2.0,0.0,-6.0,410.0,-36003.0,0.0
4940612,2398,2927,2203,2689,3244,25,71,-950,52,40,-304.0,-11.0,12.0,-7.0,5.0,-1.0,-8.0,410.0,-36003.0,0.0
4940630,2378,2903,2208,2695,3244,25,71,-950,52,40,-304.0,-11.0,12.0,-7.0,5.0,-1.0,-8.0,410.0,-36003.0,0.0
4940642,2376,2901,2213,2702,3244,25,71,-950,52,40,-304.0,-10.0,6.0,-10.0,6.0,5.0,4.0,410.0,-36003.0,0.0
4940660,2381,2907,2220,2710,3244,25,71,-950,52,40,-304.0,-10.0,6.0,-10.0,6.0,5.0,4.0,410.0,-36003.0,0.0
4940672,2382,2908,2212,2700,3244,25,71,-950,52,40,-304.0,-14.0,3.0,-5.0,3.0,19.0,6.0,410.0,-36003.0,0.0
4940689,2393,2921,2212,2700,3244,25,71,-950,52,40,-304.0,-14.0,3.0,-5.0,3.0,19.0,6.0,410.0,-36002.0,15.0
4940701,2381,2907,2216,2705,3244,25,71,-950,52,39,-304.0,-13.0,13.0,6.0,-6.0,18.0,3.0,410.0,-35999.0,15.0
4940720,2377,2902,2209,2697,3244,25,71,-950,52,39,-304.0,-13.0,13.0,6.0,-6.0,18.0,3.0,410.0,-35997.0,15.0
4940732,2392,2920,2214,2703,3244,24,71,-950,53,39,-304.0,-9.0,24.0,-3.0,-26.0,16.0,-11.0,410.0,-35993.0,15.0
4940750,2375,2899,2209,2697,3244,24,71,-950,53,39,-304.0,-9.0,24.0,-3.0,-26.0,16.0,-11.0,410.0,-35989.0,15.0
4940762,2372,2896,2214,2703,3244,23,72,-950,53,39,-304.0,-12.0,22.0,3.0,-38.0,3.0,-3.0,410.0,-35985.0,15.0
4940780,2371,2894,2208,2695,3244,23,72,-950,53,39,-304.0,-12.0,22.0,3.0,-38.0,3.0,-3.0,410.0,-35981.0,15.0
4940792,2371,2894,2207,2694,3244,23,73,-950,54,39,-304.0,-11.0,22.0,0.0,-43.0,-8.0,14.0,410.0,-35975.0,436.0
4940810,2375,2899,2209,2697,3244,23,73,-950,54,39,-304.0,-11.0,22.0,0.0,-43.0,-8.0,14.0,410.0,-35971.0,436.0
4940822,2380,2905,2207,2694,3243,23,74,-949,55,39,-304.0,-13.0,28.0,6.0,-46.0,-2.0,12.0,410.0,-35963.0,436.0
4940840,2375,2899,2204,2691,3243,23,74,-949,55,39,-304.0,-13.0,28.0,6.0,-46.0,-2.0,12.0,410.0,-35957.0,436.0
4940852,2370,2893,2205,2692,3243,23,75,-949,56,39,-304.0,-17.0,42.0,12.0,-42.0,11.0,-11.0,410.0,-35948.0,436.0
4940871,2372,2896,2205,2692,3243,23,75,-949,56,39,-304.0,-17.0,42.0,12.0,-42.0,11.0,-11.0,410.0,-35941.0,436.0
4940884,2374,2898,2207,2694,3245,22,75,-950,56,39,-304.0,-10.0,73.0,10.0,-21.0,14.0,-30.0,410.0,-35927.0,436.0
4940905,2383,2909,2204,2691,3245,22,75,-950,56,38,-303.0,-8.0,95.0,-1.0,-14.0,11.0,-17.0,410.0,-35910.0,943.0
4940927,2371,2894,2209,2697,3245,21,75,-950,56,38,-303.0,-20.0,97.0,22.0,-15.0,12.0,1.0,410.0,-35892.0,943.0
4940945,2373,2897,2204,2691,3245,21,75,-950,56,38,-303.0,-20.0,97.0,22.0,-15.0,12.0,1.0,410.0,-35879.0,943.0
4940958,2384,2910,2202,2688,3245,21,74,-950,56,37,-311.0,-14.0,98.0,-11.0,-17.0,-6.0,1.0,410.0,-35852.0,943.0
4940978,2375,2899,2210,2698,3245,21,71,-950,53,36,-303.0,-6.0,92.0,-4.0,-26.0,-10.0,-3.0,410.0,-35826.0,943.0
4940997,2373,2897,2211,2699,3245,21,71,-950,53,36,-303.0,-6.0,92.0,-4.0,-26.0,-10.0,-3.0,410.0,-35807.0,943.0
4941009,2376,2901,2209,2697,3245,20,66,-950,50,34,-303.0,-12.0,96.0,14.0,-27.0,63.0,-32.0,410.0,-35773.0,2195.0
4941030,2352,2871,2216,2705,3246,18,64,-951,48,32,-302.0,-13.0,90.0,22.0,-20.0,81.0,-13.0,410.0,-35739.0,2195.0
4941048,2373,2897,2215,2704,3246,18,64,-951,48,32,-302.0,-13.0,90.0,22.0,-20.0,81.0,-13.0,410.0,-35714.0,2195.0
4941061,2387,2914,2216,2705,3246,16,65,-951,48,29,-303.0,-17.0,81.0,13.0,-18.0,67.0,37.0,410.0,-35674.0,2195.0
4941081,2386,2913,2217,2706,3245,14,61,-951,47,28,-303.0,-17.0,67.0,6.0,-21.0,41.0,48.0,410.0,-35632.0,2195.0
4941099,2400,2930,2221,2711,3245,14,61,-951,47,28,-303.0,-17.0,67.0,6.0,-21.0,41.0,48.0,410.0,-35603.0,2195.0
4941112,2399,2929,2227,2719,3244,12,59,-951,45,26,-304.0,-21.0,71.0,40.0,-17.0,-2.0,16.0,410.0,-35554.0,3527.0
4941132,2407,2938,2235,2728,3244,12,57,-951,44,25,-304.0,-15.0,72.0,34.0,-16.0,-10.0,-11.0,410.0,-35502.0,3527.0
4941151,2420,2954,2241,2736,3244,12,57,-951,44,25,-304.0,-15.0,72.0,34.0,-16.0,-10.0,-11.0,410.0,-35464.0,3527.0
4941164,2413,2946,2255,2753,3245,12,56,-951,43,25,-303.0,4.0,93.0,-17.0,-24.0,3.0,-20.0,410.0,-35406.0,3527.0
4941183,2410,2942,2255,2753,3245,12,56,-951,43,25,-303.0,4.0,93.0,-17.0,-24.0,3.0,-20.0,410.0,-35364.0,3527.0
4941196,2404,2935,2254,2752,3245,11,57,-951,44,25,1696.0,-1.0,92.0,-10.0,-53.0,29.0,17.0,410.0,-35288.0,3527.0
4941217,2425,2960,2249,2746,3244,11,58,-951,46,25,-304.0,-9.0,76.0,40.0,-72.0,23.0,36.0,410.0,-35215.0,5349.0
4941237,2432,2969,2255,2753,3243,10,60,-950,47,25,-305.0,2.0,68.0,6.0,-96.0,19.0,36.0,410.0,-35129.0,5349.0
4941259,2447,2987,2262,2761,3243,10,62,-950,49,25,-305.0,-12.0,63.0,25.0,-108.0,16.0,19.0,410.0,-35041.0,5349.0
4941280,2460,3003,2274,2776,3243,10,64,-950,51,25,-305.0,-6.0,76.0,20.0,-111.0,15.0,-7.0,410.0,-34956.0,5349.0
4941300,2439,2978,2276,2778,3243,9,65,-950,51,25,-305.0,-8.0,68.0,44.0,-109.0,9.0,-30.0,410.0,-34859.0,5349.0
4941321,2464,3008,2305,2814,3243,9,66,-950,52,25,-304.0,-2.0,86.0,55.0,-116.0,15.0,-34.0,410.0,-34768.0,7131.0
4941340,2479,3026,2310,2820,3243,9,66,-950,52,25,-304.0,-2.0,86.0,55.0,-116.0,15.0,-34.0,410.0,-34708.0,7131.0
4941353,2475,3021,2308,2818,3245,8,67,-950,54,25,-303.0,-10.0,115.0,18.0,-18.0,33.0,-26.0,410.0,-34614.0,7131.0
4941374,2477,3024,2316,2827,3245,7,66,-950,53,24,-303.0,-8.0,92.0,1.0,65.0,40.0,-8.0,410.0,-34519.0,7131.0
4941393,2480,3028,2333,2848,3245,7,66,-950,53,24,-303.0,-8.0,92.0,1.0,65.0,40.0,-8.0,410.0,-34452.0,7131.0
4941407,2482,3030,2309,2819,3245,6,63,-950,51,22,-304.0,-16.0,83.0,31.0,23.0,28.0,46.0,410.0,-34332.0,7131.0
4941429,2511,3065,2324,2837,3243,5,61,-950,49,21,-305.0,-8.0,93.0,-10.0,-40.0,10.0,53.0,410.0,-34219.0,8425.0
4941449,2529,3087,2350,2869,3243,5,60,-950,48,20,-305.0,-11.0,51.0,-10.0,-22.0,3.0,-11.0,410.0,-34094.0,8425.0
4941471,2544,3106,2346,2864,3243,5,60,-950,48,20,-305.0,0.0,48.0,-25.0,38.0,0.0,-46.0,410.0,-33977.0,8425.0
4941490,2524,3081,2380,2905,3243,5,60,-950,48,20,-305.0,0.0,48.0,-25.0,38.0,0.0,-46.0,410.0,-33895.0,8425.0
4941504,2544,3106,2384,2910,3245,5,59,-951,48,20,-304.0,6.0,60.0,-24.0,-10.0,-3.0,-8.0,410.0,-33765.0,8425.0
4941525,2555,3119,2394,2923,3244,5,59,-951,48,20,-304.0,-5.0,25.0,23.0,-40.0,-3.0,25.0,410.0,-33642.0,8425.0
4941544,2549,3112,2381,2907,3244,5,59,-951,48,20,-304.0,-5.0,25.0,23.0,-40.0,-3.0,25.0,410.0,-33553.0,9608.0
4941558,2560,3125,2388,2915,3243,5,59,-950,48,20,-305.0,2.0,16.0,-29.0,24.0,13.0,14.0,410.0,-33401.0,9608.0
4941581,2511,3065,2346,2864,3243,5,59,-950,48,20,-305.0,-70.0,-78.0,-31.0,-15.0,15.0,0.0,410.0,-33264.0,9608.0
4941601,2524,3081,2398,2927,3243,5,59,-950,47,19,-305.0,-12.0,97.0,47.0,34.0,38.0,61.0,410.0,-33110.0,9608.0
4941623,2581,3151,2444,2984,3242,4,60,-950,50,20,-306.0,-52.0,20.0,122.0,-190.0,31.0,59.0,410.0,-32967.0,9608.0
4941644,2561,3126,2416,2949,3240,3,64,-949,52,20,-307.0,8.0,30.0,-60.0,-127.0,11.0,58.0,410.0,-32815.0,12250.0
4941666,2543,3105,2324,2837,3240,2,65,-949,54,20,-308.0,-4.0,24.0,-38.0,-26.0,53.0,36.0,410.0,-32690.0,12250.0
4941686,2501,3053,2314,2825,3238,1,65,-949,53,18,-309.0,145.0,191.0,-357.0,64.0,58.0,57.0,410.0,-32548.0,12250.0
4941709,2634,3216,2457,3000,3237,0,61,-948,51,16,-310.0,-51.0,81.0,123.0,346.0,43.0,147.0,410.0,-32399.0,12250.0
4941732,2584,3155,2412,2945,3234,0,57,-948,47,14,-312.0,-43.0,-131.0,57.0,56.0,39.0,103.0,410.0,-32255.0,12250.0
4941753,2532,3091,2335,2851,3232,-1,55,-947,46,13,-314.0,-11.0,-147.0,-9.0,22.0,-3.0,55.0,410.0,-32096.0,10963.0
4941776,2532,3091,2359,2880,3232,-1,56,-947,47,14,-314.0,-15.0,-97.0,-18.0,-44.0,-16.0,-18.0,410.0,-31953.0,10963.0
4941797,2559,3124,2379,2904,3233,0,58,-948,48,15,-313.0,-24.0,-73.0,35.0,-93.0,-34.0,-75.0,410.0,-31795.0,10963.0
4941820,2548,3111,2408,2940,3235,0,60,-948,49,16,-312.0,-11.0,-63.0,22.0,-96.0,-31.0,20400.0,410.0,-31665.0,10963.0
4941840,2516,3072,2386,2913,3235,0,60,-948,50,16,-311.0,2.0,-80.0,-37.0,85.0,-26.0,3.0,410.0,-31522.0,10963.0
4941862,2499,3051,2360,2881,3235,0,58,-948,47,16,-312.0,-1.0,-155.0,-58.0,73.0,-25.0,85.0,410.0,-31387.0,10825.0
4941884,2498,3050,2340,2857,3233,1,57,-947,47,16,-314.0,-15.0,-177.0,-31.0,5.0,-20.0,140.0,410.0,-31256.0,10825.0
4941905,2512,3067,2331,2846,3229,0,57,-947,47,16,-317.0,-27.0,-177.0,-10.0,-8.0,0.0,118.0,410.0,-31127.0,10825.0
4941927,2511,3065,2322,2835,3228,0,57,-946,47,16,-317.0,-23.0,-144.0,-25.0,5.0,30.0,31.0,410.0,-31005.0,10825.0
4941947,2496,3047,2322,2835,3229,0,57,-947,47,15,-317.0,-4.0,-55.0,-43.0,5.0,55.0,-63.0,410.0,-30865.0,10825.0
4941969,2504,3057,2358,2879,3231,-1,57,-947,48,14,-315.0,-5.0,-2.0,-29.0,-27.0,60.0,-99.0,410.0,-30741.0,10046.0
4941989,2504,3057,2374,2898,3233,-81,58,-947,49,14,-314.0,-10.0,58.0,7.0,-20.0,60.0,-53.0,410.0,-30596.0,10046.0
4942012,2514,3069,2363,2885,3233,-3,58,-948,49,13,-313.0,9.0,32.0,-27.0,28.0,63.0,24.0,410.0,-30455.0,10046.0
4942034,2525,3083,2374,2898,3233,-4,58,-947,49,11,-315.0,-3.0,11.0,-9.0,11.0,70.0,100.0,410.0,-30315.0,10046.0
4942056,2553,3117,2356,2876,3230,-6,58,-947,50,10,-316.0,-3.0,-52.0,-7.0,-20.0,65.0,110.0,410.0,-30174.0,10046.0
4942078,2543,3105,2369,2892,3228,-8,58,-946,50,9,-317.0,3.0,-89.0,-10.0,13.0,75.0,65.0,410.0,-30038.0,10703.0
4942098,2548,3111,2373,2897,3227,-10,57,-946,50,7,1681.0,-6.0,32676.0,0.0,38.0,66.0,21.0,410.0,-29886.0,10703.0
4942121,2536,3096,2363,2885,3228,-10,56,-946,50,6,-318.0,4.0,-49.0,-23.0,-43.0,35.0,-8.0,410.0,-29752.0,10703.0
4942142,2530,3089,2371,2894,3228,-11,58,-946,51,6,-318.0,-5.0,-73.0,-14.0,-25.0,21.0,-4.0,410.0,-29610.0,10703.0
4942164,2523,3080,2359,2880,3228,-11,58,-946,52,6,-318.0,-10.0,-65.0,0.0,47.0,12.0,26.0,410.0,-29473.0,10703.0
4942185,2520,3076,2375,2899,3227,-11,58,-946,52,6,-319.0,-6.0,-81.0,-21.0,10.0,-3.0,55.0,410.0,-29330.0,10996.0
4942208,2538,3098,2362,2884,3225,-11,58,-945,52,6,-320.0,-21.0,-105.0,-23.0,-9.0,-20.0,62.0,410.0,-29182.0,10996.0
4942231,2544,3106,2372,2896,3225,-11,59,-945,52,6,-320.0,-13.0,-72.0,-35.0,-48.0,-13.0,31.0,410.0,-29047.0,10996.0
4942252,2547,3109,2355,2875,3225,-11,60,-945,53,6,-320.0,1.0,-61.0,-34.0,13.0,27.0,-45.0,410.0,-28903.0,10996.0
4942274,2523,3080,2345,2863,3226,-12,59,-945,52,6,-319.0,-2.0,-35.0,-13.0,25.0,49.0,-48.0,410.0,-28773.0,10996.0
4942294,2527,3085,2374,2898,3226,-13,59,-946,53,4,-319.0,17.0,-31.0,-31.0,-10.0,63.0,7.0,410.0,-28628.0,10703.0
4942317,2540,3101,2365,2887,3225,-15,59,-945,53,3,-320.0,8.0,-29.0,-15.0,-23.0,65.0,73.0,410.0,-28495.0,10703.0
4942337,2549,3112,2344,2862,3223,-16,60,-945,54,2,-321.0,1.0,-20.0,-6.0,-10.0,64.0,90.0,410.0,-28355.0,10703.0
4942359,2548,3111,2352,2871,3222,-18,60,-944,55,1,-322.0,-1.0,-58.0,-8.0,5.0,63.0,51.0,410.0,-28203.0,10703.0
4942382,2530,3089,2361,2882,3222,-19,60,-944,55,0,-322.0,-1.0,-66.0,11.0,31.0,65.0,6.0,410.0,-28070.0,10703.0
4942402,2544,3106,2367,2890,3223,-20,60,-944,55,-8,-322.0,-11.0,-91.0,12.0,5.0,68.0,-13.0,410.0,-27927.0,10787.0
4942425,2535,3095,2370,2893,3223,-21,60,-945,55,-1,-322.0,6.0,-136.0,-25.0,11.0,66.0,28.0,410.0,-27802.0,10787.0
4942445,2556,3120,2356,2876,3222,-23,59,-944,55,-3,-323.0,1.0,-110.0,-17.0,21.0,56.0,77.0,410.0,-27661.0,10787.0
4942467,2541,3102,2347,2865,3220,-25,58,-944,56,-4,-324.0,-14.0,-56.0,0.0,-8.0,40.0,57.0,410.0,-27531.0,10787.0
4942488,2556,3120,2356,2876,3220,-25,59,-944,56,-4,-324.0,-21.0,-22.0,-20.0,-36.0,20.0,-3.0,410.0,-27385.0,10787.0
4942510,2556,3120,2359,2880,3221,-25,60,-944,57,-4,-323.0,-22.0,-18.0,1.0,14.0,7.0,-88.0,410.0,-27233.0,10679.0
4942534,2562,3128,2392,2920,3223,-25,60,-944,56,-4,-322.0,0.0,74.0,-3.0,13.0,-4.0,-73.0,410.0,-27093.0,10679.0
4942555,2575,3144,2392,2920,3224,-25,60,-945,57,-4,-321.0,-1.0,58.0,28.0,-18.0,-16.0,-31.0,410.0,-26945.0,10679.0
4942577,2605,3180,2415,2948,3224,-25,60,-945,57,-3,-321.0,-2.0,37.0,12.0,5.0,-16.0,25.0,410.0,-26805.0,10679.0
4942597,2586,3157,2406,2937,3223,-24,60,-944,56,-3,-322.0,-6.0,2.0,3.0,13.0,-19.0,66.0,410.0,-26651.0,10679.0
4942619,2615,3192,2405,2936,3221,-24,59,-944,56,-3,-323.0,-20.0,22.0,11.0,10.0,-11.0,75.0,410.0,-26503.0,11116.0
4942640,2623,3202,2401,2931,3220,-24,59,-944,56,-3,-324.0,-14.0,16.0,-14.0,-11.0,-5.0,0.0,410.0,-26333.0,11116.0
4942663,2616,3194,2408,2940,3221,-24,60,-944,56,-3,-324.0,5.0,-14.0,-28.0,15.0,5.0,-41.0,410.0,-26165.0,11116.0
4942686,2618,3196,2420,2954,3221,-24,59,-944,56,-3,-322.0,5.0,-17.0,-11.0,25.0,17.0,-38.0,410.0,-26006.0,11116.0
4942707,2611,3188,2418,2952,3222,-25,59,-944,56,-4,-322.0,6.0,-26.0,-5.0,-5.0,23.0,-8.0,410.0,-25842.0,11116.0
4942729,2627,3207,2429,2965,3222,-25,59,-944,56,-4,-322.0,3.0,-39.0,2.0,1.0,31.0,18.0,410.0,-25686.0,12333.0
4942750,2610,3186,2424,2959,3221,-26,60,-944,57,-4,-322.0,5.0,-33.0,-13.0,6.0,43.0,18.0,410.0,-25518.0,12333.0
4942772,2624,3203,2428,2964,3221,-26,60,-944,57,-5,-323.0,5.0,-31.0,-5.0,10.0,45.0,14.0,410.0,-25363.0,12333.0
4942793,2644,3228,2439,2978,3221,-28,60,-944,58,-6,-323.0,-10.0,-14.0,0.0,16.0,46.0,25.0,410.0,-25193.0,12333.0
4942816,2648,3233,2433,2970,3221,-28,60,-944,59,-7,-324.0,8.0,-41.0,-32.0,-12.0,33.0,33.0,410.0,-25022.0,12333.0
4942838,2644,3228,2427,2963,3220,-29,61,-943,59,-7,-324.0,6.0,-43.0,-20.0,-6.0,26.0,20.0,410.0,-24862.0,12553.0
4942859,2651,3236,2419,2953,3220,-30,63,-943,60,-7,-324.0,11.0,-58.0,-20.0,14.0,23.0,-5.0,410.0,-24693.0,12553.0
4942882,2646,3230,2434,2971,3220,-30,63,1056,61,-7,-324.0,2.0,-78.0,-9.0,7.0,0.0,8.0,410.0,-24518.0,12553.0
4942904,2642,3225,2432,2969,3220,-30,63,-943,61,-7,-324.0,11.0,-62.0,-3.0,14.0,-18.0,37.0,410.0,-24356.0,12553.0
4942927,2650,3235,2463,3007,3219,-29,65,-943,62,-6,-325.0,2.0,-112.0,-3.0,4.0,-26.0,56.0,410.0,-24205.0,12553.0
4942948,2635,3217,2408,2940,3218,-29,65,-943,61,-5,-326.0,4.0,-111.0,1.0,20.0,-33.0,56.0,410.0,-24042.0,12378.0
4942970,2643,3227,2395,2924,3216,-28,64,-942,61,-5,-327.0,-2.0,-126.0,1.0,19.0,-33.0,35.0,410.0,-23901.0,12378.0
4942990,2616,3194,2384,2910,3216,-28,63,-942,60,-4,-327.0,0.0,-139.0,-14.0,14.0,-30.0,8.0,410.0,-23738.0,12378.0
4943014,2607,3183,2363,2885,3216,-27,63,-942,60,-4,1672.0,-3.0,-136.0,-11.0,17.0,-26.0,-13.0,410.0,-23583.0,12378.0
4943037,2591,3163,2369,2892,3216,-26,65,-942,62,-3,-327.0,-4.0,-115.0,-9.0,1.0,-25.0,-9.0,410.0,-23446.0,12378.0
4943057,2574,3142,2356,2876,3216,-26,70,-942,67,-1,-326.0,-6.0,-122.0,-28.0,17.0,-33.0,1.0,410.0,-23309.0,11207.0
4943079,2544,3106,2324,2837,3216,-25,76,-942,70,0,-327.0,4.0,-150.0,-47.0,25.0,-35.0,25.0,410.0,-23186.0,11207.0
4943099,2541,3102,2315,2826,3216,-25,80,-941,74,2,-327.0,-2.0,-140.0,-39.0,38.0,-116.0,42.0,410.0,-23065.0,11207.0
4943120,2520,3076,2292,2798,3215,-25,84,-941,77,3,-328.0,-10.0,-129.0,-22.0,52.0,-25.0,36.0,410.0,-22954.0,11207.0
4943140,2513,3068,2291,2797,3215,-25,88,-941,79,4,-328.0,-4.0,-114.0,-44.0,71.0,-108.0,20.0,410.0,-22840.0,11207.0
4943161,2503,3056,2272,2774,3215,-25,90,-940,82,5,-328.0,-6.0,-108.0,-36.0,67.0,-23.0,8.0,410.0,-22719.0,9423.0
4943184,2494,3045,2252,2749,3215,-25,93,-940,84,6,-328.0,-10.0,-79.0,-20.0,63.0,-21.0,-5.0,410.0,-22618.0,9423.0
4943204,2498,3050,2260,2759,3215,-24,91,-940,83,6,-328.0,-4.0,-52.0,-13.0,38.0,-17.0,-22.0,410.0,-22506.0,9423.0
4943226,2483,3031,2266,2766,3215,-23,91,-941,82,6,-327.0,-2.0,-36.0,-8.0,1.0,-25.0,-43.0,410.0,-22406.0,9423.0
4943246,2470,3015,2261,2760,3216,-23,91,-941,82,6,-327.0,7.0,-44.0,-33.0,-15.0,-29.0,-24.0,410.0,-22300.0,9423.0
4943267,2475,3021,2261,2760,3216,-22,91,-941,82,7,-327.0,-4.0,-4.0,-8.0,-11.0,-23.0,20.0,410.0,-22196.0,8207.0
4943288,2489,3039,2265,2765,3216,-22,92,-941,82,7,-327.0,-25.0,29.0,15.0,-11.0,-29.0,30.0,410.0,-22093.0,8207.0
4943310,2483,3031,2254,2752,3215,-21,92,-941,82,8,-327.0,-10.0,5.0,0.0,-2.0,-28.0,1.0,410.0,-21992.0,8207.0
4943330,2480,3028,2254,2752,3215,-21,91,-941,82,8,-327.0,-14.0,60.0,27.0,31.0,-19.0,-13.0,410.0,-21896.0,8207.0
4943349,2475,3021,2263,2763,3215,-21,91,-941,82,8,-327.0,-14.0,60.0,27.0,31.0,-19.0,-13.0,410.0,-21826.0,8207.0
4943363,2475,3021,2276,2778,3216,-20,91,-941,81,9,1673.0,-29.0,91.0,7.0,-33.0,-11.0,-30.0,410.0,-21705.0,8207.0
4943386,2476,3023,2260,2759,3216,-20,92,-941,82,9,-326.0,-28.0,88.0,1.0,-25.0,-15.0,-1.0,410.0,-21596.0,8361.0
4943406,2511,3065,2300,2808,3216,-20,93,-941,82,9,-326.0,-24.0,150.0,11.0,-9.0,-3.0,10.0,410.0,-21479.0,8361.0
4943428,2509,3063,2324,2837,3216,-20,93,-941,82,9,-326.0,0.0,27.0,-25.0,-20.0,-4.0,0.0,410.0,-21373.0,8361.0
4943447,2488,3037,2296,2803,3216,-20,93,-941,82,9,-326.0,0.0,27.0,-25.0,-20.0,-4.0,0.0,410.0,-21301.0,8361.0
4943460,2511,3065,2297,2804,3215,-20,92,-941,82,9,-327.0,-15.0,21.0,-8.0,33.0,-4.0,54.0,410.0,-21189.0,8361.0
4943481,2498,3050,2296,2803,3214,-20,92,-940,82,9,-328.0,-8.0,-13.0,-4.0,17.0,7.0,56.0,410.0,-21085.0,8361.0
4943501,2509,3063,2282,2786,3213,-21,91,-940,81,8,-329.0,-14.0,-14.0,29.0,36.0,28.0,39.0,410.0,-20966.0,9101.0
4943523,2515,3070,2290,2796,3213,-21,91,-940,81,8,-329.0,-5.0,21.0,23.0,24.0,41.0,-3.0,410.0,-20854.0,9101.0
4943543,2508,3062,2292,2798,3214,-22,91,-940,81,7,-328.0,-27.0,67.0,56.0,-21.0,50.0,-51.0,410.0,-20726.0,9101.0
4943565,2507,3061,2313,2824,3215,-23,91,-941,82,6,-327.0,-12.0,75.0,16.0,-37.0,48.0,-48.0,410.0,-20600.0,9101.0
4943588,2522,3079,2323,2836,3216,-23,92,-941,83,6,-326.0,-11.0,73.0,24.0,-11.0,34.0,6.0,410.0,-20481.0,9101.0
4943608,2518,3074,2304,2813,3216,-24,93,-941,83,5,-327.0,8.0,12.0,-10.0,-5.0,12.0,56.0,410.0,-20363.0,9361.0
4943629,2497,3048,2296,2803,3215,-25,92,-940,83,5,-329.0,6.0,-60.0,-34.0,25.0,5.0,92.0,410.0,-20258.0,9361.0
4943649,2520,3076,2291,2797,3213,-25,91,-940,82,5,-330.0,11.0,-57.0,-28.0,60.0,6.0,92.0,410.0,-20149.0,9361.0
4943670,2505,3058,2283,2787,3211,-25,90,-939,81,4,-331.0,13.0,-84.0,-56.0,65.0,8.0,61.0,410.0,-20051.0,9361.0
4943690,2511,3065,2270,2771,3210,-26,89,-939,80,3,-332.0,4.0,-90.0,-29.0,70.0,16.0,47.0,410.0,-19953.0,9361.0
4943710,2498,3050,2276,2778,3209,-26,87,-939,79,3,-333.0,-1.0,-65.0,-24.0,74.0,8.0,41.0,410.0,-19855.0,8284.0
4943731,2496,3047,2286,2791,3208,-26,87,-939,79,3,-333.0,-7.0,-45.0,-14.0,67.0,1.0,31.0,410.0,-19762.0,8284.0
4943750,2496,3047,2270,2771,3208,-26,87,-939,79,3,-333.0,-7.0,-45.0,-14.0,67.0,1.0,31.0,410.0,-19698.0,8284.0
4943763,2496,3047,2269,2770,3208,-26,85,-939,78,2,1666.0,-15.0,21.0,17.0,51.0,-1.0,-7.0,410.0,-19585.0,8284.0
4943786,2531,3090,2285,2789,3209,-26,85,-939,77,2,-333.0,-28.0,90.0,9.0,-6.0,-6.0,-48.0,410.0,-19471.0,8284.0
4943806,2520,3076,2288,2793,3210,-26,86,-940,78,2,-331.0,-6.0,178.0,26.0,-126.0,31.0,-126.0,410.0,-19332.0,8284.0
4943829,2552,3115,2361,2882,3213,-26,89,-940,81,3,-329.0,-51.0,247.0,70.0,-216.0,40.0,-126.0,410.0,-19190.0,9243.0
4943850,2595,3168,2380,2905,3215,-26,93,-940,87,4,-327.0,-26.0,265.0,66.0,-258.0,25.0,-82.0,410.0,-19040.0,9243.0
4943872,2608,3184,2405,2936,3216,-27,101,-940,91,5,-326.0,-5.0,204.0,17.0,-241.0,28.0,-14.0,410.0,-18913.0,9243.0
4943892,2587,3158,2403,2934,3216,-28,100,-940,90,4,-326.0,1.0,230.0,52.0,163.0,46.0,0.0,410.0,-18769.0,9243.0
4943915,2602,3177,2411,2943,3216,-29,96,-940,87,3,-327.0,-10.0,115.0,51.0,118.0,33.0,100.0,410.0,-18611.0,9243.0
4943938,2618,3196,2366,2888,3214,-30,93,-940,86,1,-328.0,2.0,42.0,-38.0,30.0,15.0,126.0,410.0,-18455.0,11192.0
4943960,2630,3211,2371,2894,3211,-30,93,-939,86,1,-331.0,0.0,34.0,17.0,-52.0,21.0,75.0,410.0,-18288.0,11192.0
4943982,2639,3222,2352,2871,3211,-31,95,-939,88,1,-331.0,18.0,48.0,2.0,-86.0,28.0,-25.0,410.0,-18136.0,11192.0
4944003,2648,3233,2385,2912,3212,-32,98,-939,90,1,-329.0,12.0,81.0,7.0,-98.0,46.0,-91.0,410.0,-17975.0,11192.0
4944025,2588,3159,2381,2907,3215,-32,98,-940,90,1,-328.0,15.0,55.0,-70.0,19.0,28.0,-98.0,410.0,-17835.0,11192.0
4944046,2609,3185,2410,2942,3215,-33,95,-940,88,0,-327.0,99.0,24.0,-164.0,191.0,89.0,87.0,410.0,-17675.0,12021.0
4944069,2645,3229,2430,2967,3213,-114,93,-939,86,-1,-331.0,-15.0,-19.0,58.0,33.0,-23.0,222.0,410.0,-17514.0,12021.0
4944092,2614,3191,2359,2880,3205,-33,92,-937,86,0,-335.0,-3.0,-57.0,9.0,-80.0,-81.0,293.0,410.0,-17341.0,12021.0
4944114,2619,3197,2319,2831,3200,-33,95,1063,88,0,-340.0,-8.0,-32.0,-1.0,-146.0,-90.0,273.0,410.0,-17160.0,12021.0
4944138,2667,3256,2292,2798,3195,-32,98,-934,90,2,-344.0,-12.0,2.0,5.0,-150.0,-91.0,185.0,410.0,-16996.0,12021.0
4944159,2655,3241,2318,2830,3191,-31,100,-933,92,5,-347.0,-15.0,-19.0,-7.0,-126.0,-90.0,88.0,410.0,-16838.0,12315.0
4944182,2641,3224,2353,2873,3190,-30,103,-933,93,6,-347.0,-38.0,-50.0,14.0,-17.0,-43.0,-51.0,410.0,-16697.0,12315.0
4944203,2587,3158,2321,2833,3193,-28,101,-933,92,6,-345.0,-16.0,-19.0,-4.0,96.0,-9.0,-123.0,410.0,-16552.0,12315.0
4944224,2584,3155,2355,2875,3195,-28,100,-934,91,6,-344.0,-12.0,-5.0,5.0,96.0,-8.0,-78.0,410.0,-16416.0,12315.0
4944244,2574,3142,2355,2875,3195,-28,100,-934,90,6,-343.0,-12.0,-71.0,-16.0,47.0,-26.0,0.0,410.0,-16278.0,12315.0
4944266,2560,3125,2312,2822,3194,-28,100,-934,90,7,-344.0,2.0,-207.0,-44.0,16.0,-37.0,86.0,410.0,-16126.0,11059.0
4944290,2571,3139,2306,2815,3193,-27,99,-933,89,7,-346.0,-8.0,-52.0,-26.0,5.0,-30.0,74.0,410.0,-15998.0,11059.0
4944310,2540,3101,2292,2798,3191,-27,100,-933,90,7,-347.0,-12.0,-7.0,-5.0,2.0,-16.0,8.0,410.0,-15862.0,11059.0
4944332,2534,3094,2306,2815,3191,-27,100,-933,90,7,-346.0,-3.0,-29.0,-21.0,-6.0,5.0,-62.0,410.0,-15738.0,11059.0
4944352,2518,3074,2303,2811,3193,-26,100,-934,90,7,-345.0,5.0,-44.0,-34.0,7.0,11.0,-76.0,410.0,-15609.0,11059.0
4944373,2511,3065,2298,2805,3195,-26,101,-934,91,8,-344.0,4.0,-57.0,-35.0,7.0,0.0,-37.0,410.0,-15488.0,9922.0
4944393,2511,3065,2280,2783,3195,-26,101,-934,92,8,-344.0,-7.0,-49.0,-13.0,7.0,-9.0,3.0,410.0,-15376.0,9922.0
4944413,2503,3056,2295,2802,3195,-26,103,-934,92,8,-344.0,-9.0,-45.0,-14.0,11.0,-12.0,26.0,410.0,-15262.0,9922.0
4944433,2497,3048,2286,2791,3194,-26,103,-933,93,8,-344.0,-8.0,-8.0,-17.0,15.0,-6.0,20.0,410.0,-15153.0,9922.0
4944453,2498,3050,2282,2786,3194,-27,103,-934,93,8,-344.0,-17.0,12.0,13.0,10.0,9.0,-18.0,410.0,-15032.0,9922.0
4944475,2505,3058,2284,2788,3195,-27,103,-934,93,8,-343.0,-13.0,43.0,-1.0,-4.0,16.0,-55.0,410.0,-14917.0,9297.0
4944495,2489,3039,2286,2791,3196,-27,103,-934,93,8,-342.0,-21.0,74.0,14.0,-18.0,30.0,-63.0,410.0,-14790.0,9297.0
4944517,2490,3040,2308,2818,3197,-28,104,-934,94,7,-342.0,-7.0,65.0,-10.0,-13.0,36.0,-11.0,410.0,-14659.0,9297.0
4944540,2484,3032,2293,2799,3197,-28,104,-934,94,7,-342.0,-18.0,66.0,-7.0,1.0,41.0,26.0,410.0,-14546.0,9297.0
4944560,2500,3052,2297,2804,3196,-110,103,-934,93,5,-342.0,-12.0,27.0,-27.0,6.0,45.0,44.0,410.0,-14425.0,9297.0
4944582,2511,3065,2308,2818,3196,-31,103,-934,93,5,-343.0,-2.0,13.0,-28.0,13.0,51.0,34.0,410.0,-14310.0,9423.0
4944602,2503,3056,2294,2800,3195,-32,102,-934,94,3,-343.0,-4.0,-21.0,-32.0,6.0,65.0,18.0,410.0,-14188.0,9423.0
4944624,2488,3037,2289,2794,3195,-34,102,-934,94,2,-343.0,-3.0,-16.0,-19.0,12.0,71.0,12.0,410.0,-14078.0,9423.0
4944644,2491,3041,2295,2802,3195,-36,101,-934,94,0,-343.0,9.0,-42.0,-33.0,12.0,74.0,5.0,410.0,-13967.0,9423.0
4944665,2490,3040,2285,2789,3195,-37,101,-934,94,0,-343.0,7.0,-66.0,-18.0,20.0,73.0,10.0,410.0,-13859.0,9423.0
4944686,2480,3028,2263,2763,3195,-38,101,-934,94,-1,-343.0,14.0,-69.0,-11.0,43.0,71.0,21.0,410.0,-13765.0,8717.0
4944706,2475,3021,2264,2764,3195,-40,100,-934,93,-3,-344.0,7.0,-66.0,-3.0,69.0,65.0,27.0,410.0,-13667.0,8717.0
4944727,2470,3015,2256,2754,3195,-41,100,-934,94,-3,-344.0,5.0,-63.0,10.0,90.0,55.0,22.0,410.0,-13584.0,8717.0
4944746,2463,3007,2248,2744,3195,-41,100,-934,94,-3,-344.0,5.0,-63.0,10.0,90.0,55.0,22.0,410.0,-13528.0,8717.0
4944759,2455,2997,2248,2744,3195,-42,98,-934,94,-5,-344.0,3.0,-46.0,9.0,129.0,50.0,-5.0,410.0,-13443.0,8717.0
4944781,2443,2982,2248,2744,3195,-43,97,-934,93,-6,-344.0,-5.0,-52.0,14.0,147.0,55.0,-9.0,410.0,-13367.0,8717.0
4944800,2451,2992,2250,2747,3195,-43,97,-934,93,-6,-344.0,-5.0,-52.0,14.0,147.0,55.0,-9.0,410.0,-13315.0,6564.0
4944813,2435,2973,2241,2736,3195,-45,94,-934,89,-9,-343.0,9.0,-38.0,-6.0,153.0,40.0,3.0,410.0,-13238.0,6564.0
4944834,2436,2974,2232,2725,3195,-45,91,-934,88,-10,-343.0,10.0,-39.0,-26.0,123.0,27.0,10.0,410.0,-13165.0,6564.0
4944853,2439,2978,2263,2763,3195,-45,91,-934,88,-10,-343.0,10.0,-39.0,-26.0,123.0,27.0,10.0,410.0,-13113.0,6564.0
4944866,2432,2969,2225,2716,3195,-46,88,-934,86,-11,-343.0,17.0,-40.0,-27.0,61.0,19.0,-1.0,410.0,-13027.0,6564.0
4944889,2439,2978,2216,2705,3196,-46,88,-935,86,-11,-343.0,12.0,-31.0,-8.0,10.0,13.0,-15.0,410.0,-12954.0,6564.0
4944908,2457,3000,2233,2726,3196,-46,88,-935,86,-11,-343.0,12.0,-31.0,-8.0,10.0,13.0,-15.0,410.0,-12905.0,6327.0
4944921,2441,2980,2239,2733,3196,-46,90,-935,88,-11,-342.0,9.0,-3.0,-11.0,-25.0,8.0,-33.0,410.0,-12832.0,6327.0
4944942,2448,2989,2239,2733,3197,-46,90,1064,88,-11,-342.0,1.0,1.0,0.0,0.0,15.0,-24.0,410.0,-12767.0,6327.0
4944961,2450,2991,2236,2730,3197,-46,90,1064,88,-11,-342.0,1.0,1.0,0.0,0.0,15.0,-24.0,410.0,-12726.0,6327.0
4944974,2458,3001,2243,2738,3198,-46,90,-935,88,-11,-342.0,-2.0,-8.0,14.0,26.0,7.0,16.0,410.0,-12662.0,6327.0
4944994,2464,3008,2250,2747,3197,-46,90,-935,87,-11,-342.0,-5.0,-13.0,15.0,8.0,0.0,36.0,410.0,-12600.0,6327.0
4945012,2468,3013,2244,2739,3197,-46,90,-935,87,-11,-342.0,-5.0,-13.0,15.0,8.0,0.0,36.0,410.0,-12557.0,5560.0
4945026,2471,3017,2242,2737,3196,-47,90,-934,88,-12,-343.0,-3.0,-3.0,-2.0,-23.0,14.0,18.0,410.0,-12497.0,5560.0
4945045,2470,3015,2246,2742,3196,-47,90,-934,88,-12,-343.0,-3.0,-3.0,-2.0,-23.0,14.0,18.0,410.0,-12457.0,5560.0
4945058,2477,3024,2248,2744,3196,-47,91,-935,88,-12,-342.0,-3.0,12.0,-21.0,-22.0,13.0,-30.0,410.0,-12394.0,5560.0
4945079,2459,3002,2251,2748,3197,-48,91,-935,89,-12,-342.0,1.0,21.0,-23.0,2.0,12.0,-31.0,410.0,-12340.0,5560.0
4945098,2456,2998,2243,2738,3197,-48,91,-935,89,-12,-342.0,1.0,21.0,-23.0,2.0,12.0,-31.0,410.0,-12303.0,5560.0
4945111,2464,3008,2247,2743,3197,-48,90,-935,88,-12,-342.0,6.0,-8.0,-16.0,13.0,10.0,41.0,410.0,-12246.0,5560.0
4945131,2475,3021,2235,2728,3196,-48,90,-934,88,-12,-343.0,2.0,-11.0,-6.0,6.0,4.0,53.0,410.0,-12194.0,5084.0
4945150,2464,3008,2231,2724,3196,-48,90,-934,88,-12,-343.0,2.0,-11.0,-6.0,6.0,4.0,53.0,410.0,-12160.0,5084.0
4945163,2462,3006,2233,2726,3195,-48,90,-934,88,-13,-343.0,4.0,-8.0,0.0,5.0,1.0,-6.0,410.0,-12109.0,5084.0
4945182,2448,2989,2228,2720,3195,-48,90,-934,88,-13,-343.0,4.0,-8.0,0.0,5.0,1.0,-6.0,410.0,-12077.0,5084.0
4945195,2443,2982,2231,2724,3196,-48,90,-935,88,-13,-342.0,2.0,7.0,25.0,7.0,8.0,-41.0,410.0,-12030.0,5084.0
4945213,2461,3004,2227,2719,3196,-48,90,-935,88,-13,-342.0,2.0,7.0,25.0,7.0,8.0,-41.0,410.0,-11999.0,5084.0
4945226,2442,2981,2219,2709,3196,-48,90,-935,88,-13,-342.0,1.0,6.0,11.0,-12.0,-8.0,12.0,410.0,-11955.0,5084.0
4945245,2446,2986,2211,2699,3196,-48,90,-935,88,-13,-342.0,1.0,6.0,11.0,-12.0,-8.0,12.0,410.0,-11925.0,3932.0
4945258,2446,2986,2214,2703,3196,-48,90,-934,88,-12,-343.0,7.0,-10.0,0.0,5.0,-11.0,28.0,410.0,-11879.0,3932.0
4945278,2445,2985,2205,2692,3195,-48,90,-934,88,-12,-343.0,12.0,-7.0,-4.0,8.0,-11.0,11.0,410.0,-11837.0,3932.0
4945296,2447,2987,2223,2714,3195,-48,90,-934,88,-12,-343.0,12.0,-7.0,-4.0,8.0,-11.0,11.0,410.0,-11809.0,3932.0
4945309,2439,2978,2190,2673,3196,-47,90,-934,88,-12,1656.0,15.0,-1.0,-19.0,-12.0,-18.0,-20.0,410.0,-11763.0,3932.0
4945330,2428,2964,2196,2681,3196,-46,90,-935,88,-11,-343.0,13.0,9.0,-4.0,-12.0,-26.0,-26.0,410.0,-11724.0,3932.0
4945349,2431,2968,2195,2680,3196,-46,90,-935,88,-11,-343.0,13.0,9.0,-4.0,-12.0,-26.0,-26.0,410.0,-11698.0,3637.0
4945362,2430,2967,2192,2676,3196,-45,90,-935,87,-10,-342.0,13.0,10.0,0.0,13.0,-48.0,-1.0,410.0,-11658.0,3637.0
4945383,2424,2959,2190,2673,3196,-44,90,-935,87,-9,-342.0,8.0,8.0,8.0,11.0,-55.0,5.0,410.0,-11623.0,3637.0
4945401,2422,2957,2191,2675,3196,-44,90,-935,87,-9,-342.0,8.0,8.0,8.0,11.0,-55.0,5.0,410.0,-11602.0,3637.0
4945413,2418,2952,2187,2670,3196,-43,90,-935,86,-8,-343.0,3.0,-17.0,12.0,6.0,-63.0,-1.0,410.0,-11568.0,3637.0
4945433,2416,2949,2185,2667,3196,-41,89,-935,86,-7,-343.0,4.0,-8.0,8.0,15.0,-63.0,-16.0,410.0,-11538.0,3637.0
4945452,2415,2948,2185,2667,3196,-41,89,-935,86,-7,-343.0,4.0,-8.0,8.0,15.0,-63.0,-16.0,410.0,-11518.0,2896.0
4945464,2411,2943,2187,2670,3197,-40,89,-935,84,-5,-342.0,5.0,-4.0,0.0,15.0,-65.0,-35.0,410.0,-11488.0,2896.0
4945484,2415,2948,2187,2670,3198,-38,88,-935,84,-5,-342.0,-4.0,-7.0,9.0,10.0,-71.0,-31.0,410.0,-11460.0,2896.0
4945502,2407,2938,2195,2680,3198,-38,88,-935,84,-5,-342.0,-4.0,-7.0,9.0,10.0,-71.0,-31.0,410.0,-11443.0,2896.0
4945515,2412,2945,2194,2678,3198,-36,88,-936,83,-2,-341.0,-7.0,3.0,-1.0,1.0,-76.0,-11.0,410.0,-11416.0,2896.0
4945534,2415,2948,2201,2687,3198,-36,88,-936,83,-2,-341.0,-7.0,3.0,-1.0,1.0,-76.0,-11.0,410.0,-11400.0,2896.0
4945546,2416,2949,2201,2687,3198,-33,88,-936,82,0,-341.0,-10.0,0.0,-16.0,9.0,-74.0,-3.0,410.0,-11378.0,2896.0
4945565,2412,2945,2197,2682,3198,-33,88,-936,82,0,-341.0,-10.0,0.0,-16.0,9.0,-74.0,-3.0,410.0,-11363.0,2286.0
4945577,2404,2935,2203,2689,3198,-31,88,-936,81,0,-341.0,-15.0,-5.0,-6.0,20.0,-64.0,-11.0,410.0,-11343.0,2286.0
4945596,2407,2938,2202,2688,3198,-31,88,-936,81,0,-341.0,-15.0,-5.0,-6.0,20.0,-64.0,-11.0,410.0,-11330.0,2286.0
4945608,2413,2946,2208,2695,3198,-30,88,-936,81,1,-341.0,-17.0,0.0,-10.0,16.0,-53.0,-19.0,410.0,-11311.0,2286.0
4945628,2409,2941,2215,2704,3199,-28,87,-936,80,2,-341.0,-19.0,-3.0,-8.0,9.0,-48.0,-12.0,410.0,-11294.0,2286.0
4945646,2423,2958,2213,2702,3199,-28,87,-936,80,2,-341.0,-19.0,-3.0,-8.0,9.0,-48.0,-12.0,410.0,-11284.0,2286.0
4945659,2416,2949,2209,2697,3199,-28,87,-936,80,2,-341.0,-24.0,-7.0,-3.0,8.0,-45.0,5.0,410.0,-11268.0,2286.0
4945678,2424,2959,2211,2699,3199,-28,87,-936,80,2,-341.0,-24.0,-7.0,-3.0,8.0,-45.0,5.0,410.0,-11259.0,1533.0
4945690,2425,2960,2207,2694,3198,-27,87,-936,79,3,-341.0,-20.0,-6.0,-11.0,7.0,-35.0,10.0,410.0,-11247.0,1533.0
4945709,2419,2953,2206,2693,3198,-27,87,-936,79,3,-341.0,-20.0,-6.0,-11.0,7.0,-35.0,10.0,410.0,-11240.0,1533.0
4945721,2416,2949,2192,2676,3198,-26,86,1063,79,3,-341.0,-18.0,-2.0,7.0,8.0,-21.0,-5.0,410.0,-11228.0,1533.0
4945742,2419,2953,2200,2686,3198,-26,86,-936,79,3,-341.0,-9.0,3.0,-4.0,6.0,-15.0,-8.0,410.0,-11218.0,1533.0
4945762,2413,2946,2198,2683,3198,-26,86,-936,79,4,-341.0,-4.0,8.0,-27.0,5.0,-13.0,0.0,410.0,-11210.0,1533.0
4945783,2410,2942,2205,2692,3198,-26,86,-936,79,4,-341.0,-2.0,4.0,-13.0,11.0,-13.0,4.0,410.0,-11204.0,873.0
4945801,2409,2941,2198,2683,3198,-26,86,-936,79,4,-341.0,-2.0,4.0,-13.0,11.0,-13.0,4.0,410.0,-11202.0,873.0
4945813,2400,2930,2200,2686,3198,-105,86,-936,78,4,-341.0,-4.0,-5.0,2.0,18.0,-15.0,7.0,410.0,-11198.0,873.0
4945833,2402,2932,2199,2684,3198,-25,85,-936,78,4,-342.0,-3.0,-4.0,1.0,18.0,-20.0,5.0,410.0,-11197.0,873.0
4945850,2404,2935,2200,2686,3198,-25,85,-936,78,4,-342.0,-3.0,-4.0,1.0,18.0,-20.0,5.0,410.0,-11197.0,873.0
4945862,2404,2935,2201,2687,3198,-25,85,1063,77,4,-342.0,0.0,-146.0,-11.0,29.0,-25.0,-2.0,410.0,-11197.0,873.0
4945883,2409,2941,2195,2680,3198,-24,85,-936,77,5,-342.0,0.0,-12.0,0.0,8.0,-23.0,0.0,410.0,-11197.0,133.0
4945901,2413,2946,2223,2714,3198,-24,85,-936,77,5,-342.0,0.0,-12.0,0.0,8.0,-23.0,0.0,410.0,-11197.0,133.0
4945913,2421,2956,2207,2694,3198,-23,85,-936,77,5,-342.0,-11.0,28.0,16.0,-30.0,-18.0,-21.0,410.0,-11197.0,133.0
4945933,2403,2934,2201,2687,3198,-23,86,-936,77,6,-341.0,-12.0,46.0,14.0,-24.0,-19.0,-30.0,410.0,-11197.0,133.0
4945952,2410,2942,2208,2695,3198,-23,86,-936,77,6,-341.0,-12.0,46.0,14.0,-24.0,-19.0,-30.0,410.0,-11197.0,133.0
4945964,2396,2925,2208,2695,3199,-22,86,-936,78,7,-340.0,-11.0,70.0,-7.0,-13.0,-19.0,-15.0,410.0,-11197.0,133.0
4945984,2405,2936,2200,2686,3200,-21,86,-936,78,7,-340.0,-16.0,68.0,4.0,-13.0,-18.0,7.0,410.0,-11197.0,0.0
4946002,2408,2940,2200,2686,3200,-21,86,-936,78,7,-340.0,-16.0,68.0,4.0,-13.0,-18.0,7.0,410.0,-11197.0,0.0
4946014,2407,2938,2219,2709,3199,-22,85,-936,76,7,-341.0,-14.0,48.0,-4.0,-7.0,-16.0,23.0,410.0,-11197.0,0.0
4946034,2402,2932,2203,2689,3198,-22,84,-936,76,6,-341.0,-14.0,44.0,-14.0,-1.0,-8.0,10.0,410.0,-11197.0,0.0
4946053,2401,2931,2211,2699,3198,-22,84,-936,76,6,-341.0,-14.0,44.0,-14.0,-1.0,-8.0,10.0,410.0,-11197.0,0.0
4946065,2401,2931,2199,2684,3198,-22,83,-936,75,6,-341.0,-16.0,41.0,-8.0,5.0,1.0,-9.0,410.0,-11197.0,0.0
4946084,2401,2931,2207,2694,3198,-22,83,-936,75,6,-341.0,-16.0,41.0,-8.0,5.0,1.0,-9.0,410.0,-11197.0,0.0
4946096,2398,2927,2201,2687,3198,-23,81,-936,74,5,-341.0,-17.0,44.0,6.0,7.0,3.0,-11.0,410.0,-11197.0,0.0
4946114,2394,2923,2198,2683,3198,-23,81,-936,74,5,-341.0,-17.0,44.0,6.0,7.0,3.0,-11.0,410.0,-11197.0,0.0
4946125,2400,2930,2195,2680,3198,-23,80,-936,73,4,-341.0,-16.0,37.0,9.0,5.0,5.0,6.0,410.0,-11197.0,0.0
4946145,2397,2926,2195,2680,3198,-23,80,-936,72,4,-341.0,-3.0,35.0,-6.0,5.0,8.0,13.0,410.0,-11197.0,0.0
4946162,2395,2924,2194,2678,3198,-23,80,-936,72,4,-341.0,-3.0,35.0,-6.0,5.0,8.0,13.0,410.0,-11197.0,0.0
4946174,2399,2929,2201,2687,3198,-24,79,-936,72,3,-342.0,-4.0,28.0,1.0,0.0,18.0,7.0,410.0,-11197.0,0.0
4946194,2402,2932,2191,2675,3198,-24,78,-936,72,3,-342.0,-7.0,26.0,3.0,0.0,20.0,4.0,410.0,-11197.0,0.0
4946211,2398,2927,2200,2686,3198,-24,78,-936,72,3,-342.0,-7.0,26.0,3.0,0.0,20.0,4.0,410.0,-11197.0,0.0
4946223,2407,2938,2188,2671,3198,-25,78,-936,72,2,-342.0,-5.0,24.0,5.0,-1.0,20.0,-1.0,410.0,-11197.0,0.0
4946243,2395,2924,2194,2678,3198,-25,78,-936,72,2,-342.0,0.0,34.0,0.0,-2.0,17.0,0.0,410.0,-11197.0,0.0
4946260,2398,2927,2195,2680,3198,-25,78,-936,72,2,-342.0,0.0,34.0,0.0,-2.0,17.0,0.0,410.0,-11197.0,0.0
4946272,2408,2940,2196,2681,3198,-26,78,-936,71,1,-342.0,2.0,28.0,1.0,-9.0,8.0,20.0,410.0,-11197.0,0.0
4946292,2395,2924,2193,2677,3197,-26,78,-936,71,1,-342.0,0.0,17.0,8.0,-15.0,2.0,18.0,410.0,-11197.0,0.0
4946309,2402,2932,2186,2669,3197,-26,78,-936,71,1,-342.0,0.0,17.0,8.0,-15.0,2.0,18.0,410.0,-11197.0,0.0
4946321,2412,2945,2195,2680,3197,-26,78,-936,72,1,-342.0,5.0,20.0,-1.0,-13.0,-4.0,-3.0,410.0,-11200.0,0.0
4946340,2404,2935,2192,2676,3197,-26,78,-936,72,1,-342.0,5.0,20.0,-1.0,-13.0,-4.0,-3.0,410.0,-11205.0,0.0
4946352,2400,2930,2199,2684,3197,-26,77,-936,71,1,-342.0,9.0,-7.0,-22.0,33.0,3.0,-6.0,410.0,-11216.0,0.0
4946372,2400,2930,2201,2687,3197,-26,76,-936,70,0,1657.0,0.0,-49.0,2.0,98.0,7.0,11.0,410.0,-11228.0,0.0
4946392,2411,2943,2207,2694,3196,-26,73,-936,68,0,-343.0,1.0,-52.0,18.0,99.0,-12.0,46.0,410.0,-11237.0,0.0
4946410,2407,2938,2198,2683,3196,-26,73,-936,68,0,-343.0,1.0,-52.0,18.0,99.0,-12.0,46.0,410.0,-11244.0,-775.0
4946423,2415,2948,2196,2681,3195,-25,74,-936,68,0,-344.0,0.0,-104.0,0.0,-50.0,-24.0,56.0,410.0,-11264.0,-775.0
4946444,2396,2925,2200,2686,3195,-25,74,-936,69,1,-345.0,2.0,-104.0,-12.0,-3.0,-23.0,-7.0,410.0,-11286.0,-775.0
4946463,2409,2941,2201,2687,3195,-25,74,-936,69,1,-345.0,2.0,-104.0,-12.0,-3.0,-23.0,-7.0,410.0,-11303.0,-775.0
4946475,2398,2927,2196,2681,3196,-24,75,-936,69,2,-344.0,13.0,-114.0,-26.0,35.0,-31.0,-23.0,410.0,-11334.0,-775.0
4946496,2399,2929,2200,2686,3196,-23,78,-936,71,4,-343.0,11.0,-109.0,-16.0,-8.0,-33.0,29.0,410.0,-11366.0,-775.0
4946515,2402,2932,2205,2692,3196,-23,78,-936,71,4,-343.0,11.0,-109.0,-16.0,-8.0,-33.0,29.0,410.0,-11391.0,-2317.0
4946528,2417,2951,2208,2695,3195,-21,84,-935,77,7,-344.0,9.0,-90.0,-21.0,0.0,-33.0,23.0,410.0,-11433.0,-2317.0
4946548,2407,2938,2224,2715,3195,-21,87,-935,78,8,-344.0,14.0,-69.0,-27.0,18.0,-40.0,-18.0,410.0,-11476.0,-2317.0
4946567,2413,2946,2232,2725,3195,-21,87,-935,78,8,-344.0,14.0,-69.0,-27.0,18.0,-40.0,-18.0,410.0,-11506.0,-2317.0
4946580,2417,2951,2243,2738,3196,-18,91,-935,80,11,-343.0,7.0,-42.0,11.0,0.0,-42.0,-38.0,410.0,-11556.0,-2317.0
4946599,2419,2953,2240,2735,3196,-18,91,-935,80,11,-343.0,7.0,-42.0,11.0,0.0,-42.0,-38.0,410.0,-11591.0,-2317.0
4946612,2418,2952,2267,2768,3196,-17,91,-935,79,12,-343.0,14.0,-34.0,-13.0,11.0,-53.0,-8.0,410.0,-11652.0,-2317.0
4946634,2421,2956,2280,2783,3196,-16,90,-935,79,13,-343.0,25.0,-31.0,-28.0,15.0,-61.0,21.0,410.0,-11712.0,-4467.0
4946653,2427,2963,2320,2832,3196,-16,90,-935,79,13,-343.0,25.0,-31.0,-28.0,15.0,-61.0,21.0,410.0,-11754.0,-4467.0
4946666,2418,2952,2338,2854,3195,-14,90,-935,78,15,-344.0,-4.0,-57.0,15.0,14.0,-57.0,31.0,410.0,-11826.0,-4467.0
4946688,2408,2940,2328,2842,3195,-13,91,-935,79,16,-344.0,-2.0,-60.0,7.0,20.0,-73.0,1.0,410.0,-11893.0,-4467.0
4946707,2422,2957,2343,2860,3195,-13,91,-935,79,16,-344.0,-2.0,-60.0,7.0,20.0,-73.0,1.0,410.0,-11939.0,-4467.0
4946720,2408,2940,2301,2809,3195,-11,93,-935,79,19,-344.0,12.0,-36.0,-27.0,5.0,-95.0,-37.0,410.0,-12014.0,-4467.0
4946740,2416,2949,2319,2831,3195,-8,93,-935,79,21,-343.0,-3.0,-38.0,-4.0,13.0,-90.0,-36.0,410.0,-12092.0,-5943.0
4946760,2416,2949,2346,2864,3196,-6,93,-935,79,22,-343.0,2.0,-36.0,-16.0,21.0,-86.0,-16.0,410.0,-12177.0,-5943.0
