Timestamp_ms,ADC1_Raw,ADC1_V_milli,ADC2_Raw,ADC2_V_milli,Heading_deci,Roll_deci,Pitch_deci,Quat_W_milli,Quat_X_milli,Quat_Y_milli,Quat_Z_milli,LinAccel_X_centi,LinAccel_Y_centi,LinAccel_Z_centi,AngVel_X_deci,AngVel_Y_deci,AngVel_Z_deci,Temp_C_deci,Encoder_Count,Encoder_RPM_deci
4990869,2382,2908,2191,2675,3214,-15,75,-941,66,8,-329,-14,2,-11,0,6,3,410,-39137,0
4990881,2387,2914,2186,2669,3214,-15,75,-941,66,8,-329,-15,-1,-4,0,-2,1,410,-39137,0
4990899,2388,2915,2188,2671,3214,-15,75,-941,66,8,-329,-15,-1,-4,0,-2,1,410,-39137,0
4990911,2376,2901,2190,2673,3214,-15,75,-941,66,8,-329,-10,-1,-7,0,2,-1,410,-39137,0
4990929,2387,2914,2195,2680,3214,-15,75,-941,66,8,-329,-10,-1,-7,0,2,-1,410,-39137,0
4990941,2383,2909,2182,2664,3214,-15,75,-941,66,8,-329,-15,0,-1,-1,6,-2,410,-39137,0
4990960,2382,2908,2183,2665,3214,-15,75,-941,66,8,-329,-15,0,-1,-1,6,-2,410,-39137,0
4990972,2385,2912,2186,2669,3214,-15,75,-941,66,8,-329,-26,2,30,-1,-1,0,410,-39137,0
4990990,2375,2899,2188,2671,3214,-15,75,-941,66,8,-329,-26,2,30,-1,-1,0,410,-39137,0
4991002,2384,2910,2191,2675,3214,-15,75,-941,66,8,-329,-6,5,-27,-1,3,0,410,-39137,0
4991021,2382,2908,2185,2667,3214,-15,75,-941,66,8,-329,-6,5,-27,-1,3,0,410,-39137,0
4991032,2379,2904,2189,2672,3214,-15,75,-941,66,8,-329,-8,-2,-9,0,-8,1,410,-39137,0
4991051,2373,2897,2188,2671,3214,-15,75,-941,66,8,-329,-8,-2,-9,0,-8,1,410,-39137,0
4991063,2381,2907,2186,2669,3214,-15,75,-941,66,8,-329,-10,-3,-8,-2,-26,2,410,-39137,0
4991081,2376,2901,2187,2670,3214,-15,75,-941,66,8,-329,-10,-3,-8,-2,-26,2,410,-39137,0
4991093,2389,2916,2184,2666,3214,-14,75,-941,66,9,-329,-15,0,10,-5,-10,0,410,-39137,0
4991113,2377,2902,2191,2675,3214,-14,75,-941,66,9,-329,-14,1,2,-1,2,-8,410,-39137,0
4991131,2378,2903,2188,2671,3214,-14,75,-941,66,9,-329,-14,1,2,-1,2,-8,410,-39137,0
4991143,2380,2905,2186,2669,3214,-14,75,-942,66,9,-328,-16,4,0,3,0,-11,410,-39137,0
4991161,2381,2907,2191,2675,3214,-14,75,-942,66,9,-328,-16,4,0,3,0,-11,410,-39137,0
4991173,2383,2909,2176,2656,3215,-14,75,-942,65,9,-328,-13,4,0,0,-8,-1,410,-39137,0
4991190,2382,2908,2195,2680,3215,-14,75,-942,65,9,-328,-13,4,0,0,-8,-1,410,-39137,0
4991202,2379,2904,2189,2672,3215,-13,75,-942,65,9,-328,-16,1,-14,1,-19,6,410,-39137,0
4991221,2385,2912,2184,2666,3215,-13,75,-942,65,9,-328,-16,1,-14,1,-19,6,410,-39137,0
4991233,2388,2915,2183,2665,3214,-13,75,-941,65,10,-329,-17,-1,-15,3,-17,3,410,-39137,0
4991251,2391,2919,2190,2673,3214,-13,75,-941,65,10,-329,-17,-1,-15,3,-17,3,410,-39137,0
4991263,2383,2909,2184,2666,3214,-13,75,-941,65,10,-329,-16,-9,-10,3,-2,0,410,-39137,0
4991281,2381,2907,2188,2671,3214,-13,75,-941,65,10,-329,-16,-9,-10,3,-2,0,410,-39137,0
4991293,2379,2904,2187,2670,3214,-13,75,-941,65,10,-328,-17,-9,3,-1,-3,-6,410,-39137,0
4991312,2384,2910,2184,2666,3214,-13,75,-941,65,10,-328,-17,-9,3,-1,-3,-6,410,-39137,0
4991324,2390,2918,2187,2670,3215,-12,75,-942,65,10,-328,-15,0,-1,-6,-13,-7,410,-39137,0
4991342,2374,2898,2187,2670,3215,-12,75,-942,65,10,-328,-15,0,-1,-6,-13,-7,410,-39137,0
4991354,2383,2909,2190,2673,3215,-12,75,-942,65,11,-328,-18,6,7,-4,-13,-3,410,-39137,0
4991373,2379,2904,2188,2671,3215,-12,75,-942,65,11,-328,-18,6,7,-4,-13,-3,410,-39137,0
4991385,2382,2908,2203,2689,3215,-11,75,-942,65,11,-328,-18,10,-2,0,-21,3,410,-39137,0
4991402,2383,2909,2185,2667,3215,-11,75,-942,65,11,-328,-18,10,-2,0,-21,3,410,-39137,0
4991414,2383,2909,2188,2671,3214,-11,75,-941,65,11,-329,-13,4,-24,2,-7,7,410,-39137,0
4991433,2391,2919,2187,2670,3214,-11,75,-941,65,11,-329,-13,4,-24,2,-7,7,410,-39137,0
4991445,2379,2904,2184,2666,3214,-11,75,-941,65,11,-329,-17,-2,-2,5,5,0,410,-39137,0
4991464,2386,2913,2196,2681,3214,-11,75,-941,65,11,-329,-17,-2,-2,5,5,0,410,-39137,0
4991476,2381,2907,2191,2675,3214,-11,75,-941,65,11,-329,-16,-6,-2,3,-3,-6,410,-39137,0
4991494,2387,2914,2184,2666,3214,-11,75,-941,65,11,-329,-16,-6,-2,3,-3,-6,410,-39137,0
4991506,2372,2896,2194,2678,3214,-11,75,-941,65,11,-329,-14,-2,-10,-3,-13,-1,410,-39137,0
4991526,2375,2899,2194,2678,3214,-11,75,-941,65,11,-329,-14,4,-7,-5,-10,3,410,-39137,0
4991544,2368,2891,2190,2673,3214,-11,75,-941,65,11,-329,-14,4,-7,-5,-10,3,410,-39137,0
4991556,2384,2910,2184,2666,3214,-11,75,-941,65,11,-329,-20,4,-1,-3,-6,5,410,-39137,0
4991575,2368,2891,2188,2671,3214,-11,75,-941,65,11,-329,-20,4,-1,-3,-6,5,410,-39137,0
4991587,2374,2898,2190,2673,3214,-11,75,-941,65,11,-329,-15,1,-3,1,2,0,410,-39137,0
4991607,2387,2914,2189,2672,3214,-11,75,-941,65,11,-337,-16,0,-5,2,10,-82,410,-39137,0
4991627,2388,2915,2191,2675,3214,-12,75,-941,65,11,-329,-14,-1,0,2,8,0,410,-39137,0
4991644,2379,2904,2199,2684,3214,-12,75,-941,65,11,-329,-14,-1,0,2,8,0,410,-39137,0
4991656,2384,2910,2184,2666,3214,-12,75,-941,65,10,-329,-16,1,-6,0,-80,3,410,-39137,0
4991675,2387,2914,2187,2670,3214,-12,75,-941,65,10,-329,-16,1,-6,0,-80,3,410,-39137,0
4991687,2378,2903,2186,2669,3214,-12,75,-941,65,10,-329,-13,0,-7,-1,-3,6,410,-39137,0
4991707,2382,2908,2192,2676,3214,-13,75,-941,65,10,-329,-11,1,-15,1,3,2,410,-39137,0
4991727,2376,2901,2186,2669,3214,-13,75,-941,65,10,-329,-12,0,0,1,8,1,410,-39137,0
4991745,2375,2899,2185,2667,3214,-13,75,-941,65,10,-329,-12,0,0,1,8,1,410,-39137,0
4991756,2385,2912,2190,2673,3214,-13,75,-941,65,10,-329,-9,-2,-3,0,10,4,410,-39137,0
4991776,2383,2909,2187,2670,3214,-13,75,-941,65,10,-329,-12,-1,4,0,0,3,410,-39137,0
4991793,2374,2898,2185,2667,3214,-13,75,-941,65,10,-329,-12,-1,4,0,0,3,410,-39137,0
4991805,2386,2913,2203,2689,3214,-13,75,-941,65,10,-329,-11,4,0,0,-1,-1,410,-39137,0
4991823,2383,2909,2187,2670,3214,-13,75,-941,65,10,-329,-11,4,0,0,-1,-1,410,-39137,0
4991835,2387,2914,2189,2672,3214,-13,75,-941,65,10,-329,-13,6,-13,1,2,0,410,-39137,0
4991853,2383,2909,2189,2672,3214,-13,75,-941,65,10,-329,-13,6,-13,1,2,0,410,-39137,0
4991865,2391,2919,2184,2666,3214,-13,75,-941,65,9,-329,-17,0,-6,5,3,2,410,-39137,0
4991883,2383,2909,2190,2673,3214,-13,75,-941,65,9,-329,-17,0,-6,5,3,2,410,-39137,0
4991894,2379,2904,2187,2670,3214,-13,74,-941,65,9,-329,-14,-2,-4,3,5,4,410,-39137,0
4991913,2392,2920,2192,2676,3214,-13,74,-941,65,9,-329,-14,-2,-4,3,5,4,410,-39137,0
4991924,2382,2908,2188,2671,3214,-94,75,-941,65,9,-329,-13,-4,-11,1,10,5,410,-39137,0
4991943,2368,2891,2192,2676,3214,-94,75,-941,65,9,-329,-13,-4,-11,1,10,5,410,-39137,0
4991954,2382,2908,2191,2675,3214,-15,75,-941,66,9,-329,-11,-5,-14,-1,5,1,410,-39137,0
4991973,2379,2904,2191,2675,3214,-15,75,-941,66,9,-329,-11,-5,-14,-1,5,1,410,-39137,0
4991985,2383,2909,2203,2689,3214,-15,75,-941,66,9,-329,-13,-1,0,-2,2,1,410,-39137,0
4992003,2376,2901,2191,2675,3214,-15,75,-941,66,9,-329,-13,-1,0,-2,2,1,410,-39137,0
4992014,2386,2913,2193,2677,3214,-95,75,-941,66,8,-329,-9,2,-6,-5,10,0,410,-39137,0
4992033,2386,2913,2191,2675,3214,-95,75,-941,66,8,-329,-9,2,-6,-5,10,0,410,-39137,0
4992044,2381,2907,2195,2680,3214,-15,75,-941,66,8,-329,-11,1,0,-5,10,0,410,-39137,0
4992063,2379,2904,2176,2656,3214,-15,75,-941,66,8,-329,-11,1,0,-5,10,0,410,-39137,0
4992074,2384,2910,2182,2664,3214,-15,75,-941,66,8,-329,-6,3,1,0,10,0,410,-39137,0
4992092,2384,2910,2187,2670,3214,-15,75,-941,66,8,-329,-6,3,1,0,10,0,410,-39137,0
4992104,2383,2909,2186,2669,3214,-15,75,-941,66,8,-329,-8,2,-3,1,8,1,410,-39137,0
4992122,2388,2915,2181,2663,3214,-15,75,-941,66,8,-329,-8,2,-3,1,8,1,410,-39137,0
4992133,2377,2902,2187,2670,3214,-16,75,-941,66,8,-329,-11,4,4,2,2,3,410,-39137,0
4992152,2383,2909,2191,2675,3214,-16,75,-941,66,8,-329,-11,4,4,2,2,3,410,-39137,0
4992163,2397,2926,2189,2672,3214,-16,75,-941,66,8,-329,-9,0,-19,3,2,4,410,-39137,0
4992182,2385,2912,2197,2682,3214,-16,75,-941,66,8,-329,-9,0,-19,3,2,4,410,-39137,0
4992193,2380,2905,2186,2669,3214,-16,75,-941,66,7,-329,-10,-3,-11,3,7,3,410,-39137,0
4992212,2392,2920,2186,2669,3214,-16,75,-941,66,7,-329,-10,-3,-11,3,7,3,410,-39137,0
4992224,2384,2910,2184,2666,3214,-16,75,-941,66,7,-329,-13,-7,-1,-2,10,1,410,-39137,0
4992243,2377,2902,2187,2670,3214,-16,75,-941,66,7,-329,-13,-7,-1,-2,10,1,410,-39137,0
4992255,2382,2908,2185,2667,3214,-16,75,-941,66,7,-329,-8,-3,-14,-2,4,-5,410,-39137,0
4992273,2385,2912,2188,2671,3214,-16,75,-941,66,7,-329,-8,-3,-14,-2,4,-5,410,-39137,0
4992285,2384,2910,2189,2672,3214,-16,75,-941,66,7,-329,-9,1,4,-5,2,-1,410,-39137,0
4992303,2380,2905,2184,2666,3214,-16,75,-941,66,7,-329,-9,1,4,-5,2,-1,410,-39137,0
4992315,2383,2909,2178,2659,3214,-16,75,-941,66,7,-329,-11,6,8,-3,-1,0,410,-39137,0
4992333,2372,2896,2184,2666,3214,-16,75,-941,66,7,-329,-11,6,8,-3,-1,0,410,-39137,0
4992345,2381,2907,2188,2671,3214,-16,75,-941,66,7,-329,-7,6,-8,0,0,0,410,-39137,0
4992363,2384,2910,2187,2670,3214,-16,75,-941,66,7,-329,-7,6,-8,0,0,0,410,-39137,0
4992374,2381,2907,2189,2672,3214,-16,75,-941,66,7,-329,-11,2,0,4,-4,1,410,-39137,0
4992393,2391,2919,2187,2670,3214,-16,75,-941,66,7,-329,-11,2,0,4,-4,1,410,-39137,0
4992404,2383,2909,2190,2673,3214,-16,75,-941,66,7,-329,-8,0,-3,6,-3,3,410,-39137,0
4992423,2391,2919,2184,2666,3214,-16,75,-941,66,7,-329,-8,0,-3,6,-3,3,410,-39137,0
4992434,2382,2908,2188,2671,3214,-16,75,-941,66,7,-329,-11,-3,-7,3,-14,5,410,-39137,0
4992452,2388,2915,2196,2681,3214,-16,75,-941,66,7,-329,-11,-3,-7,3,-14,5,410,-39137,0
4992464,2383,2909,2195,2680,3214,-16,75,-941,66,7,-329,-12,-2,-12,2,-19,1,410,-39137,0
4992483,2384,2910,2189,2672,3214,-16,75,-941,66,7,-329,-12,-2,-12,2,-19,1,410,-39137,0
4992495,2384,2910,2190,2673,3213,-16,75,-941,66,8,-329,-12,0,2,0,-7,0,410,-39137,0
4992513,2382,2908,2191,2675,3213,-16,75,-941,66,8,-329,-12,0,2,0,-7,0,410,-39137,0
4992525,2380,2905,2181,2663,3213,-15,75,-941,66,8,-329,-13,-1,-1,0,-5,-5,410,-39137,0
4992543,2391,2919,2189,2672,3213,-15,75,-941,66,8,-329,-13,-1,-1,0,-5,-5,410,-39137,0
4992555,2383,2909,2197,2682,3214,-15,75,-941,66,8,-329,-13,2,-6,-2,-6,-8,410,-39137,0
4992574,2378,2903,2182,2664,3214,-15,75,-941,66,8,-329,-13,2,-6,-2,-6,-8,410,-39137,0
4992586,2377,2902,2192,2676,3214,-15,75,-941,66,8,-329,-17,5,1,0,-3,-5,410,-39137,0
4992605,2381,2907,2184,2666,3214,-15,75,-941,66,8,-329,-17,5,1,0,-3,-5,410,-39137,0
4992616,2376,2901,2190,2673,3214,-15,75,-941,66,8,-329,-14,5,-11,0,-1,0,410,-39137,0
4992635,2383,2909,2185,2667,3214,-15,75,-941,66,8,-329,-14,5,-11,0,-1,0,410,-39137,0
4992646,2381,2907,2192,2676,3214,-15,75,-941,66,8,-329,-18,0,-2,3,5,3,410,-39137,0
4992665,2372,2896,2194,2678,3214,-15,75,-941,66,8,-329,-18,0,-2,3,5,3,410,-39137,0
4992676,2383,2909,2191,2675,3214,-96,75,-941,66,8,-329,-16,-4,-8,4,10,-2,410,-39137,0
4992695,2376,2901,2187,2670,3214,-96,75,-941,66,8,-329,-16,-4,-8,4,10,-2,410,-39137,0
4992707,2382,2908,2186,2669,3214,-16,75,-941,66,7,-329,-18,-4,-5,1,13,-5,410,-39137,0
4992725,2379,2904,2192,2676,3214,-16,75,-941,66,7,-329,-18,-4,-5,1,13,-5,410,-39137,0
4992737,2384,2910,2186,2669,3214,-16,75,-941,66,7,-329,-17,0,-4,-2,8,-5,410,-39137,0
4992755,2383,2909,2180,2661,3214,-16,75,-941,66,7,-329,-17,0,-4,-2,8,-5,410,-39137,0
4992767,2378,2903,2188,2671,3214,-16,75,-941,66,7,-329,-17,0,-7,-5,9,0,410,-39137,0
4992786,2382,2908,2186,2669,3214,-16,75,-941,66,7,-329,-17,0,-7,-5,9,0,410,-39137,0
4992797,2383,2909,2186,2669,3214,-16,75,-941,66,7,-329,-18,2,-7,-4,11,1,410,-39137,0
4992816,2383,2909,2189,2672,3214,-16,75,-941,66,7,-329,-18,2,-7,-4,11,1,410,-39137,0
4992828,2380,2905,2188,2671,3214,-17,75,-941,66,6,-329,-19,1,-1,-3,15,2,410,-39137,0
4992845,2382,2908,2190,2673,3214,-17,75,-941,66,6,-329,-19,1,-1,-3,15,2,410,-39137,0
4992857,2383,2909,2187,2670,3214,-18,75,-941,67,6,-329,-14,3,-5,-2,20,5,410,-39137,0
4992876,2382,2908,2187,2670,3214,-18,75,-941,67,6,-329,-14,3,-5,-2,20,5,410,-39137,0
4992888,2382,2908,2190,2673,3214,-18,75,-941,67,5,-329,-12,0,0,-5,25,6,410,-39137,0
4992905,2391,2919,2207,2694,3214,-18,75,-941,67,5,-329,-12,0,0,-5,25,6,410,-39137,0
4992917,2384,2910,2189,2672,3214,-19,75,-941,67,5,-329,-9,-1,-2,-1,21,0,410,-39137,0
4992935,2386,2913,2188,2671,3214,-19,75,-941,67,5,-329,-9,-1,-2,-1,21,0,410,-39137,0
4992947,2383,2909,2188,2671,3214,-20,75,-941,67,4,-329,-10,1,-6,-2,21,2,410,-39137,0
4992965,2383,2909,2187,2670,3214,-20,75,-941,67,4,-329,-10,1,-6,-2,21,2,410,-39137,0
4992976,2385,2912,2187,2670,3214,-20,75,-941,67,4,-329,-9,0,-4,-3,21,8,410,-39137,0
4992995,2386,2913,2186,2669,3214,-20,75,-941,67,4,-329,-9,0,-4,-3,21,8,410,-39137,0
4993007,2385,2912,2189,2672,3214,-21,75,-941,68,3,-329,-6,-1,-7,-1,18,6,410,-39137,0
4993025,2387,2914,2184,2666,3214,-21,75,-941,68,3,-329,-6,-1,-7,-1,18,6,410,-39137,0
4993037,2389,2916,2186,2669,3214,-21,75,-941,68,3,-329,-8,-2,-1,-1,19,-1,410,-39137,0
4993055,2393,2921,2189,2672,3214,-21,75,-941,68,3,-329,-8,-2,-1,-1,19,-1,410,-39137,0
4993066,2386,2913,2185,2667,3214,-22,75,-941,68,2,-329,-6,-2,1,-3,13,0,410,-39137,0
4993545,2407,2938,2194,2678,3213,-26,71,-941,66,-1,-329,-11,18,26,0,-10,67,410,-38944,1272
4993564,2397,2926,2198,2683,3213,-26,71,-941,66,-1,-329,-11,18,26,0,-10,67,410,-38926,1272
4993576,2397,2926,2195,2680,3212,-26,71,-941,67,0,-330,-9,40,6,-25,-14,-16,410,-38897,1272
4993597,2399,2929,2231,2724,3213,-25,71,-941,67,0,-330,-1,46,-17,-11,-17,-38,410,-38871,1272
4993616,2392,2920,2197,2682,3213,-25,71,-941,67,0,-330,-1,46,-17,-11,-17,-38,410,-38851,2238
4993629,2394,2923,2206,2693,3213,-25,71,-941,66,0,-329,2,35,-12,18,-15,15,410,-38822,2238
4993648,2400,2930,2176,2656,3213,-25,71,-941,66,0,-329,2,35,-12,18,-15,15,410,-38804,2238
4993661,2400,2930,2207,2694,3211,-25,70,-941,65,0,-331,2,-22,-14,11,-12,67,410,-38773,2238
4993680,2404,2935,2179,2660,3211,-25,70,-941,65,0,-331,2,-22,-14,11,-12,67,410,-38753,2238
4993693,2423,2958,2196,2681,3210,-25,70,-940,65,0,-332,-11,-21,11,23,-15,22,410,-38723,2238
4993711,2408,2940,2201,2687,3210,-25,70,-940,65,0,-332,-11,-21,11,23,-15,22,410,-38702,2238
4993724,2407,2938,2192,2676,3211,-23,69,-941,64,0,-331,-8,-21,-11,25,-28,-28,410,-38667,2824
4993746,2409,2941,2223,2714,3211,-23,69,-941,63,0,-331,-4,-4,-6,31,-21,-25,410,-38637,2824
4993764,2410,2942,2208,2695,3211,-23,69,-941,63,0,-331,-4,-4,-6,31,-21,-25,410,-38617,2824
4993777,2396,2925,2193,2677,3211,-23,68,-941,63,0,-331,-8,5,19,29,-15,18,410,-38584,2824
4993797,2420,2954,2190,2673,3211,-23,67,-941,62,0,-331,-11,-10,15,39,-25,23,410,-38556,2824
4993816,2412,2945,2201,2687,3211,-23,67,-941,62,0,-331,-11,-10,15,39,-25,23,410,-38537,2824
4993828,2411,2943,2203,2689,3210,-101,66,-941,61,0,-332,-7,-26,-6,63,-30,2,410,-38506,2580
4993848,2412,2945,2200,2686,3210,-21,65,-941,60,0,-332,-5,-13,-20,79,-28,-16,410,-38477,2580
4993867,2410,2942,2211,2699,3210,-21,65,-941,60,0,-332,-5,-13,-20,79,-28,-16,410,-38457,2580
4993880,2419,2953,2198,2683,3211,-20,63,-941,57,0,-331,-6,-11,-11,80,-31,-20,410,-38426,2580
4993899,2412,2945,2220,2710,3211,-20,63,-941,57,0,-331,-6,-11,-11,80,-31,-20,410,-38406,2580
4993912,2423,2958,2208,2695,3211,-19,60,-941,55,1,-331,-5,-30,-8,58,-41,11,410,-38375,2580
4993932,2415,2948,2198,2683,3211,-18,60,-941,55,1,-332,0,-43,-15,44,-43,29,410,-38346,2564
4993950,2412,2945,2207,2694,3211,-18,60,-941,55,1,-332,0,-43,-15,44,-43,29,410,-38326,2564
4993963,2411,2943,2195,2680,3210,-17,58,-941,53,2,-332,-1,-55,-16,37,-40,12,410,-38294,2564
4993983,2408,2940,2203,2689,3210,-16,59,-941,54,3,-332,-2,-38,0,31,-40,-10,410,-38263,2564
4994002,2419,2953,2231,2724,3210,-16,59,-941,54,3,-332,-2,-38,0,31,-40,-10,410,-38242,2564
4994014,2403,2934,2202,2688,3211,-15,60,-941,54,4,-332,9,-8,-1,-9,-42,-26,410,-38206,2564
4994035,2400,2930,2200,2686,3211,-15,60,-941,54,5,-331,-2,-12,-1,-29,-41,-19,410,-38175,2766
4994054,2407,2938,2197,2682,3211,-15,60,-941,54,5,-331,-2,-12,-1,-29,-41,-19,410,-38153,2766
4994067,2407,2938,2204,2691,3211,-13,61,-941,54,6,-331,-9,-3,3,-18,-38,1,410,-38117,2766
4994087,2408,2940,2202,2688,3211,-13,61,-941,55,7,-331,0,-9,-15,-18,-36,1,410,-38087,2766
4994106,2415,2948,2197,2682,3211,-13,61,-941,55,7,-331,0,-9,-15,-18,-36,1,410,-38066,2766
4994118,2415,2948,2200,2686,3211,-11,61,-941,54,7,-331,-8,-16,-6,5,-30,-15,410,-38033,2766
4994139,2407,2938,2201,2687,3211,-11,61,-941,54,8,-331,-11,-12,-2,12,-33,-21,410,-38003,2740
4994158,2399,2929,2207,2694,3211,-11,61,-941,54,8,-331,-11,-12,-2,12,-33,-21,410,-37982,2740
4994171,2410,2942,2196,2681,3212,-10,61,-942,54,9,-330,-5,11,-7,13,-38,-27,410,-37947,2740
4994190,2407,2938,2207,2694,3212,-10,61,-942,54,9,-330,-5,11,-7,13,-38,-27,410,-37923,2740
4994203,2391,2919,2202,2688,3213,-8,61,-942,53,10,-330,-20,58,16,-6,-38,-26,410,-37880,2740
4994223,2404,2935,2206,2693,3214,-8,62,-942,54,11,-329,-11,83,13,-37,-41,-31,410,-37830,2740
4994244,2407,2938,2211,2699,3215,-6,63,-942,54,12,-329,-12,101,18,-85,-45,-30,410,-37777,3555
4994264,2415,2948,2212,2700,3215,-6,66,-942,56,13,-328,-11,135,34,-132,-48,-25,410,-37707,3555
4994285,2432,2969,2230,2722,3215,-5,69,-942,59,15,-328,-7,157,29,-196,-50,-22,410,-37636,3555
4994305,2439,2978,2218,2708,3215,-3,74,-942,62,17,-328,-22,180,69,-259,-47,-15,410,-37548,3555
4994327,2453,2995,2256,2754,3216,-2,79,-942,66,20,1672,-15,207,25,-233,-73,-56,410,-37455,3555
4994349,2473,3019,2272,2774,3217,-1,83,-942,69,22,-326,-8,188,6,-188,-59,-70,410,-37364,6523
4994369,2500,3052,2294,2800,3218,0,86,-942,71,24,-325,-14,289,24,-151,-57,-71,410,-37268,6523
4994391,2515,3070,2325,2838,3220,0,89,-942,73,26,-324,-11,262,5,34,-43,-65,410,-37179,6523
4994410,2513,3068,2335,2851,3220,0,89,-942,73,26,-324,-11,262,5,34,-43,-65,410,-37112,6523
4994424,2535,3095,2336,2852,3220,2,86,-943,70,26,-323,-6,247,-1,67,-42,27,410,-36995,6523
4994445,2571,3139,2363,2885,3219,3,82,-942,67,26,-324,-31,192,24,-46,-36,65,410,-36878,6523
4994465,2575,3144,2336,2852,3218,3,83,-942,68,26,-325,-40,177,36,-88,-25,29,410,-36738,8936
4994488,2580,3150,2371,2894,3218,3,84,-942,68,27,-325,-32,140,40,8,-19,-35,410,-36610,8936
4994508,2579,3148,2391,2919,3220,4,83,-943,67,27,-324,-23,108,63,45,-21,-26,410,-36461,8936
4994530,2621,3200,2413,2946,3220,5,83,-943,67,27,-324,-21,133,49,-54,-24,9,410,-36309,8936
4994552,2625,3205,2424,2959,3220,5,84,-943,66,27,-324,-26,126,45,-58,-23,-8,410,-36161,8936
4994573,2624,3203,2438,2976,3220,5,81,-943,66,28,-323,-15,91,42,36,-20,-36,410,-35998,11358
4994596,2620,3199,2449,2990,3220,6,80,-943,65,28,-323,-20,84,42,56,-26,-11,410,-35842,11358
4994616,2667,3256,2469,3014,3220,6,81,-943,65,28,-324,-15,63,19,-46,-35,27,410,-35658,11358
4994640,2663,3251,2459,3002,3220,7,81,-943,65,29,-324,-29,57,-4,-23,-34,-1,410,-35495,11358
4994661,2656,3242,2472,3018,3220,8,1,-943,65,30,-324,-17,37,-17,37,-16,-38,410,-35315,11358
4994683,2646,3230,2481,3029,3221,8,81,-943,64,30,-323,-4,58,-60,13,-12,-29,410,-35139,12954
4994705,2649,3234,2491,3041,3221,8,81,-943,65,30,-323,-8,20,-54,-34,-8,15,410,-34951,12954
4994728,2647,3231,2491,3041,3220,8,81,-943,65,30,-324,-26,-78,14,43,-1,50,410,-34766,12954
4994752,2640,3223,2472,3018,3219,8,81,-943,64,30,-324,-19,-116,-10,28,-2,53,410,-34594,12954
4994774,2624,3203,2432,2969,3218,8,80,-942,64,30,-326,-26,-144,5,-16,8,33,410,-34418,12954
4994796,2611,3188,2449,2990,3218,7,81,-942,64,29,-325,-20,-82,4,-12,23,-13,410,-34257,12979
4994817,2602,3177,2444,2984,3219,7,81,-942,65,29,-325,14,-54,-36,6,31,-52,410,-34085,12979
4994840,2599,3173,2467,3012,3220,6,81,-943,65,28,-324,6,-67,-6,14,28,-20,410,-33930,12979
4994861,2595,3168,2456,2998,3220,6,81,-943,65,28,-324,-13,-96,18,2,31,35,410,-33771,12979
4994883,2578,3147,2423,2958,3219,5,82,-942,66,28,-325,-14,-108,-1,3,16,66,410,-33619,12979
4994904,2514,3069,2361,2882,3217,5,81,-942,66,27,-326,14,-194,-83,6,16,51,410,-33463,12222
4994927,2593,3166,2448,2989,3216,4,81,-942,65,27,-327,-55,-127,98,75,3,81,410,-33306,12222
4994950,2536,3096,2358,2879,3215,3,81,-941,66,27,-328,-23,-241,-54,-93,44,60,410,-33168,12222
4994970,2501,3053,2341,2858,3213,3,83,-941,67,27,-329,0,-156,-55,-86,5,53,410,-33021,12222
4994993,2504,3057,2338,2854,3213,3,85,-940,69,27,-330,-31,-76,-10,-44,11,45,410,-32896,12222
4995013,2537,3097,2339,2855,3211,2,5,-940,70,27,-331,-16,-42,-149,-18,23,36,410,-32776,10504
4995034,2547,3109,2411,2943,3211,2,85,-940,69,26,-332,16,-161,-86,128,6,58,410,-32659,10504
4995055,2472,3018,2313,2824,3210,1,81,-940,66,25,-332,-52,-27,68,119,24,36,410,-32524,10504
4995077,2535,3095,2380,2905,3210,1,80,-940,65,24,-332,-31,14,17,60,41,-30,410,-32371,10504
4995100,2535,3095,2409,2941,3211,0,81,-940,66,24,-331,-7,-14,-7,-86,48,-91,410,-32229,10504
4995120,2504,3057,2379,2904,3213,0,83,-941,68,23,-329,-3,26,-22,-124,53,-77,410,-32081,10794
4995143,2523,3080,2432,2969,3215,0,85,-941,70,23,-328,-2,63,-14,51,56,-30,410,-31954,10794
4995163,2523,3080,2416,2949,3215,-1,83,-941,68,21,-328,-19,-10,18,97,55,36,410,-31810,10794
4995186,2501,3053,2389,2916,3213,-3,81,-941,68,20,-330,-10,-66,-5,36,45,106,410,-31677,10794
4995206,2526,3084,2376,2901,3210,-5,80,-940,68,19,-332,-19,-56,9,10,56,125,410,-31529,10794
4995229,2533,3092,2390,2918,3209,-6,81,-940,69,18,-333,-19,-98,-30,-49,80,26,410,-31376,10749
4995253,2539,3100,2383,2909,3209,-8,82,-940,70,17,-333,-11,3,-17,11,92,-65,410,-31242,10749
4995273,2517,3073,2396,2925,3211,-9,81,-940,70,14,-330,0,28,-13,23,90,-112,410,-31100,10749
4995295,2508,3062,2402,2932,3213,-11,81,-941,71,13,-329,2,-10,-4,-6,74,-65,410,-30965,10749
4995315,2513,3068,2397,2926,3214,-11,81,-941,71,12,-329,-6,2,-10,-1,50,33,410,-30829,10749
4995336,2535,3095,2402,2932,3212,-13,81,-940,71,12,-330,-1,-42,-29,-10,43,98,410,-30699,10514
4995357,2539,3100,2383,2909,3210,-15,81,-940,72,11,-332,-18,-75,5,10,56,100,410,-30554,10514
4995379,2534,3094,2386,2913,3209,-16,81,-939,72,10,-333,2,-104,-5,6,63,24,410,-30405,10514
4995402,2523,3080,2369,2892,3208,-17,81,-939,72,8,-333,-2,-60,22,-16,63,-14,410,-30278,10514
4995423,2511,3065,2362,2884,3209,-18,83,-939,74,8,-333,-4,-90,6,-3,59,-8,410,-30145,10514
4995444,2513,3068,2363,2885,3209,-20,85,-939,76,8,-332,5,-34,0,29,48,33,410,-30021,10447
4995464,2545,3107,2370,2893,3208,-100,86,-939,77,7,-333,-12,67,10,-8,38,31,410,-29875,10447
4995487,2611,3188,2426,2962,3209,-21,86,-939,77,6,-333,-27,193,54,-38,46,-40,410,-29732,10447
4995508,2615,3192,2457,3000,3211,-22,87,-940,78,6,-331,-25,257,9,-35,56,-147,410,-29564,10447
4995531,2611,3188,2505,3058,3215,-23,88,-941,79,5,-328,15,217,-8,12,61,-130,410,-29387,10447
4995554,2655,3241,2547,3109,3216,-24,87,-941,79,4,-326,8,203,11,29,41,4,410,-29216,12106
4995576,2629,3210,2532,3091,3216,-25,86,-941,79,3,-328,4,134,17,-13,13,134,410,-29035,12106
4995599,2709,3307,2559,3124,3211,-26,87,-940,79,3,-331,0,130,0,-16,13,183,410,-28862,12106
4995619,2773,3385,2599,3173,3208,-26,87,-939,80,3,-333,0,116,-24,-7,3,130,410,-28658,12106
4995643,2772,3384,2578,3147,3207,-27,87,-939,80,2,-334,-12,75,22,3,19,-28,410,-28464,12106
4995665,2757,3366,2580,3150,3208,-27,87,-939,80,2,-333,28,45,-34,2,20,-80,410,-28248,14444
4995688,2783,3398,2632,3213,3210,-27,87,-939,80,2,-331,20,82,0,3,7,-53,410,-28053,14444
4995709,2810,3431,2640,3223,3210,-27,87,-939,80,2,-331,14,68,10,15,-4,5,410,-27835,14444
4995733,2792,3409,2617,3195,3210,-27,86,-939,78,2,-332,-8,15,17,17,-20,92,410,-27618,14444
4995757,2800,3418,2589,3161,3207,-27,85,-938,78,2,-335,-22,-19,7,20,-18,112,410,-27398,14444
4995780,2792,3409,2568,3135,3205,-27,85,-938,78,2,-336,-32,-22,51,6,-6,86,410,-27166,15637
4995804,2800,3418,2577,3146,3203,-27,85,-938,78,2,-337,-34,-60,8,8,-3,0,410,-26953,15637
4995827,2792,3409,2601,3175,3204,-27,84,-938,77,2,-337,-4,-60,-11,21,0,-24,410,-26742,15637
4995850,2769,3380,2615,3192,3205,-27,84,-938,77,2,-336,-5,-90,-19,16,-1,-9,410,-26547,15637
4995871,2743,3349,2560,3125,3204,-27,86,-938,79,2,-337,-6,-72,-19,5,-7,60,410,-26334,15637
4995895,2734,3338,2546,3108,3203,-27,85,-937,78,2,-338,-18,-123,-22,11,-5,74,410,-26145,14768
4995917,2709,3307,2517,3073,3201,-28,85,-937,78,2,-339,-11,-151,-23,23,1,63,410,-25951,14768
4995940,2687,3280,2483,3031,3200,-28,85,-936,78,2,-340,-6,-188,-52,23,5,35,410,-25779,14768
4995961,2644,3228,2453,2995,3200,-28,84,-936,77,1,-340,-6,-190,-19,18,9,14,410,-25593,14768
4995984,2607,3183,2427,2963,3199,-28,83,-936,77,1,-341,-12,-187,-30,3,18,25,410,-25422,14768
4996007,2601,3175,2423,2958,3198,-29,87,-936,80,1,-341,-9,-211,-47,16,17,28,410,-25259,13184
4996029,2549,3112,2378,2903,3198,-30,86,-936,80,1,-342,2,-232,-54,35,21,26,410,-25102,13184
4996052,2528,3086,2344,2862,3197,-30,85,-936,79,0,-342,-9,-227,-56,51,30,36,410,-24974,13184
4996073,2513,3068,2322,2835,3196,-31,92,-935,85,1,-342,1,-192,-48,33,38,39,410,-24838,13184
4996095,2496,3047,2312,2822,3196,-32,98,-934,90,2,-343,-10,-170,-21,36,40,32,410,-24724,13184
4996115,2483,3031,2294,2800,3196,-33,98,-934,90,1,-343,2,-161,-40,23,38,14,410,-24604,10108
4996137,2479,3026,2287,2792,3196,-34,100,-934,94,2,-343,0,-136,-15,25,42,-3,410,-24497,10108
4996157,2468,3013,2272,2774,3196,-35,102,-934,94,1,-343,6,-130,-24,16,48,-1,410,-24395,10108
4996178,2456,2998,2274,2776,3196,-36,101,-934,94,0,-343,10,-102,-2,23,38,13,410,-24294,10108
4996199,2460,3003,2261,2760,3196,-36,101,-934,94,0,-343,21,-105,-21,12,26,33,410,-24206,10108
4996219,2447,2987,2238,2732,3195,-37,105,-934,97,0,-343,18,-97,-19,9,20,29,410,-24117,7804
4996239,2434,2971,2234,2727,3195,-37,106,-933,98,1,-343,17,-64,-2,18,16,12,410,-24036,7804
4996258,2445,2985,2235,2728,3195,-37,106,-933,98,1,-343,17,-64,-2,18,16,12,410,-23983,7804
4996271,2429,2965,2220,2710,3195,-37,106,-933,98,0,-343,8,-56,-4,10,3,-3,410,-23898,7804
4996293,2431,2968,2213,2702,3195,-37,105,-933,98,0,-343,11,-50,-7,20,0,-1,410,-23828,7804
4996312,2429,2965,2211,2699,3195,-37,105,-933,98,0,-343,11,-50,-7,20,0,-1,410,-23781,7804
4996325,2426,2962,2221,2711,3195,-36,106,-933,98,1,-343,3,-43,-16,35,-10,-8,410,-23706,6462
4996346,2421,2956,2210,2698,3195,-36,106,-933,98,1,-343,0,-33,-11,31,-15,-21,410,-23641,6462
4996365,2418,2952,2211,2699,3195,-36,106,-933,98,1,-343,0,-33,-11,31,-15,-21,410,-23598,6462
4996379,2416,2949,2207,2694,3196,-36,106,-934,98,2,-342,-7,-13,-14,31,-16,-14,410,-23534,6462
4996399,2425,2960,2212,2700,3196,-35,106,-934,97,2,-342,-15,4,1,35,-18,1,410,-23472,6462
4996417,2423,2958,2205,2692,3196,-35,106,-934,97,2,-342,-15,4,1,35,-18,1,410,-23432,6462
4996430,2414,2947,2211,2699,3196,-35,105,-934,96,2,-343,-3,5,-18,34,-15,5,410,-23370,5317
4996451,2426,2962,2215,2704,3196,-35,104,-934,96,2,-343,-11,-8,-17,37,-4,-10,410,-23315,5317
4996470,2426,2962,2215,2704,3196,-35,104,-934,96,2,-343,-11,-8,-17,37,-4,-10,410,-23277,5317
4996483,2424,2959,2216,2705,3196,-35,103,-934,95,1,-342,-17,29,-140,53,3,-21,410,-23213,5317
4996505,2431,2968,2210,2698,3197,-35,101,-934,94,1,-342,-11,40,-12,46,6,-16,410,-23156,5317
4996524,2425,2960,2219,2709,3197,-35,101,-934,94,1,-342,-11,40,-12,46,6,-16,410,-23119,5317
4996537,2431,2968,2212,2700,3197,-35,100,-934,93,0,-342,-9,43,-2,41,8,11,410,-23060,4813
4996557,2432,2969,2217,2706,3197,-35,99,-934,92,0,-342,-11,37,4,42,8,20,410,-23006,4813
4996576,2435,2973,2218,2708,3197,-35,99,-934,92,0,-342,-11,37,4,42,8,20,410,-22968,4813
4996589,2447,2987,2227,2719,3196,-36,97,-934,90,-1,-342,-7,38,5,38,12,5,410,-22909,4813
4996608,2433,2970,2221,2711,3196,-36,97,-934,90,-1,-342,-7,38,5,38,12,5,410,-22871,4813
4996621,2442,2981,2223,2714,3196,-37,95,-935,88,-2,-342,-6,41,7,20,16,-8,410,-22812,4813
4996641,2435,2973,2202,2688,3196,-37,93,-935,87,-3,-342,-6,78,3,23,14,-5,410,-22750,4951
4996660,2445,2985,2220,2710,3196,-37,93,-935,87,-3,-342,-6,78,3,23,14,-5,410,-22704,4951
4996673,2448,2989,2238,2732,3197,-37,93,-935,87,-3,-342,-12,131,28,-18,2,-20,410,-22620,4951
4996695,2506,3059,2292,2798,3198,-37,94,-935,88,-2,-341,-37,215,54,-67,-1,-35,410,-22530,4951
4996715,2495,3046,2261,2760,3198,-37,96,-935,90,-2,-341,16,167,18,-167,13,-61,410,-22421,4951
4996737,2476,3023,2318,2830,3200,-37,100,-935,93,-1,-340,9,172,-21,-223,3,-28,410,-22315,4951
4996759,2502,3054,2316,2827,3200,-37,104,-935,96,0,-340,0,102,3,-169,-18,34,410,-22221,7443
4996779,2522,3079,2283,2787,3198,-36,106,-934,99,1,-341,-11,64,2,-63,-10,110,410,-22127,7443
4996800,2519,3075,2283,2787,3196,-37,107,-933,99,1,-343,-15,84,-6,31,-2,114,410,-22037,7443
4996820,2485,3034,2265,2765,3194,-37,106,-933,98,0,-345,-14,158,-11,55,1,55,410,-21932,7443
4996841,2511,3065,2283,2787,3194,-38,105,-933,98,0,-344,-11,105,-20,25,13,-22,410,-21832,7443
4996861,2512,3067,2291,2797,3195,-38,104,-933,96,0,-344,6,57,-34,-14,8,-58,410,-21729,8006
4996882,2505,3058,2290,2796,3195,-38,104,-934,97,0,-343,-14,36,-2,2,4,-113,410,-21626,8006
4996903,2496,3047,2313,2824,3195,-38,103,-934,96,0,-343,-8,0,-12,33,0,36,410,-21538,8006
4996922,2486,3035,2287,2792,3195,-38,103,-934,96,0,-343,-8,0,-12,33,0,36,410,-21479,8006
4996935,2482,3030,2264,2764,3193,-38,102,-933,95,0,-345,-1,-71,-18,55,-7,106,410,-21383,8006
4996957,2488,3037,2247,2743,3191,-38,101,-932,94,-1,-347,4,-79,0,80,1,68,410,-21301,8006
4996977,2488,3037,2238,2732,3190,-38,99,-932,93,-1,-348,5,-83,-4,78,6,13,410,-21216,7370
4996998,2455,2997,2243,2738,3190,-39,98,-932,92,-2,-348,5,32697,3,91,8,-32,410,-21144,7370
4997017,2463,3007,2238,2732,3190,-39,98,-932,92,-2,-348,5,32697,3,91,8,-32,410,-21096,7370
4997030,2450,2991,2233,2726,3191,-38,98,-933,91,-2,-346,16,-43,-2,110,11,-42,410,-21022,7370
4997051,2449,2990,2228,2720,3192,-38,94,-933,89,-3,-346,2,-36,6,112,0,-16,410,-20957,7370
4997070,2444,2984,2220,2710,3192,-38,94,-933,89,-3,-346,2,-36,6,112,0,-16,410,-20915,7370
4997083,2439,2978,2212,2700,3192,-38,91,-933,86,-4,-346,0,-41,-6,119,-16,26,410,-20847,5786
4997104,2439,2978,2205,2692,3191,-38,90,-933,85,-4,-347,0,-28,-13,112,-21,31,410,-20787,5786
4997123,2437,2975,2202,2688,3191,-38,90,-933,85,-4,-347,0,-28,-13,112,-21,31,410,-20745,5786
4997136,2423,2958,2198,2683,3191,-37,88,-933,83,-3,1652,4,-26,-29,68,-30,-1,410,-20678,5786
4997158,2427,2963,2200,2686,3191,-36,88,-933,83,-3,-347,0,-24,-25,46,-34,-13,410,-20617,5786
4997177,2424,2959,2207,2694,3191,-36,88,-933,83,-3,-347,0,-24,-25,46,-34,-13,410,-20572,5786
4997190,2424,2959,2197,2682,3191,-35,86,-934,82,-2,-346,-54,172,-18,-29,-28,-63,410,-20495,5451
4997211,2420,2954,2241,2736,3193,-35,88,-934,83,-1,-345,-62,223,13,-87,-16,-86,410,-20408,5451
4997232,2438,2976,2223,2714,3195,-34,91,-935,85,-1,-343,1,112,9,20351,-3,20403,410,-20317,5451
4997254,2499,3051,2236,2730,3196,-34,94,-934,87,0,-343,-7,174,23,-150,-8,5,410,-20224,5451
4997273,2463,3007,2251,2748,3196,-34,94,-934,87,0,-343,-7,174,23,-150,-8,5,410,-20160,5451
4997286,2460,3003,2245,2741,3195,-34,100,1065,92,1,-344,-16,117,3,-210,9,78,410,-20056,5451
4997309,2505,3058,2256,2754,3193,-35,101,-933,93,1,-345,-41,130,11,-130,3,71,410,-19957,7492
4997329,2513,3068,2305,2814,3192,-35,103,-933,95,1,-346,-7,144,114,-100,33,-64,410,-19839,7492
4997351,2529,3087,2305,2814,3193,-36,105,-933,97,1,-343,4,328,77,-48,48,-150,410,-19719,7492
4997371,2519,3075,2320,2832,3196,-36,106,-934,99,1,-341,-81,486,91,-91,41,-168,410,-19575,7492
4997394,2672,3262,2504,3057,3200,-36,110,-934,101,1,-339,-8,305,-1,-120,41,-33,410,-19435,7492
4997414,2557,3122,2378,2903,3199,-38,111,-934,102,1,-340,-5,344,34,-71,36,50,410,-19279,10714
4997438,2642,3225,2473,3019,3197,-39,110,-934,102,0,-342,-27,250,17,126,39,165,410,-19120,10714
4997461,2620,3199,2416,2949,3194,-40,108,-933,100,-1,-344,-26,81,-9,28,15,176,410,-18964,10714
4997482,2669,3258,2422,2957,3190,-41,106,-932,100,-2,-348,-24,125,31,23,21,112,410,-18787,10714
4997505,2682,3274,2422,2957,3190,-42,107,-931,100,-2,-348,9,119,5,-40,20,-33,410,-18620,10714
4997526,2654,3240,2433,2970,3191,-42,108,-932,101,-2,-346,-19,84,24,-16,4,-127,410,-18435,12500
4997550,2630,3211,2448,2989,3194,-42,108,-933,101,-9,-344,-3,26,39,76,9,-21,410,-18278,12500
4997571,2622,3201,2440,2979,3194,-42,106,-933,100,-2,-345,-2,32,23,41,-6,89,410,-18111,12500
4997594,2596,3169,2374,2898,3191,-42,106,-932,100,-2,-347,-23,94,73,-1,-18,95,410,-17958,12500
4997615,2639,3222,2416,2949,3190,-43,105,-932,99,-3,1651,-42,-5,41,103,46,71,410,-17796,12500
4997638,2596,3169,2402,2932,3188,-44,103,-931,98,-5,-349,-16,-9,-1,113,-41,152,410,-17634,11889
4997661,2570,3137,2356,2876,3185,-43,101,-930,96,-5,-352,51,-83,-84,35,-39,206,410,-17486,11889
4997683,2557,3122,2359,2880,3180,-43,100,-929,95,-4,-357,-15,-54,43,-20,-50,206,410,-17327,11889
4997705,2560,3125,2310,2820,3175,-43,101,-927,96,-3,-360,-18,-125,-8,-67,-48,188,410,-17183,11889
4997750,2538,3098,2254,2752,3170,-42,105,-925,99,-1,-364,-6,-116,-56,-116,-26,30,410,-16883,11160
4997771,2530,3089,2277,2780,3170,-42,107,-925,100,0,-364,-13,-81,-21,-34,-8,-36,410,-16754,11160
4997793,2515,3070,2291,2797,3170,-42,109,-925,103,0,-363,-9,-82,-34,47,8,-59,410,-16637,11160
4997813,2493,3043,2269,2770,3171,-42,110,-926,102,0,-362,0,-86,-43,68,5,-107,410,-16523,11160
4997835,2486,3035,2242,2737,3172,-42,110,-926,102,0,-362,2,-73,-35,61,-10,3,410,-16415,11160
4997856,2480,3028,2245,2741,3171,-42,111,-926,104,0,-362,-12,-69,-8,65,-12,18,410,-16320,8836
4997875,2480,3028,2237,2731,3171,-42,111,-926,104,0,-362,-12,-69,-8,65,-12,18,410,-16256,8836
4997889,2468,3013,2239,2733,3171,20437,113,1074,105,1,-362,-16,-56,-10,88,-17,-16,410,-16155,8836
4997911,2463,3007,2235,2728,3172,-41,113,-926,105,1,-362,-3,-38,-19,100,-10,-41,410,-16068,8836
4997931,2455,2997,2224,2715,3173,-41,111,-926,103,0,-361,-5,-15,0,110,-6,-48,410,-15980,8836
4997952,2454,2996,2233,2726,3174,-41,108,-927,101,0,-360,-7,12,15,104,-4,-39,410,-15901,8836
4997971,2453,2995,2239,2733,3174,-41,108,-927,101,0,-360,-7,12,15,104,-4,-39,410,-15844,6898
4997985,2476,3023,2233,2726,3176,-41,105,-927,98,0,-359,-16,56,17,91,6,-38,410,-15753,6898
4998006,2463,3007,2242,2737,3176,-41,103,-928,97,-1,-358,-18,82,14,67,8,-51,410,-15667,6898
4998025,2462,3006,2256,2754,3176,-41,103,-928,97,-1,-358,-18,82,14,67,8,-51,410,-15607,6898
4998039,2468,3013,2251,2748,3178,-121,103,-928,97,-1,-357,-18,103,4,-8,20,-60,410,-15504,6898
4998061,2463,3007,2267,2768,3180,-41,103,-929,97,-1,-356,-20,125,21,-36,26,-38,410,-15407,6898
4998081,2463,3007,2260,2759,3180,-41,104,-929,98,-2,-355,-12,136,6,-53,36,-25,410,-15299,8227
4998103,2465,3009,2264,2764,3181,-42,105,-929,99,-2,-355,-4,124,-14,-77,42,-11,410,-15199,8227
4998123,2469,3014,2271,2772,3181,-43,105,-929,98,-4,-355,-2,104,-12,-96,46,3,410,-15092,8227
4998144,2473,3019,2258,2757,3180,-45,102,-929,97,-5,-355,0,113,0,-101,46,25,410,-14984,8227
4998164,2478,3025,2273,2775,3180,-46,100,-929,96,-7,-356,-7,101,19,-113,48,25,410,-14876,8227
4998184,2483,3031,2284,2788,3179,-46,99,-929,95,-8,-356,-3,95,4,-116,48,16,410,-14762,8673
4998205,2511,3065,2289,2794,3178,-48,96,-929,94,-9,-357,-2,104,8,-92,48,9,410,-14653,8673
4998225,2496,3047,2287,2792,3178,-49,95,-929,92,-11,-357,-8,90,23,-65,43,-3,410,-14544,8673
4998245,2488,3037,2291,2797,3178,-50,91,-929,90,-12,-357,-1,70,10,25,32,-10,410,-14439,8673
4998265,2488,3037,2301,2809,3178,-51,90,-929,89,-13,-357,7,0,-2,61,28,17,410,-14330,8673
4998286,2485,3034,2285,2789,3178,-51,89,-929,88,-14,-358,7,-29,-6,57,18,58,410,-14220,8839
4998308,2490,3040,2273,2775,3176,-51,88,-928,88,-15,-359,15,-50,-32,63,16,72,410,-14123,8839
4998327,2495,3046,2260,2759,3176,-51,88,-928,88,-15,-359,15,-50,-32,63,16,72,410,-14058,8839
4998341,2488,3037,2272,2774,3175,-53,85,-928,86,-16,-360,12,-81,-28,100,18,5,410,-13960,8839
4998363,2484,3032,2244,2739,3175,-53,83,-928,84,-17,-360,13,-109,-22,161,15,-33,410,-13883,8839
4998382,2441,2980,2232,2725,3175,-53,83,-928,84,-17,-360,13,-109,-22,161,15,-33,410,-13832,8839
4998396,2456,2998,2252,2749,3177,-53,75,-929,77,-20,-358,-5,-142,30,297,3,-32,410,-13765,6909
4998415,2415,2948,2232,2725,3177,-53,75,-929,77,-20,-358,-5,-142,30,297,3,-32,410,-13720,6909
4998429,2416,2949,2231,2724,3178,-53,66,-930,70,-22,-358,21,-215,-39,300,-6,34,410,-13639,6909
4998451,2425,2960,2207,2694,3176,-53,62,-930,67,-23,-360,27,-255,-35,86,-19,107,410,-13568,6909
4998470,2444,2984,2206,2693,3176,-53,62,-930,67,-23,-360,27,-255,-35,86,-19,107,410,-13524,6909
4998484,2431,2968,2200,2686,3173,-53,65,-929,71,-22,-362,2,-167,6,-76,11,-40,410,-13467,6909
4998504,2395,2924,2217,2706,3175,-53,66,-929,71,-22,-361,12,-140,-15,77,18,-162,410,-13419,5324
4998524,2426,2962,2218,2708,3178,-53,65,-931,69,-23,-357,12,-128,-13,86,1,-114,410,-13368,5324
4998544,2424,2959,2211,2699,3180,-52,64,-930,69,-22,-357,8,-97,-11,-73,-46,45,410,-13322,5324
4998564,2428,2964,2206,2693,3178,-51,65,-930,70,-21,-358,2,-89,-14,-78,-50,105,410,-13287,5324
4998583,2428,2964,2215,2704,3178,-51,65,-930,70,-21,-358,2,-89,-14,-78,-50,105,410,-13265,5324
4998596,2424,2959,2212,2700,3176,-50,65,-929,69,-21,-360,8,-124,-54,84,-13,-1,410,-13233,5324
4998615,2428,2964,2204,2691,3176,-50,65,-929,69,-21,-360,8,-124,-54,84,-13,-1,410,-13210,3138
4998628,2447,2987,2210,2698,3176,-50,65,-930,68,-21,-359,-4,-100,-30,-42,5,-28,410,-13177,3138
4998650,2423,2958,2211,2699,3177,-50,66,-930,70,-20,-359,-9,-33,-10,-65,5,-31,410,-13153,3138
4998668,2414,2947,2200,2686,3177,-50,66,-930,70,-20,-359,-9,-33,-10,-65,5,-31,410,-13140,3138
4998681,2419,2953,2211,2699,3178,-50,66,-930,70,1979,-358,-1,-17,-13,48,-8,-5,410,-13118,3138
4998702,2412,2945,2197,2682,3178,-50,65,-930,69,-20,-358,-4,-58,-11,38,-18,26,410,-13100,3138
4998721,2404,2935,2181,2663,3178,-50,65,-930,69,-20,-358,-4,-58,-11,38,-18,26,410,-13090,1886
4998734,2415,2948,2184,2666,3176,-50,66,-930,69,-19,-360,0,-104,6,-5,-21,46,410,-13078,1886
4998754,2407,2938,2177,2658,3175,-49,66,-929,69,-19,-360,1,-119,5,18,-3,-5,410,-13069,1886
4998772,2386,2913,2172,2652,3175,-49,66,-929,69,-19,-360,1,-119,5,18,-3,-5,410,-13065,1886
4998784,2385,2912,2164,2642,3176,-50,65,-930,70,-19,-359,5,-110,-16,3,10,-24,410,-13063,1886
4998804,2388,2915,2164,2642,3176,-49,70,-930,72,-18,-359,8,-111,-22,-8,0,5,410,-13063,1886
4998823,2389,2916,2159,2636,3176,-49,70,-930,72,-18,-359,8,-111,-22,-8,0,5,410,-13063,457
4998836,2399,2929,2160,2637,3176,-49,71,-929,74,-17,-360,-1,-37,8,-53,-12,13,410,-13063,457
4998855,2397,2926,2164,2642,3176,-49,71,-929,74,-17,-360,-1,-37,8,-53,-12,13,410,-13063,457
4998867,2390,2918,2164,2642,3177,-48,73,-930,75,-16,-359,-1,41,0,-36,-16,-73,410,-13063,457
4998887,2388,2915,2176,2656,3178,-48,74,-930,75,-16,-357,3,82,-18,-15,-13,-96,410,-13063,457
4998906,2405,2936,2179,2660,3178,-48,74,-930,75,-16,-357,3,82,-18,-15,-13,-96,410,-13063,457
4998919,2411,2943,2191,2675,3181,-47,75,-931,76,-15,-356,2,71,-142,-10,-17,-40,410,-13063,457
4998939,2411,2943,2184,2666,3180,-47,75,-931,76,-15,-356,1,67,-5,-6,-20,17,410,-13063,0
4998960,2384,2910,2182,2664,3180,-46,73,-930,74,-15,-357,1,43,-7,-1,-25,53,410,-13063,0
4998978,2394,2923,2186,2669,3180,-46,73,-930,74,-15,-357,1,43,-7,-1,-25,53,410,-13063,0
4998990,2399,2929,2183,2665,3178,-46,73,-930,74,-15,-358,1,20,-7,13,-19,33,410,-13063,0
4999010,2393,2921,2194,2678,3178,-46,72,-930,73,-14,-358,0,5,-3,20,-13,-5,410,-13063,0
4999028,2391,2919,2197,2682,3178,-46,72,-930,73,-14,-358,0,5,-3,20,-13,-5,410,-13063,0
4999040,2380,2905,2193,2677,3179,-45,72,-930,73,-14,-357,-3,5,5,14,-20,-31,410,-13063,0
4999060,2391,2919,2191,2675,3179,-45,71,-930,73,-14,-357,-7,12,10,0,-20,-15,410,-13063,0
4999078,2392,2920,2187,2670,3179,-45,71,-930,73,-14,-357,-7,12,10,0,-20,-15,410,-13063,0
4999090,2384,2910,2186,2669,3179,-44,72,-930,73,-14,-357,-13,21,7,-17,-12,13,410,-13063,0
4999110,2387,2914,2199,2684,3179,-44,72,-930,73,-13,-357,-16,28,2,-13,-8,7,410,-13063,0
4999128,2390,2918,2196,2681,3179,-44,72,-930,73,-13,-357,-16,28,2,-13,-8,7,410,-13063,0
4999140,2384,2910,2193,2677,3178,-45,71,-930,72,-14,-357,-20,33,-1,-6,3,-5,410,-13063,0
4999161,2394,2923,2192,2676,3179,-45,71,-930,72,-14,-357,-14,33,-6,-1,13,-8,410,-13063,0
4999178,2394,2923,2207,2694,3179,-45,71,-930,72,-14,-357,-14,33,-6,-1,13,-8,410,-13063,0
4999190,2397,2926,2198,2683,3179,-46,71,-930,72,-15,-357,-9,31,-16,1,15,2,410,-13063,0
4999211,2408,2940,2190,2673,3178,-46,70,-930,72,-16,-357,0,27,-12,2,19,13,410,-13063,0
4999228,2403,2934,2190,2673,3178,-46,70,-930,72,-16,-357,0,27,-12,2,19,13,410,-13063,0
4999240,2404,2935,2190,2673,3178,-47,70,-930,72,-16,-358,5,19,-9,1,20,15,410,-13063,0
4999260,2407,2938,2187,2670,3178,-47,70,-930,72,-17,-358,5,18,0,1,30,10,410,-13063,0
4999277,2412,2945,2185,2667,3178,-47,70,-930,72,-17,-358,5,18,0,1,30,10,410,-13063,0
4999289,2421,2956,2207,2694,3178,-48,70,-930,72,-17,-358,3,18,7,0,25,1,410,-13063,0
4999308,2411,2943,2192,2676,3178,-48,70,-930,72,-17,-358,3,18,7,0,25,1,410,-13063,0
4999319,2415,2948,2185,2667,3178,-48,69,-930,72,-18,-358,7,20,4,0,11,3,410,-13063,0
4999338,2423,2958,2182,2664,3178,-48,69,-930,72,-18,-358,7,20,4,0,11,3,410,-13063,0
4999349,2414,2947,2183,2665,3178,-48,69,-930,72,-18,-358,3,16,8,-2,1,3,410,-13063,0
4999367,2408,2940,2189,2672,3178,-48,69,-930,72,-18,-358,3,16,8,-2,1,3,410,-13063,0
4999379,2409,2941,2191,2675,3178,-48,69,-930,71,-18,-358,8,14,-8,0,-6,-6,410,-13063,0
4999396,2406,2937,2180,2661,3178,-48,69,-930,71,-18,-358,8,14,-8,0,-6,-6,410,-13063,0
4999408,2400,2930,2190,2673,3178,-48,69,-930,71,-18,-358,8,16,-14,0,2,-11,410,-13063,0
4999426,2407,2938,2185,2667,3178,-48,69,-930,71,-18,-358,8,16,-14,0,2,-11,410,-13063,0
4999438,2415,2948,2199,2684,3178,-48,68,-930,71,-18,-357,1,22,-8,-6,11,-8,410,-13063,0
4999457,2396,2925,2195,2680,3178,-48,68,-930,71,-18,-357,1,22,-8,-6,11,-8,410,-13063,0
4999469,2402,2932,2188,2671,3178,-48,68,-930,71,-18,-357,-2,26,-2,-6,5,1,410,-13063,0
4999487,2408,2940,2189,2672,3178,-48,68,-930,71,-18,-357,-2,26,-2,-6,5,1,410,-13063,0
4999499,2402,2932,2199,2684,3178,-49,68,-930,71,-18,-357,-3,22,-2,-2,6,3,410,-13063,0
4999517,2411,2943,2179,2660,3178,-49,68,-930,71,-18,-357,-3,22,-2,-2,6,3,410,-13063,0
4999529,2401,2931,2187,2670,3178,-49,68,-930,71,-19,-357,-5,20,-2,0,6,0,410,-13063,0
4999547,2407,2938,2180,2661,3178,-49,68,-930,71,-19,-357,-5,20,-2,0,6,0,410,-13063,0
4999558,2392,2920,2184,2666,3178,-49,68,-930,70,-19,-358,-1,18,1,2,0,1,410,-13063,0
4999577,2398,2927,2181,2663,3178,-49,68,-930,70,-19,-358,-1,18,1,2,0,1,410,-13063,0
4999589,2402,2932,2183,2665,3178,-49,67,-930,70,-19,-358,-2,15,-1,1,11,5,410,-13063,0
4999607,2398,2927,2180,2661,3178,-49,67,-930,70,-19,-358,-2,15,-1,1,11,5,410,-13063,0
4999619,2400,2930,2186,2669,3178,-50,67,-930,70,-19,-358,0,12,-4,-1,11,8,410,-13063,0
4999637,2408,2940,2182,2664,3178,-50,67,-930,70,-19,-358,0,12,-4,-1,11,8,410,-13063,0
4999649,2408,2940,2178,2659,3178,-50,67,-930,70,-20,-358,0,16,0,-3,6,13,410,-13063,0
4999667,2412,2945,2181,2663,3178,-50,67,-930,70,-20,-358,0,16,0,-3,6,13,410,-13063,0
4999679,2407,2938,2179,2660,3178,-50,67,-930,70,-20,-358,0,22,0,-3,9,13,410,-13063,0
4999696,2410,2942,2191,2675,3178,-50,67,-930,70,-20,-358,0,22,0,-3,9,13,410,-13063,0
4999708,2415,2948,2183,2665,3178,-50,67,-930,70,-20,-358,6,13,-5,-2,0,3,410,-13063,0
4999727,2407,2938,2182,2664,3178,-50,67,-930,70,-20,-358,6,13,-5,-2,0,3,410,-13063,0
4999738,2404,2935,2180,2661,3178,-50,66,-930,70,-20,-358,14,17,-26,0,4,-6,410,-13063,0
4999757,2412,2945,2184,2666,3178,-50,66,-930,70,-20,-358,14,17,-26,0,4,-6,410,-13063,0
4999769,2405,2936,2187,2670,3178,-50,66,-930,70,-20,-358,4,17,14,1,6,-3,410,-13063,0
4999788,2398,2927,2182,2664,3178,-50,66,-930,70,-20,-358,4,17,14,1,6,-3,410,-13063,0
4999800,2404,2935,2187,2670,3178,-50,66,-930,70,-20,-358,15,15,-25,0,-14,3,410,-13063,0
4999818,2405,2936,2174,2654,3178,-50,66,-930,70,-20,-358,15,15,-25,0,-14,3,410,-13063,0
4999830,2405,2936,2183,2665,3178,-50,66,-930,70,-20,-358,14,9,-20,0,-8,3,410,-13063,0
4999849,2404,2935,2180,2661,3178,-50,66,-930,70,-20,-358,14,9,-20,0,-8,3,410,-13063,0
4999861,2400,2930,2183,2665,3178,-50,66,-930,70,-19,-358,2,4,60,3,-33,-10,410,-13063,0
4999878,2415,2948,2183,2665,3178,-50,66,-930,70,-19,-358,2,4,60,3,-33,-10,410,-13063,0
4999890,2406,2937,2180,2661,3178,-48,66,-930,69,-18,-358,15,13,-6,8,-67,-33,410,-13064,0
4999910,2427,2963,2186,2669,3178,-47,66,-931,69,-17,-357,10,15,15,6,-63,-30,410,-13067,0
4999928,2401,2931,2195,2680,3178,-47,66,-931,69,-17,-357,10,15,15,6,-63,-30,410,-13073,0
4999940,2383,2909,2187,2670,3179,-45,66,-931,68,-15,-357,2,-71,35,49,-78,-5,410,-13085,0
4999959,2396,2925,2189,2672,3179,-45,66,-931,68,-15,-357,2,-71,35,49,-78,-5,410,-13094,0
4999971,2398,2927,2182,2664,3177,-42,63,-930,64,-15,-359,9,-185,-16,96,-85,96,410,-13110,0
4999991,2407,2938,2184,2666,3175,-40,62,-930,63,-13,-361,17,-199,-79,-12,-93,140,410,-13133,-1017
5000013,2392,2920,2198,2683,3173,-39,63,-929,63,-12,-362,10,-204,-71,-32,-81,76,410,-13159,-1017
5000032,2405,2936,2216,2705,3173,-39,63,-929,63,-12,-362,10,-204,-71,-32,-81,76,410,-13179,-1017
5000045,2385,2912,2211,2699,3173,-37,62,-929,63,-10,-362,6,-138,-27,15,-51,-101,410,-13217,-1017
5000067,2389,2916,2215,2704,3175,-36,62,-930,62,-10,-360,7,-127,-22,4,-58,-95,410,-13255,-1017
5000086,2399,2929,2223,2714,3175,-36,62,-930,62,-10,-360,7,-127,-22,4,-58,-95,410,-13285,-1017
5000099,2397,2926,2208,2695,3177,-34,63,-930,61,-7,-359,17,-88,-24,9,-83,38,410,-13334,-3086
5000119,2400,2930,2220,2710,3176,-32,62,-930,61,-6,-361,15,-104,-2,15,-91,92,410,-13384,-3086
5000139,2404,2935,2246,2742,3174,-31,61,-929,60,-5,-362,6,-117,27,10,-84,66,410,-13438,-3086
5000159,2405,2936,2280,2783,3173,-29,61,-929,59,-4,-363,4,-109,38,6,-71,-4,410,-13490,-3086
5000178,2397,2926,2319,2831,3173,-29,61,-929,59,-4,-363,4,-109,38,6,-71,-4,410,-13527,-3086
5000191,2390,2918,2323,2836,3174,-26,61,-930,59,-2,-361,19,-57,-9,-3,-83,-68,410,-13586,-3086
5000212,2392,2920,2331,2846,3175,-24,61,-930,58,0,-361,13,-25,-3,-8,-96,-47,410,-13646,-4572
5000231,2386,2913,2326,2840,3175,-24,61,-930,58,0,-361,13,-25,-3,-8,-96,-47,410,-13688,-4572
5000244,2384,2910,2343,2860,3175,-21,61,-930,57,2,-361,2,-32,4,1,-123,10,410,-13761,-4572
5000266,2391,2919,2335,2851,3175,-18,61,-930,56,4,-361,2,-50,-13,20,-153,28,410,-13825,-4572
5000285,2387,2914,2333,2848,3175,-18,61,-930,56,4,-361,2,-50,-13,20,-153,28,410,-13872,-4572
5000298,2391,2919,2346,2864,3174,-13,61,-930,54,7,-362,-10,-73,-3,15,-158,-11,410,-13947,-4572
5000319,2391,2919,2348,2866,3175,-10,61,-930,53,10,-361,-11,-56,-5,35,-160,-51,410,-14023,-5841
5000340,2397,2926,2363,2885,3175,-7,60,-931,51,14,-360,-11,-63,8,16,-165,-53,410,-14105,-5841
5000361,2408,2940,2340,2857,3176,-4,61,-931,50,16,-360,-10,-62,-19,-5,-167,-15,410,-14183,-5841
5000381,2398,2927,2359,2880,3176,-1,61,-931,50,19,-360,-10,-52,-16,13,-153,-11,410,-14267,-5841
5000401,2381,2907,2367,2890,3176,0,61,-931,50,21,-360,-15,-43,-9,12,-148,-20,410,-14351,-5841
5000421,2379,2904,2332,2847,3176,3,63,-931,50,24,-360,-13,-46,6,8,-146,-23,410,-14436,-6732
5000441,2363,2885,2356,2876,3176,5,63,-931,49,26,-359,-13,-30,4,13,-124,-10,410,-14524,-6732
5000461,2399,2929,2313,2824,3176,8,63,-931,49,27,-360,-13,-26,-14,4,-110,5,410,-14611,-6732
5000481,2379,2904,2327,2841,3176,10,64,-931,49,29,-360,-5,-27,-42,-13,-103,5,410,-14706,-6732
5000502,2377,2902,2320,2832,3176,12,65,-931,48,31,-360,-15,-14,-23,0,-85,-7,410,-14797,-6732
5000522,2357,2877,2303,2811,3176,13,64,-931,48,32,-360,-8,-11,-22,10,-71,-10,410,-14891,-7475
5000542,2356,2876,2319,2831,3176,15,64,-931,47,33,-360,-10,-7,-31,3,-72,1,410,-14984,-7475
5000562,2362,2884,2333,2848,3176,16,65,-931,47,34,-360,-19,-6,-20,1,-83,5,410,-15077,-7475
5000581,2352,2871,2311,2821,3176,16,65,-931,47,34,-360,-19,-6,-20,1,-83,5,410,-15141,-7475
5000595,2347,2865,2266,2766,3176,18,64,-930,46,35,-360,-17,-4,-11,12,-72,5,410,-15246,-7475
5000617,2362,2884,2241,2736,3176,20,64,-930,46,36,-360,-19,-7,5,15,-64,5,410,-15342,-7475
5000636,2380,2905,2256,2754,3176,20,64,-930,46,36,-360,-19,-7,5,15,-64,5,410,-15409,-7558
5000650,2376,2901,2246,2742,3175,21,64,-930,45,38,-360,-25,-21,14,6,-61,9,410,-15514,-7558
5000671,2364,2886,2221,2711,3175,22,64,-930,45,39,-361,-16,-9,-1,11,-52,10,410,-15615,-7558
5000691,2375,2899,2251,2748,3175,23,64,-930,44,39,-361,-18,-11,-2,1,-49,7,410,-15721,-7558
5000711,2381,2907,2271,2772,3175,24,64,-930,44,40,-361,-21,-11,0,-1,-50,-1,410,-15820,-7558
5000731,2363,2885,2242,2737,3175,25,64,-930,44,41,-361,-13,-6,-2,0,-53,-11,410,-15928,-7558
5000751,2374,2898,2247,2743,3175,26,64,-930,44,42,-361,-15,16,-5,0,-48,-8,410,-16039,-9101
5000772,2376,2901,2250,2747,3175,26,64,-930,43,42,-361,-8,15,-12,6,-40,8,410,-16146,-9101
5000792,2369,2892,2240,2735,3175,27,64,-930,43,43,-361,-8,4,-20,8,-45,22,410,-16258,-9101
5000812,2381,2907,2233,2726,3174,28,64,-930,43,44,-361,-12,-15,-20,-1,-38,23,410,-16365,-9101
5000833,2369,2892,2241,2736,3174,28,64,-929,43,44,-362,-5,-10,-14,1,-26,15,410,-16479,-9101
5000853,2376,2901,2242,2737,3173,29,64,-929,43,44,-362,0,1,-15,-5,-9,4,410,-16592,-9003
5000873,2377,2902,2243,2738,3173,29,64,-929,43,44,-362,-3,0,-11,3,0,-81,410,-16705,-9003
5000893,2384,2910,2255,2753,3173,29,64,-929,43,44,-362,0,3,-16,3,1,0,410,-16816,-9003
5000913,2383,2909,2243,2738,3173,29,64,-929,43,44,-362,-8,0,9,-16,5,8,410,-16924,-9003
5000932,2399,2929,2238,2732,3173,29,64,-929,43,44,-362,-8,0,9,-16,5,8,410,-16999,-9003
5000946,2384,2910,2235,2728,3173,28,65,-929,43,44,-362,-13,-7,5,0,13,15,410,-17126,-9003
5000968,2379,2904,2222,2713,3173,28,65,-929,43,44,-363,-3,-26,-6,5,8,21,410,-17243,-9420
5000988,2362,2884,2271,2772,3172,28,65,-929,44,44,-371,1,-25,-18,0,17,36,410,-17376,-9420
5001010,2364,2886,2261,2760,3171,28,65,-929,44,43,-364,5,-24,-23,0,30,40,410,-17499,-9420
5001030,2360,2881,2284,2788,3170,27,65,-929,44,43,-364,29,-138,-92,-11,1,33,410,-17640,-9420
5001053,2351,2870,2270,2771,3170,26,65,-928,42,42,-365,0,-12,-29,153,13,-2,410,-17780,-9420
5001073,2395,2924,2233,2726,3171,26,60,-929,40,41,-364,-7,-116,-6,138,15,-68,410,-17926,-10793
5001096,2383,2909,2227,2719,3173,26,59,-930,39,40,-362,-9,-113,-16,26,24,-117,410,-18078,-10793
5001119,2396,2925,2264,2764,3176,26,59,-931,39,40,-360,-15,-46,-4,5,38,-225,410,-18219,-10793
5001141,2414,2947,2319,2831,3181,25,59,-932,40,39,-356,-47,-232,30,30,58,-193,410,-18378,-10793
5001164,2384,2910,2195,2680,3183,25,57,-933,39,38,-354,-7,13,17,18,23,15,410,-18532,-10793
5001184,2383,2909,2216,2705,3180,24,58,-932,40,38,-357,-9,-22,52,-61,25,203,410,-18703,-11606
5001207,2364,2886,2263,2763,3176,23,59,-931,41,38,-359,11,-91,-1,-17,-7,167,410,-18867,-11606
5001228,2377,2902,2251,2748,3175,23,58,-930,40,38,-360,-2,-137,33,43,-39,-58,410,-19051,-11606
5001252,2383,2909,2234,2727,3177,25,58,-931,39,39,-358,11,-112,-43,-21,-43,-131,410,-19226,-11606
5001275,2390,2918,2265,2765,3180,26,58,-932,39,40,-356,11,-69,-64,-23,-55,-101,410,-19414,-11606
5001298,2382,2908,2264,2764,3181,27,59,-932,39,41,-356,4,-6,-28,-33,-56,15,410,-19616,-13289
5001322,2368,2891,2273,2775,3181,28,60,-932,39,42,-356,10,56,-72,-35,-55,10,410,-19789,-13289
5001343,2384,2910,2272,2774,3181,30,60,-932,40,44,-355,-23,170,46,-31,-61,-68,410,-19965,-13289
5001366,2388,2915,2303,2811,3184,31,61,-933,40,45,-353,-24,200,65,-81,-65,-151,410,-20114,-13289
5001387,2388,2915,2320,2832,3187,33,63,-934,41,47,-351,5,305,45,-98,-43,-173,410,-20273,-13289
5001410,2375,2899,2316,2827,3190,34,65,-935,42,48,-348,7,306,64,-85,-8,-138,410,-20411,-11830
5001431,2359,2880,2306,2815,3193,33,65,-935,43,48,-346,-1,271,79,-8,58,-96,410,-20552,-11830
5001453,2349,2868,2291,2797,3194,32,65,-936,44,46,-345,-3,258,73,5,82,-41,410,-20679,-11830
5001474,2351,2870,2312,2822,3195,31,65,-936,45,45,-345,4,224,58,-27,90,32,410,-20799,-11830
5001496,2383,2909,2328,2842,3193,28,66,-936,46,43,-346,18,205,30,-36,88,66,410,-20912,-11830
5001517,2368,2891,2340,2857,3193,26,67,-935,46,42,-346,9,183,19,-18,58,45,410,-21015,-9408
5001536,2391,2919,2312,2822,3193,26,67,-935,46,42,-346,9,183,19,-18,58,45,410,-21081,-9408
5001550,2366,2888,2273,2775,3192,26,67,-935,47,42,-346,28,173,-8,0,-19,-20,410,-21184,-9408
5001572,2359,2880,2286,2791,3193,26,67,-935,47,43,-346,31,181,-17,-21,-58,-15,410,-21270,-9408
5001592,2376,2901,2303,2811,3193,28,68,1064,47,44,-346,13,158,-17,-40,-100,-12,410,-21360,-9408
5001613,2373,2897,2289,2794,3193,31,63,-936,42,44,-346,0,130,-2,-53,-121,-28,410,-21436,-9408
5001633,2351,2870,2299,2807,3194,33,64,-936,42,47,-345,-1,129,-6,-65,-156,-46,410,-21513,-7155
5001654,2342,2859,2283,2787,3195,36,65,-936,42,52,-344,-12,125,39,-93,-175,-55,410,-21581,-7155
5001675,2356,2876,2280,2783,3196,40,67,-936,43,55,-343,-4,115,43,-128,-201,-46,410,-21644,-7155
5001695,2333,2848,2251,2748,3196,44,70,-936,44,60,-343,-5,112,49,-153,-216,-26,410,-21705,-7155
5001715,2350,2869,2263,2763,3196,48,73,-936,44,63,-343,-18,120,49,-162,-218,-8,410,-21762,-7155
5001735,2372,2896,2291,2797,3196,52,72,-936,42,66,-342,-4,88,33,-130,-183,-14,410,-21822,-5049
5001755,2318,2830,2259,2758,3197,55,71,-936,41,68,-342,-17,68,39,-88,-162,-34,410,-21880,-5049
5001775,2403,2934,2326,2840,3198,58,72,-936,41,71,-341,-5,71,11,-43,-140,-38,410,-21939,-5049
5001795,2360,2881,2300,2808,3198,61,73,-936,41,73,-341,-17,69,18,-9,-95,-35,410,-21998,-5049
5001815,2350,2869,2297,2804,3199,63,73,-936,40,74,-341,-15,69,-3,11,-71,-22,410,-22053,-5049
5001834,2360,2881,2282,2786,3199,63,73,-936,40,74,-341,-15,69,-3,11,-71,-22,410,-22089,-5049
5001847,2368,2891,2298,2805,3199,65,73,-936,40,75,-341,-13,56,-20,5,-40,4,410,-22146,-4806
5001869,2361,2882,2275,2777,3199,65,72,-936,39,75,-341,-15,50,-27,-7,-26,10,410,-22193,-4806
5001888,2348,2866,2271,2772,3199,65,72,-936,39,75,-341,-15,50,-27,-7,-26,10,410,-22226,-4806
5001901,2368,2891,2285,2789,3199,65,71,-936,39,75,-341,-21,46,-30,-18,-9,0,410,-22280,-4806
5001922,2349,2868,2272,2774,3199,65,71,-936,38,75,-341,-21,57,-25,-18,-3,-7,410,-22326,-4806
5001941,2339,2855,2274,2776,3199,65,71,-936,38,75,-341,-21,57,-25,-18,-3,-7,410,-22357,-4806
5001954,2383,2909,2287,2792,3199,65,70,-936,37,74,-341,-18,47,-24,-1,-5,-1,410,-22405,-4018
5001975,2351,2870,2264,2764,3199,65,68,-936,36,73,-341,-22,37,3,3,-18,7,410,-22449,-4018
5001994,2323,2836,2244,2739,3199,65,68,-936,36,73,-341,-22,37,3,3,-18,7,410,-22477,-4018
5002007,2315,2826,2246,2742,3199,65,68,-936,36,74,-341,-22,35,10,-1,-43,0,410,-22517,-4018
5002026,2304,2813,2231,2724,3199,65,68,-936,36,74,-341,-22,35,10,-1,-43,0,410,-22543,-4018
5002039,2319,2831,2239,2733,3199,66,68,-936,35,75,-340,-30,40,29,-6,-54,-20,410,-22583,-4018
5002059,2323,2836,2220,2710,3200,67,67,-936,34,75,-340,-25,40,32,-9,-56,-25,410,-22620,-3412
5002077,2310,2820,2221,2711,3200,67,67,-936,34,75,-340,-25,40,32,-9,-56,-25,410,-22645,-3412
5002090,2329,2843,2236,2730,3200,68,66,-936,33,76,-340,-20,27,21,-4,-51,-13,410,-22685,-3412
5002112,2335,2851,2233,2726,3200,68,66,-936,33,76,-340,-19,21,20,1,-37,-5,410,-22719,-3412
5002130,2323,2836,2220,2710,3200,68,66,-936,33,76,-340,-19,21,20,1,-37,-5,410,-22742,-3412
5002143,2320,2832,2237,2731,3200,69,65,-936,33,76,-340,-17,23,0,-1,-6,-15,410,-22777,-3412
5002163,2322,2835,2236,2730,3201,69,65,-936,32,76,-339,-16,28,-1,-7,0,-18,410,-22807,-2996
5002182,2310,2820,2231,2724,3201,69,65,-936,32,76,-339,-16,28,-1,-7,0,-18,410,-22827,-2996
5002195,2331,2846,2234,2727,3201,68,65,-937,33,76,-339,-7,45,-38,-22,30,-11,410,-22857,-2996
5002215,2330,2844,2239,2733,3201,68,65,-937,33,75,-339,-3,46,-33,-16,43,10,410,-22885,-2996
5002233,2331,2846,2232,2725,3201,68,65,-937,33,75,-339,-3,46,-33,-16,43,10,410,-22904,-2996
5002246,2331,2846,2239,2733,3201,66,65,-936,34,73,-339,-2,32,-34,-3,56,36,410,-22932,-2996
5002265,2320,2832,2225,2716,3201,66,65,-936,34,73,-339,-2,32,-34,-3,56,36,410,-22949,-2320
5002278,2333,2848,2235,2728,3200,63,65,-936,34,72,-340,0,27,-35,-1,78,25,410,-22972,-2320
5002296,2330,2844,2230,2722,3200,63,65,-936,34,72,-340,0,27,-35,-1,78,25,410,-22988,-2320
5002309,2333,2848,2242,2737,3200,61,65,-936,34,70,-340,1,30,-25,-5,88,0,410,-23009,-2320
5002327,2323,2836,2238,2732,3200,61,65,-936,34,70,-340,1,30,-25,-5,88,0,410,-23023,-2320
5002339,2330,2844,2230,2722,3200,58,64,-937,35,67,-340,-3,32,-7,-9,98,2,410,-23045,-2320
5002359,2346,2864,2231,2724,3200,56,64,-937,35,66,-340,0,32,0,-9,105,22,410,-23063,-2320
5002377,2328,2842,2224,2715,3200,56,64,-937,35,66,-340,0,32,0,-9,105,22,410,-23075,-1889
5002389,2333,2848,2223,2714,3199,53,64,-937,36,63,-341,-11,15,26,-16,111,38,410,-23094,-1889
5002410,2327,2841,2220,2710,3198,51,64,-936,37,61,-341,-5,16,21,-18,111,33,410,-23110,-1889
5002428,2323,2836,2225,2716,3198,51,64,-936,37,61,-341,-5,16,21,-18,111,33,410,-23121,-1889
5002440,2334,2849,2238,2732,3198,47,65,-936,39,58,-342,-1,10,21,-12,119,6,410,-23138,-1889
5002461,2330,2844,2226,2717,3198,45,65,-937,39,57,-342,3,11,25,-5,116,5,410,-23153,-1889
5002479,2320,2832,2230,2722,3198,45,65,-937,39,57,-342,3,11,25,-5,116,5,410,-23163,-1421
5002491,2325,2838,2234,2727,3198,42,65,-937,40,54,-342,10,15,12,0,105,25,410,-23179,-1421
5002512,2339,2855,2239,2733,3197,40,65,-937,41,52,-342,14,0,3,-2,92,37,410,-23191,-1421
5002529,2334,2849,2227,2719,3197,40,65,-937,41,52,-342,14,0,3,-2,92,37,410,-23200,-1421
5002542,2339,2855,2212,2700,3196,38,65,-936,41,51,-343,12,-6,-1,-10,79,25,410,-23212,-1421
5002562,2337,2853,2231,2724,3196,36,65,-936,42,49,-343,12,-5,-13,-15,71,1,410,-23223,-1421
5002580,2343,2860,2224,2715,3196,36,65,-936,42,49,-343,12,-5,-13,-15,71,1,410,-23230,-1089
5002593,2332,2847,2214,2703,3197,35,66,-937,43,48,-343,11,0,-22,-21,51,-13,410,-23241,-1089
5002613,2339,2855,2214,2703,3197,34,66,-937,44,48,-342,8,7,-21,-23,48,-9,410,-23251,-1089
5002631,2336,2852,2217,2706,3197,34,66,-937,44,48,-342,8,7,-21,-23,48,-9,410,-23258,-1089
5002644,2335,2851,2210,2698,3197,33,67,-937,45,47,-343,3,-1,-18,-26,48,23,410,-23269,-1089
5002664,2332,2847,2212,2700,3196,31,67,-936,45,46,-343,4,0,-19,-25,48,21,410,-23279,-1089
5002683,2336,2852,2211,2699,3196,31,67,-936,45,46,-343,4,0,-19,-25,48,21,410,-23287,-906
5002695,2337,2853,2221,2711,3196,30,68,-936,46,45,-343,0,-16,-10,-5,62,0,410,-23299,-906
5002715,2339,2855,2224,2715,3196,29,68,-936,47,44,-343,1,-12,-6,0,65,-3,410,-23309,-906
5002733,2341,2858,2212,2700,3196,29,68,-936,47,44,-343,1,-12,-6,0,65,-3,410,-23316,-906
5002745,2339,2855,2218,2708,3196,26,68,-936,48,43,-343,0,-10,3,0,78,9,410,-23328,-906
5002765,2339,2855,2224,2715,3196,25,68,-936,48,41,-343,1,-13,1,-4,83,15,410,-23338,-906
5002783,2346,2864,2215,2704,3196,25,68,-936,48,41,-343,1,-13,1,-4,83,15,410,-23346,-983
5002795,2350,2869,2216,2705,3196,22,68,-936,49,39,-343,0,-21,4,-6,99,20,410,-23357,-983
5002815,2355,2875,2218,2708,3196,20,68,-936,50,38,-344,0,-23,5,-5,102,18,410,-23368,-983
5002833,2349,2868,2228,2720,3196,20,68,-936,50,38,-344,0,-23,5,-5,102,18,410,-23375,-983
5002846,2348,2866,2218,2708,3196,17,69,-936,51,35,-344,3,-20,-13,-1,104,2,410,-23387,-983
5002866,2347,2865,2216,2705,3196,15,69,-936,52,34,-344,0,-17,-10,-3,106,0,410,-23398,-983
5002884,2351,2870,2211,2699,3196,15,69,-936,52,34,-344,0,-17,-10,-3,106,0,410,-23405,-990
5002896,2352,2871,2211,2699,3196,12,70,-936,53,31,-344,4,-12,-10,-14,98,10,410,-23416,-990
5002916,2354,2874,2203,2689,3196,10,70,-936,54,30,-344,5,-12,-2,-23,86,18,410,-23426,-990
5002934,2363,2885,2199,2684,3196,10,70,-936,54,30,-344,5,-12,-2,-23,86,18,410,-23433,-990
5002947,2362,2884,2206,2693,3195,8,71,-936,55,28,-344,6,-2,-7,-31,72,17,410,-23445,-990
5002966,2359,2880,2215,2704,3195,8,71,-936,55,28,-344,6,-2,-7,-31,72,17,410,-23452,-990
5002978,2356,2876,2199,2684,3195,6,71,-936,57,27,-344,9,-1,-1,6,57,10,410,-23464,-990
5002996,2362,2884,2207,2694,3195,6,71,-936,57,27,-344,9,-1,-1,6,57,10,410,-23471,-967
5003008,2362,2884,2199,2684,3195,5,71,-936,57,25,-345,16,-6,-8,11,37,17,410,-23481,-967
5003027,2358,2879,2199,2684,3195,5,71,-936,57,25,-345,16,-6,-8,11,37,17,410,-23488,-967
5003040,2359,2880,2194,2678,3195,4,71,-936,57,25,-345,16,-3,-6,-8,33,16,410,-23496,-967
5003058,2362,2884,2204,2691,3195,4,71,-936,57,25,-345,16,-3,-6,-8,33,16,410,-23502,-967
5003070,2367,2890,2207,2694,3194,3,71,-936,58,24,-345,11,7,-1,-10,25,-6,410,-23511,-967
5003088,2360,2881,2203,2689,3194,3,71,-936,58,24,-345,11,7,-1,-10,25,-6,410,-23516,-967
5003100,2381,2907,2206,2693,3195,2,71,-936,58,24,-344,14,13,-8,-1,25,-18,410,-23525,-849
5003119,2352,2871,2208,2695,3195,2,71,-936,58,24,-344,14,13,-8,-1,25,-18,410,-23530,-849
5003131,2362,2884,2204,2691,3195,1,71,-936,58,23,-344,17,8,-1,-1,26,7,410,-23537,-849
5003150,2360,2881,2198,2683,3195,1,71,-936,58,23,-344,17,8,-1,-1,26,7,410,-23542,-849
5003162,2373,2897,2196,2681,3195,1,71,-936,58,23,-345,16,-4,-2,-8,26,27,410,-23548,-849
5003180,2368,2891,2196,2681,3195,1,71,-936,58,23,-345,16,-4,-2,-8,26,27,410,-23552,-849
5003192,2370,2893,2199,2684,3194,0,71,-936,59,22,-345,11,-8,9,-3,31,-2,410,-23558,-849
5003211,2372,2896,2193,2677,3194,0,71,-936,59,22,-345,11,-8,9,-3,31,-2,410,-23562,-570
5003223,2367,2890,2192,2676,3195,0,72,-936,59,21,-344,7,2,18,-8,37,-25,410,-23566,-570
5003241,2367,2890,2203,2689,3195,0,72,-936,59,21,-344,7,2,18,-8,37,-25,410,-23570,-570
