Timestamp_ms,ADC1_Raw,ADC1_V_milli,ADC2_Raw,ADC2_V_milli,Heading_deci,Roll_deci,Pitch_deci,Quat_W_milli,Quat_X_milli,Quat_Y_milli,Quat_Z_milli,LinAccel_X_centi,LinAccel_Y_centi,LinAccel_Z_centi,AngVel_X_deci,AngVel_Y_deci,AngVel_Z_deci,Temp_C_deci,Encoder_Count,Encoder_RPM_deci
5035789,2388,2915,2180,2661,3204,-26,86,-938,79,3,-336,-20,-3,1,1,8,-6,410,-37987,0
5035801,2396,2925,2187,2670,3205,-26,86,-938,79,3,-336,-19,2,-12,-2,11,-10,410,-37987,0
5035820,2396,2925,2183,2665,3205,-26,86,-938,79,3,-336,-19,2,-12,-2,11,-10,410,-37987,0
5035832,2399,2929,2180,2661,3205,-27,86,-938,79,2,-336,-20,3,1,-5,16,0,410,-37987,0
5035850,2384,2910,2178,2659,3205,-27,86,-938,79,2,-336,-20,3,1,-5,16,0,410,-37987,0
5035861,2396,2925,2183,2665,3205,-28,86,-938,79,2,-336,-19,5,-2,-2,8,1,410,-37987,0
5035879,2390,2918,2183,2665,3205,-28,86,-938,79,2,-336,-19,5,-2,-2,8,1,410,-37987,0
5035891,2391,2919,2182,2664,3205,-28,86,-938,79,1,-336,-19,5,-11,0,15,-1,410,-37987,0
5035910,2394,2923,2180,2661,3205,-28,86,-938,79,1,-336,-19,5,-11,0,15,-1,410,-37987,0
5035921,2398,2927,2183,2665,3205,-29,86,-938,79,0,-336,-18,2,-7,-1,21,5,410,-37987,0
5035939,2392,2920,2182,2664,3205,-29,86,-938,79,0,-336,-18,2,-7,-1,21,5,410,-37987,0
5035951,2393,2921,2188,2671,3205,-30,86,-938,80,0,-336,-17,1,-8,-1,20,10,410,-37987,0
5035970,2391,2919,2184,2666,3205,-30,86,-938,80,0,-336,-17,1,-8,-1,20,10,410,-37987,0
5035981,2384,2910,2180,2661,3204,-31,86,-938,80,0,-336,-14,-3,-12,-5,21,10,410,-37987,0
5035999,2398,2927,2180,2661,3204,-31,86,-938,80,0,-336,-14,-3,-12,-5,21,10,410,-37987,0
5036011,2395,2924,2191,2675,3204,-31,86,-937,80,-1,-337,-13,-3,-3,-6,26,10,410,-37987,0
5036030,2391,2919,2184,2666,3204,-31,86,-937,80,-1,-337,-13,-3,-3,-6,26,10,410,-37987,0
5036042,2391,2919,2181,2663,3204,-33,86,-937,81,-1,-337,-11,0,-10,-8,30,8,410,-37987,0
5036060,2397,2926,2176,2656,3204,-33,86,-937,81,-1,-337,-11,0,-10,-8,30,8,410,-37987,0
5036072,2389,2916,2180,2661,3203,-33,86,-937,81,-2,-337,-9,-2,-3,-12,30,9,410,-37987,0
5036090,2387,2914,2189,2672,3203,-33,86,-937,81,-2,-337,-9,-2,-3,-12,30,9,410,-37987,0
5036102,2388,2915,2178,2659,3203,-35,87,-937,82,-3,-337,-8,1,3,-13,30,13,410,-37987,0
5036120,2391,2919,2178,2659,3203,-35,87,-937,82,-3,-337,-8,1,3,-13,30,13,410,-37987,0
5036132,2391,2919,2175,2655,3203,-35,87,-937,82,-3,-337,-7,7,3,-9,25,6,410,-37987,0
5036150,2392,2920,2176,2656,3203,-35,87,-937,82,-3,-337,-7,7,3,-9,25,6,410,-37987,0
5036162,2395,2924,2183,2665,3203,-116,87,-937,83,-4,-337,-4,12,-6,-1,23,0,410,-37987,0
5036180,2392,2920,2180,2661,3203,-116,87,-937,83,-4,-337,-4,12,-6,-1,23,0,410,-37987,0
5036192,2393,2921,2174,2654,3203,-37,87,-937,83,-5,-337,-2,8,-10,2,28,8,410,-37987,0
5036210,2384,2910,2176,2656,3203,-37,87,-937,83,-5,-337,-2,8,-10,2,28,8,410,-37987,0
5036222,2399,2929,2179,2660,3203,-38,87,-937,83,-5,-338,-1,2,-7,3,19,13,410,-37987,0
5036240,2399,2929,2176,2656,3203,-38,87,-937,83,-5,-338,-1,2,-7,3,19,13,410,-37987,0
5036252,2388,2915,2172,2652,3203,-38,87,-937,83,-6,-338,-3,1,-6,2,16,7,410,-37987,0
5036270,2400,2930,2176,2656,3203,-38,87,-937,83,-6,-338,-3,1,-6,2,16,7,410,-37987,0
5036282,2390,2918,2176,2656,3202,-39,87,-937,83,-6,-338,-2,-6,-5,1,13,0,410,-37987,0
5036299,2392,2920,2175,2655,3202,-39,87,-937,83,-6,-338,-2,-6,-5,1,13,0,410,-37987,0
5036311,2384,2910,2172,2652,3203,-39,87,-937,83,-6,-338,-2,0,-4,-5,3,2,410,-37987,0
5036330,2385,2912,2175,2655,3203,-39,87,-937,83,-6,-338,-2,0,-4,-5,3,2,410,-37987,0
5036341,2386,2913,2175,2655,3203,-39,88,-937,84,-6,-338,-3,5,-6,-7,0,6,410,-37987,0
5036360,2388,2915,2172,2652,3203,-39,88,-937,84,-6,-338,-3,5,-6,-7,0,6,410,-37987,0
5036372,2390,2918,2173,2653,3202,-39,88,-937,84,-6,-338,-8,5,5,-3,3,4,410,-37987,0
5036390,2402,2932,2162,2639,3202,-39,88,-937,84,-6,-338,-8,5,5,-3,3,4,410,-37987,0
5036402,2388,2915,2174,2654,3202,-39,88,-937,84,-6,-338,-6,4,4,1,0,0,410,-37987,0
5036420,2380,2905,2170,2649,3202,-39,88,-937,84,-6,-338,-6,4,4,1,0,0,410,-37987,0
5036431,2391,2919,2173,2653,3202,-39,88,-937,84,-6,-338,-4,2,-3,3,0,3,410,-37987,0
5036450,2403,2934,2168,2647,3202,-39,88,-937,84,-6,-338,-4,2,-3,3,0,3,410,-37987,0
5036462,2392,2920,2172,2652,3202,-39,88,-937,84,-6,-338,-5,0,-3,1,5,7,410,-37987,0
5036480,2393,2921,2175,2655,3202,-39,88,-937,84,-6,-338,-5,0,-3,1,5,7,410,-37987,0
5036492,2388,2915,2187,2670,3202,-39,88,-937,84,-6,-338,-5,0,-6,0,2,3,410,-37987,0
5036510,2391,2919,2175,2655,3202,-39,88,-937,84,-6,-338,-5,0,-6,0,2,3,410,-37987,0
5036522,2394,2923,2173,2653,3202,-39,88,-937,84,-6,-338,-4,0,-7,1,3,0,410,-37987,0
5036540,2385,2912,2170,2649,3202,-39,88,-937,84,-6,-338,-4,0,-7,1,3,0,410,-37987,0
5036552,2391,2919,2175,2655,3202,-39,88,-937,84,-6,-338,-3,0,-11,0,4,1,410,-37987,0
5036570,2389,2916,2173,2653,3202,-39,88,-937,84,-6,-338,-3,0,-11,0,4,1,410,-37987,0
5036582,2399,2929,2170,2649,3202,-39,88,-937,84,-6,-338,-5,-1,-8,-5,-1,1,410,-37987,0
5036601,2388,2915,2172,2652,3202,-39,88,-937,84,-6,-338,-5,-1,-8,-5,-1,1,410,-37987,0
5036613,2390,2918,2168,2647,3202,-40,88,-937,84,-6,-338,-5,1,-5,-4,0,-3,410,-37987,0
5036631,2392,2920,2171,2650,3202,-40,88,-937,84,-6,-338,-5,1,-5,-4,0,-3,410,-37987,0
5036643,2385,2912,2174,2654,3202,-40,88,-937,84,-6,-338,-9,4,-2,-3,5,-9,410,-37987,0
5036661,2383,2909,2175,2655,3202,-40,88,-937,84,-6,-338,-9,4,-2,-3,5,-9,410,-37987,0
5036673,2400,2930,2164,2642,3202,-40,88,-937,84,-6,-338,-8,6,0,-2,0,0,410,-37987,0
5036691,2388,2915,2174,2654,3202,-40,88,-937,84,-6,-338,-8,6,0,-2,0,0,410,-37987,0
5036703,2390,2918,2175,2655,3202,-40,88,-937,84,-6,-338,-7,4,-3,-1,0,5,410,-37987,0
5036721,2382,2908,2171,2650,3202,-40,88,-937,84,-6,-338,-7,4,-3,-1,0,5,410,-37987,0
5036733,2391,2919,2181,2663,3202,-40,88,-937,84,-6,-338,-11,4,-4,0,3,1,410,-37987,0
5036751,2387,2914,2175,2655,3202,-40,88,-937,84,-6,-338,-11,4,-4,0,3,1,410,-37987,0
5036763,2380,2905,2170,2649,3202,-40,88,-937,84,-6,-338,-9,1,2,1,1,-1,410,-37987,0
5036781,2387,2914,2168,2647,3202,-40,88,-937,84,-6,-338,-9,1,2,1,1,-1,410,-37987,0
5036793,2383,2909,2171,2650,3202,-40,88,-937,84,-7,-338,-9,5,-11,0,6,5,410,-37987,0
5036811,2390,2918,2164,2642,3202,-40,88,-937,84,-7,-338,-9,5,-11,0,6,5,410,-37987,0
5036823,2389,2916,2167,2645,3202,-40,88,-937,84,-7,-338,-8,0,-3,0,8,6,410,-37987,0
5036841,2377,2902,2167,2645,3202,-40,88,-937,84,-7,-338,-8,0,-3,0,8,6,410,-37987,0
5036853,2388,2915,2176,2656,3202,-40,88,-937,84,-7,-338,-9,1,-7,1,0,4,410,-37987,0
5036871,2389,2916,2172,2652,3202,-40,88,-937,84,-7,-338,-9,1,-7,1,0,4,410,-37987,0
5036883,2391,2919,2169,2648,3202,-40,88,-937,84,-7,-338,-7,1,-13,1,11,4,410,-37987,0
5036902,2392,2920,2171,2650,3202,-40,88,-937,84,-7,-338,-7,1,-13,1,11,4,410,-37987,0
5036913,2382,2908,2160,2637,3202,-40,88,-937,84,-7,-338,-8,0,-13,1,13,3,410,-37987,0
5036932,2387,2914,2174,2654,3202,-40,88,-937,84,-7,-338,-8,0,-13,1,13,3,410,-37987,0
5036944,2384,2910,2172,2652,3202,-40,88,-937,84,-8,-338,-9,0,-6,1,18,0,410,-37987,0
5036962,2389,2916,2165,2643,3202,-40,88,-937,84,-8,-338,-9,0,-6,1,18,0,410,-37987,0
5036974,2391,2919,2168,2647,3202,-41,88,-937,84,-8,-338,-9,-2,-2,-2,20,0,410,-37987,0
5036992,2388,2915,2172,2652,3202,-41,88,-937,84,-8,-338,-9,-2,-2,-2,20,0,410,-37987,0
5037004,2397,2926,2168,2647,3202,-41,88,-937,84,-8,-338,-9,0,-2,-1,16,-3,410,-37987,0
5037022,2391,2919,2175,2655,3202,-41,88,-937,84,-8,-338,-9,0,-2,-1,16,-3,410,-37987,0
5037034,2391,2919,2169,2648,3202,-42,88,-937,84,-9,-338,-8,1,0,-2,13,-3,410,-37987,0
5037052,2395,2924,2174,2654,3202,-42,88,-937,84,-9,-338,-8,1,0,-2,13,-3,410,-37987,0
5037064,2391,2919,2171,2650,3202,-43,88,-937,85,-9,-338,-7,5,-2,-4,19,6,410,-37987,0
5037083,2386,2913,2168,2647,3202,-43,88,-937,85,-9,-338,-7,5,-2,-4,19,6,410,-37987,0
5037095,2399,2929,2168,2647,3202,-43,88,-937,85,-10,-338,-7,3,-4,-1,19,10,410,-37987,0
5037114,2394,2923,2169,2648,3202,-43,88,-937,85,-10,-338,-7,3,-4,-1,19,10,410,-37987,0
5037126,2392,2920,2170,2649,3202,-44,88,-937,85,-10,-338,-6,2,-1,0,15,2,410,-37987,0
5037143,2392,2920,2166,2644,3202,-44,88,-937,85,-10,-338,-6,2,-1,0,15,2,410,-37987,0
5037155,2388,2915,2170,2649,3202,-44,88,-937,85,-10,-338,-1,2,-6,0,11,2,410,-37987,0
5037174,2391,2919,2168,2647,3202,-44,88,-937,85,-10,-338,-1,2,-6,0,11,2,410,-37987,0
5037185,2388,2915,2171,2650,3202,-45,88,-936,85,-11,-338,-4,2,-9,-1,7,14,410,-37987,0
5037203,2407,2938,2168,2647,3202,-45,88,-936,85,-11,-338,-4,2,-9,-1,7,14,410,-37987,0
5037215,2391,2919,2168,2647,3201,-45,88,-936,85,-11,-339,-3,4,-11,0,2,15,410,-37987,0
5037234,2392,2920,2168,2647,3201,-45,88,-936,85,-11,-339,-3,4,-11,0,2,15,410,-37987,0
5037246,2399,2929,2160,2637,3201,-45,88,-936,85,-11,-339,-2,-1,-12,0,11,6,410,-37987,0
5037264,2391,2919,2168,2647,3201,-45,88,-936,85,-11,-339,-2,-1,-12,0,11,6,410,-37987,0
5037276,2386,2913,2167,2645,3201,-45,88,-936,85,-11,-339,-3,-5,-3,-1,14,0,410,-37987,0
5037294,2384,2910,2165,2643,3201,-45,88,-936,85,-11,-339,-3,-5,-3,-1,14,0,410,-37987,0
5037306,2384,2910,2165,2643,3201,-46,88,-936,85,-12,-339,-3,-2,-3,-4,10,-1,410,-37987,0
5037325,2394,2923,2163,2641,3201,-46,88,-936,85,-12,-339,-3,-2,-3,-4,10,-1,410,-37987,0
5037337,2423,2958,2163,2641,3201,-46,88,-936,85,-12,-339,-1,2,0,-5,5,0,410,-37987,0
5037356,2391,2919,2169,2648,3201,-46,88,-936,85,-12,-339,-1,2,0,-5,5,0,410,-37987,0
5037367,2400,2930,2169,2648,3201,-46,88,-936,85,-12,-339,-4,5,-2,-1,3,-3,410,-37987,0
5037385,2391,2919,2165,2643,3201,-46,88,-936,85,-12,-339,-4,5,-2,-1,3,-3,410,-37987,0
5037397,2388,2915,2166,2644,3201,-46,88,-936,85,-12,-339,-4,7,1,3,-1,-5,410,-37987,0
5037415,2403,2934,2164,2642,3201,-46,88,-936,85,-12,-339,-4,7,1,3,-1,-5,410,-37987,0
5037427,2397,2926,2167,2645,3201,-46,88,-936,85,-12,-339,-4,6,-1,2,1,5,410,-37987,0
5037446,2392,2920,2162,2639,3201,-46,88,-936,85,-12,-339,-4,6,-1,2,1,5,410,-37987,0
5037457,2392,2920,2164,2642,3201,-46,88,-936,85,-12,-339,-6,-3,-9,4,-80,1,410,-37987,0
5037476,2401,2931,2170,2649,3201,-46,88,-936,85,-12,-339,-6,-3,-9,4,-80,1,410,-37987,0
5037488,2396,2925,2167,2645,3201,-46,88,-936,85,-12,-339,-4,-5,-6,3,-86,-5,410,-37987,0
5037507,2399,2929,2164,2642,3201,-46,88,-936,85,-12,-339,-4,-5,-6,3,-86,-5,410,-37987,0
5037519,2392,2920,2168,2647,3201,-45,88,-936,85,-11,-339,-4,-1,-5,-1,-9,-3,410,-37987,0
5037537,2397,2926,2175,2655,3201,-45,88,-936,85,-11,-339,-4,-1,-5,-1,-9,-3,410,-37987,0
5037549,2394,2923,2169,2648,3201,-45,88,-936,85,-11,-339,-6,0,-10,-1,-10,0,410,-37987,0
5037569,2399,2929,2164,2642,3201,-45,88,-936,85,-11,-339,-3,3,-10,0,-10,1,410,-37987,0
5037587,2394,2923,2166,2644,3201,-45,88,-936,85,-11,-339,-3,3,-10,0,-10,1,410,-37987,0
5037599,2391,2919,2169,2648,3201,-45,88,-936,85,-11,-339,-6,0,-4,0,-7,-1,410,-37987,0
5037617,2407,2938,2169,2648,3201,-45,88,-936,85,-11,-339,-6,0,-4,0,-7,-1,410,-37987,0
5037630,2390,2918,2160,2637,3201,-45,88,-936,85,-11,-339,-6,0,4,0,-9,-10,410,-37987,0
5037649,2393,2921,2173,2653,3201,-45,88,-936,85,-11,-339,-6,0,4,0,-9,-10,410,-37987,0
5037661,2394,2923,2173,2653,3201,-44,88,-936,85,-10,-339,-4,5,-4,0,-14,-8,410,-37987,0
5037682,2393,2921,2172,2652,3201,-44,88,-936,85,-10,-339,-3,5,-5,0,-13,-1,410,-37987,0
5037699,2384,2910,2171,2650,3201,-44,88,-936,85,-10,-339,-3,5,-5,0,-13,-1,410,-37987,0
5037711,2393,2921,2171,2650,3201,-43,88,-936,85,-10,-339,-6,6,-130,0,-11,1,410,-37987,0
5037732,2392,2920,2172,2652,3201,-43,88,-936,85,-9,-339,-5,0,-2,3,-15,0,410,-37987,0
5037749,2388,2915,2171,2650,3201,-43,88,-936,85,-9,-339,-5,0,-2,3,-15,0,410,-37987,0
5037761,2392,2920,2170,2649,3201,-43,88,-936,85,-9,-339,-5,-2,-6,5,-14,-7,410,-37987,0
5037781,2404,2935,2172,2652,3201,-42,88,-936,84,-9,-339,-5,0,-6,0,-15,-5,410,-37987,0
5037799,2391,2919,2170,2649,3201,-42,88,-936,84,-9,-339,-5,0,-6,0,-15,-5,410,-37987,0
5037811,2391,2919,2169,2648,3201,-42,88,-936,84,-8,-339,-7,4,-10,0,-21,-2,410,-37987,0
5037831,2394,2923,2173,2653,3201,-41,88,-936,84,-8,-339,-9,1,-2,0,-21,-3,410,-37987,0
5037848,2391,2919,2175,2655,3201,-41,88,-936,84,-8,-339,-9,1,-2,0,-21,-3,410,-37987,0
5037860,2391,2919,2172,2652,3201,-41,88,-936,84,-8,-339,-10,7,-133,1,-20,0,410,-37987,0
5037880,2387,2914,2175,2655,3201,-40,88,-936,84,-7,-339,-9,4,-3,3,-20,1,410,-37987,0
5037897,2396,2925,2167,2645,3201,-40,88,-936,84,-7,-339,-9,4,-3,3,-20,1,410,-37987,0
5037909,2396,2925,2172,2652,3201,-40,87,-936,84,-7,-339,-10,1,-12,4,-19,0,410,-37987,0
5037928,2394,2923,2171,2650,3201,-40,87,-936,84,-7,-339,-10,1,-12,4,-19,0,410,-37987,0
5037939,2390,2918,2171,2650,3201,-39,87,-936,83,-6,-339,-12,-4,-3,2,-20,0,410,-37987,0
5037958,2388,2915,2173,2653,3201,-39,87,-936,83,-6,-339,-12,-4,-3,2,-20,0,410,-37987,0
5037971,2379,2904,2176,2656,3201,-39,87,-936,83,-6,-339,-13,0,-2,0,-21,0,410,-37987,0
5037988,2392,2920,2180,2661,3201,-39,87,-936,83,-6,-339,-13,0,-2,0,-21,0,410,-37987,0
5038000,2396,2925,2172,2652,3201,-38,87,-936,83,-5,-339,-9,3,-15,1,-100,0,410,-37987,0
5038019,2393,2921,2174,2654,3201,-38,87,-936,83,-5,-339,-9,3,-15,1,-100,0,410,-37987,0
5038031,2396,2925,2172,2652,3201,-38,87,-936,83,-5,-339,-12,2,-6,3,-14,0,410,-37987,0
5038048,2394,2923,2171,2650,3201,-38,87,-936,83,-5,-339,-12,2,-6,3,-14,0,410,-37987,0
5038060,2391,2919,2175,2655,3201,-37,87,-936,83,-5,-339,-11,2,-2,3,-90,-3,410,-37987,0
5038079,2391,2919,2175,2655,3201,-37,87,-936,83,-5,-339,-11,2,-2,3,-90,-3,410,-37987,0
5038091,2388,2915,2173,2653,3201,-37,87,-936,83,-5,-339,-12,0,-9,0,-3,-3,410,-37987,0
5038111,2389,2916,2170,2649,3201,-37,87,-936,83,-5,-339,-11,2,-7,2,-3,-3,410,-37987,0
5038131,2391,2919,2164,2642,3201,-37,87,-936,83,-5,-339,-15,4,-2,1,-2,-1,410,-37987,0
5038151,2393,2921,2170,2649,3201,-37,87,-936,83,-5,-339,-13,5,-4,0,-1,0,410,-37987,0
5038171,2386,2913,2176,2656,3201,-37,87,-936,83,-4,-339,-14,4,0,0,-6,5,410,-37987,0
5038189,2407,2938,2164,2642,3201,-37,87,-936,83,-4,-339,-14,4,0,0,-6,5,410,-37987,0
5038200,2391,2919,2173,2653,3201,-37,87,-936,83,-4,-339,-11,3,-8,3,-1,5,410,-37987,0
5038219,2389,2916,2174,2654,3201,-37,87,-936,83,-4,-339,-11,3,-8,3,-1,5,410,-37987,0
5038231,2392,2920,2187,2670,3201,-37,87,-936,83,-5,-339,-10,2,-12,6,1,0,410,-37987,0
5038250,2389,2916,2176,2656,3201,-37,87,-936,83,-5,-339,-10,2,-12,6,1,0,410,-37987,0
5038261,2398,2927,2175,2655,3201,-37,87,-936,83,-5,-339,-11,4,-8,5,8,-6,410,-37987,0
5038281,2392,2920,2178,2659,3201,-37,87,-937,83,-5,-339,-9,3,-4,3,9,-2,410,-37987,0
5038300,2391,2919,2168,2647,3201,-37,87,-937,83,-5,-339,-9,3,-4,3,9,-2,410,-37987,0
5038311,2400,2930,2176,2656,3201,-38,87,-937,83,-5,-339,-10,0,-1,0,6,5,410,-37987,0
5038330,2394,2923,2174,2654,3201,-38,87,-937,83,-5,-339,-10,0,-1,0,6,5,410,-37987,0
5038342,2393,2921,2175,2655,3201,-38,87,-936,83,-5,-339,-8,-1,-14,-1,5,4,410,-37987,0
5038362,2394,2923,2164,2642,3201,-38,87,-936,83,-5,-339,-9,3,-8,-1,5,1,410,-37987,0
5038381,2392,2920,2170,2649,3201,-38,87,-936,83,-5,-339,-9,3,-8,-1,5,1,410,-37987,0
5038393,2399,2929,2191,2675,3201,-38,87,-936,83,-5,-339,-9,0,-3,-1,13,-1,410,-37987,0
5038414,2393,2921,2176,2656,3201,-38,87,-937,83,-6,-339,-9,2,-1,-1,15,-6,410,-37987,0
5038434,2393,2921,2176,2656,3201,-38,87,-937,83,-6,-339,-12,2,-6,-5,14,-3,410,-37987,0
5038452,2386,2913,2174,2654,3201,-38,87,-937,83,-6,-339,-12,2,-6,-5,14,-3,410,-37987,0
5038464,2392,2920,2166,2644,3201,-39,87,-937,83,-6,-339,-10,3,-3,-5,7,0,410,-37987,0
5038484,2388,2915,2174,2654,3201,-39,87,-937,83,-6,-339,-10,6,-2,-5,4,1,410,-37987,0
5038504,2392,2920,2183,2665,3201,-39,87,-937,83,-6,-339,-12,4,-8,-1,5,-4,410,-37987,0
5038525,2385,2912,2176,2656,3201,-39,87,-937,83,-6,-339,-13,8,-9,0,6,-3,410,-37987,0
5038544,2395,2924,2171,2650,3201,-39,87,-937,83,-6,-339,-13,8,-9,0,6,-3,410,-37987,0
5038556,2397,2926,2175,2655,3201,-39,87,-937,83,1993,-339,-11,5,-7,-1,13,7,410,-37987,0
5038576,2392,2920,2176,2656,3201,-40,87,-936,83,-7,-339,-11,2,-5,-3,15,11,410,-37987,0
5038594,2390,2918,2171,2650,3201,-40,87,-936,83,-7,-339,-11,2,-5,-3,15,11,410,-37987,0
5038606,2400,2930,2172,2652,3201,-40,87,-936,84,-7,-339,-11,-2,-2,-3,11,4,410,-37987,0
5038626,2392,2920,2177,2658,3201,-40,87,-936,84,-7,-339,-11,2,0,-3,10,1,410,-37987,0
5038645,2392,2920,2174,2654,3201,-40,87,-936,84,-7,-339,-11,2,0,-3,10,1,410,-37987,0
5038656,2386,2913,2174,2654,3201,-41,87,-936,84,-7,-339,-13,6,3,-3,11,3,410,-37987,0
5038676,2394,2923,2173,2653,3201,-41,87,-936,84,-8,-339,-10,7,2,-1,10,4,410,-37987,0
5038695,2393,2921,2167,2645,3201,-41,87,-936,84,-8,-339,-10,7,2,-1,10,4,410,-37987,0
5038707,2392,2920,2169,2648,3201,-41,87,-936,84,-8,-339,-5,3,-12,1,6,13,410,-37987,0
5038726,2392,2920,2175,2655,3201,-41,87,-936,84,-8,-339,-5,3,-12,1,6,13,410,-37987,0
5038738,2397,2926,2170,2649,3200,-41,87,-936,84,-8,-339,-4,-1,-6,1,11,10,410,-37987,0
5038757,2394,2923,2175,2655,3200,-41,87,-936,84,-8,-339,-4,-1,-6,1,11,10,410,-37987,0
5038769,2397,2926,2170,2649,3200,-41,87,-936,84,-8,-339,-1,-1,-14,1,11,0,410,-37987,0
5038788,2395,2924,2171,2650,3200,-41,87,-936,84,-8,-339,-1,-1,-14,1,11,0,410,-37987,0
5038800,2394,2923,2168,2647,3200,-42,87,-936,84,-9,-339,0,1,-4,0,7,0,410,-37987,0
5038819,2398,2927,2173,2653,3200,-42,87,-936,84,-9,-339,0,1,-4,0,7,0,410,-37987,0
5038830,2395,2924,2172,2652,3200,-42,87,-936,84,-9,-339,-2,-2,3,-5,6,1,410,-37987,0
5038849,2396,2925,2171,2650,3200,-42,87,-936,84,-9,-339,-2,-2,3,-5,6,1,410,-37987,0
5038861,2394,2923,2170,2649,3200,-122,87,-936,84,-9,-339,0,1,-4,-6,0,-3,410,-37987,0
5038879,2397,2926,2168,2647,3200,-122,87,-936,84,-9,-339,0,1,-4,-6,0,-3,410,-37987,0
5038891,2394,2923,2170,2649,3200,-42,87,-936,84,-9,-339,0,0,-1,-6,6,-1,410,-37987,0
5038909,2393,2921,2167,2645,3200,-42,87,-936,84,-9,-339,0,0,-1,-6,6,-1,410,-37987,0
5038921,2395,2924,2175,2655,3200,-43,88,-936,85,-9,-339,-6,0,10,-8,0,-1,410,-37987,0
5038939,2388,2915,2168,2647,3200,-43,88,-936,85,-9,-339,-6,0,10,-8,0,-1,410,-37987,0
5038951,2384,2910,2167,2645,3200,-42,88,-936,85,-8,-339,-6,9,-6,-4,-17,-8,410,-37987,0
5038970,2391,2919,2174,2654,3200,-42,88,-936,85,-8,-339,-6,9,-6,-4,-17,-8,410,-37987,0
5038982,2394,2923,2171,2650,3201,-41,88,-936,84,-8,-339,-2,14,-23,3,-13,-2,410,-37987,0
5039000,2393,2921,2169,2648,3201,-41,88,-936,84,-8,-339,-2,14,-23,3,-13,-2,410,-37987,0
5039012,2392,2920,2171,2650,3200,-41,88,-936,84,-8,-339,-5,1,-1,2,-20,5,410,-37987,0
5039030,2391,2919,2169,2648,3200,-41,88,-936,84,-8,-339,-5,1,-1,2,-20,5,410,-37987,0
5039042,2396,2925,2166,2644,3200,-40,88,-936,84,-7,-339,-4,-7,1,1,-26,1,410,-37987,0
5039061,2399,2929,2165,2643,3200,-40,88,-936,84,-7,-339,-4,-7,1,1,-26,1,410,-37987,0
5039073,2397,2926,2172,2652,3201,-40,88,-936,84,-6,-339,-8,-6,0,1,-22,-16,410,-37987,0
5039090,2391,2919,2169,2648,3201,-40,88,-936,84,-6,-339,-8,-6,0,1,-22,-16,410,-37987,0
5039102,2389,2916,2174,2654,3201,-39,88,-936,84,-6,-339,-14,3,1,3,-35,-23,410,-37987,0
5039121,2393,2921,2171,2650,3201,-39,88,-936,84,-6,-339,-14,3,1,3,-35,-23,410,-37987,0
5039133,2387,2914,2174,2654,3201,-38,88,-937,83,-5,-339,-11,12,-6,-1,-34,-4,410,-37987,0
5039151,2388,2915,2171,2650,3201,-38,88,-937,83,-5,-339,-11,12,-6,-1,-34,-4,410,-37987,0
5039163,2399,2929,2172,2652,3201,-36,88,-937,83,-4,-339,-12,9,-18,1,-28,5,410,-37987,0
5039181,2384,2910,2174,2654,3201,-36,88,-937,83,-4,-339,-12,9,-18,1,-28,5,410,-37987,0
5039193,2386,2913,2175,2655,3201,-36,88,-937,83,-4,-339,-20,3,-1,7,-21,-5,410,-37987,0
5039212,2387,2914,2178,2659,3201,-36,88,-937,83,-4,-339,-20,3,-1,7,-21,-5,410,-37987,0
5039765,2395,2924,2169,2648,3202,-37,86,-937,82,-5,-338,-7,-1,-1,-3,18,1,410,-37987,0
5039777,2378,2903,2173,2653,3202,-38,86,-937,82,-5,-338,-6,2,-6,-5,6,1,410,-37987,0
5039794,2410,2942,2168,2647,3202,-38,86,-937,82,-5,-338,-6,2,-6,-5,6,1,410,-37987,0
5039806,2394,2923,2173,2653,3202,-38,86,-937,82,-5,-338,-7,0,-17,-6,11,4,410,-37987,0
5039825,2391,2919,2163,2641,3202,-38,86,-937,82,-5,-338,-7,0,-17,-6,11,4,410,-37987,0
5039837,2384,2910,2168,2647,3202,-38,86,-937,83,-6,-338,-9,-5,-5,-11,13,0,410,-37987,0
5039854,2399,2929,2171,2650,3202,-38,86,-937,83,-6,-338,-9,-5,-5,-11,13,0,410,-37987,0
5039866,2393,2921,2170,2649,3202,-38,87,-937,83,-6,-338,-11,-5,1,-13,13,-7,410,-37987,0
5039886,2391,2919,2166,2644,3202,-39,87,-937,83,-6,-338,-12,-3,0,-13,17,-13,410,-37987,0
5039903,2396,2925,2169,2648,3202,-39,87,-937,83,-6,-338,-12,-3,0,-13,17,-13,410,-37987,0
5039915,2391,2919,2162,2639,3203,-40,88,-937,84,-6,-337,-18,6,-2,-11,23,-17,410,-37987,0
5039934,2407,2938,2171,2650,3203,-40,88,-937,84,-6,-337,-18,6,-2,-11,23,-17,410,-37987,0
5039946,2393,2921,2170,2649,3203,-40,88,-937,84,-7,-337,-19,12,-1,-6,15,-16,410,-37987,0
5039964,2394,2923,2167,2645,3203,-40,88,-937,84,-7,-337,-19,12,-1,-6,15,-16,410,-37987,0
5039977,2388,2915,2173,2653,3203,-41,88,-937,84,-7,-337,-14,9,-11,-1,23,-6,410,-37987,0
5039994,2386,2913,2175,2655,3203,-41,88,-937,84,-7,-337,-14,9,-11,-1,23,-6,410,-37987,0
5040006,2391,2919,2182,2664,3204,-41,88,-937,85,-8,-336,-17,-2,-11,5,28,-89,410,-37987,0
5040026,2388,2915,2172,2652,3204,-42,88,-937,85,-9,-336,-15,-4,-10,3,26,-11,410,-37987,0
5040044,2403,2934,2170,2649,3204,-42,88,-937,85,-9,-336,-15,-4,-10,3,26,-11,410,-37987,0
5040056,2392,2920,2168,2647,3205,-43,88,-937,85,-9,-336,-14,-7,-9,1,31,-13,410,-37987,0
5040074,2394,2923,2169,2648,3205,-43,88,-937,85,-9,-336,-14,-7,-9,1,31,-13,410,-37987,0
5040086,2392,2920,2170,2649,3205,-44,88,-937,86,-10,-335,-13,-13,-4,-8,34,-20,410,-37987,0
5040104,2389,2916,2175,2655,3205,-44,88,-937,86,-10,-335,-13,-13,-4,-8,34,-20,410,-37987,0
5040117,2399,2929,2164,2642,3206,-45,88,-938,86,-11,-335,-14,0,-4,-10,30,-21,410,-37987,0
5040135,2391,2919,2175,2655,3206,-45,88,-938,86,-11,-335,-14,0,-4,-10,30,-21,410,-37987,0
5040148,2389,2916,2167,2645,3206,-46,89,-938,87,-12,-334,-17,7,-7,-9,36,-16,410,-37987,0
5040166,2386,2913,2160,2637,3206,-46,89,-938,87,-12,-334,-17,7,-7,-9,36,-16,410,-37987,0
5040179,2392,2920,2169,2648,3207,-47,89,-938,87,-13,-334,-18,9,-5,-8,39,-11,410,-37987,0
5040196,2382,2908,2168,2647,3207,-47,89,-938,87,-13,-334,-18,9,-5,-8,39,-11,410,-37987,0
5040209,2395,2924,2167,2645,3207,-48,89,-938,88,-14,-334,-19,2,-9,-1,38,-13,410,-37987,0
5040229,2391,2919,2169,2648,3208,-50,89,-938,88,-15,-333,-19,4,-7,0,43,-8,410,-37987,0
5040246,2387,2914,2170,2649,3208,-50,89,-938,88,-15,-333,-19,4,-7,0,43,-8,410,-37987,0
5040258,2390,2918,2160,2637,3208,-51,89,-938,88,-16,-333,-19,1,-10,0,51,2,410,-37987,0
5040278,2396,2925,2168,2647,3208,-52,89,-938,89,-17,-333,-13,-3,-17,-5,52,15,410,-37987,0
5040296,2392,2920,2172,2652,3208,-52,89,-938,89,-17,-333,-13,-3,-17,-5,52,15,410,-37987,0
5040308,2391,2919,2172,2652,3207,-54,90,-937,89,-18,-334,-8,8,-16,-8,57,35,410,-37987,0
5040328,2392,2920,2164,2642,3206,-55,90,-937,90,-19,-334,-8,7,-8,-5,58,41,410,-37987,0
5040345,2396,2925,2165,2643,3206,-55,90,-937,90,-19,-334,-8,7,-8,-5,58,41,410,-37987,0
5040357,2406,2937,2161,2638,3205,-57,89,-937,90,-21,-335,-6,5,-6,1,51,41,410,-37987,0
5040376,2395,2924,2164,2642,3205,-57,89,-937,90,-21,-335,-6,5,-6,1,51,41,410,-37987,0
5040388,2389,2916,2159,2636,3204,-59,89,-936,91,-22,-336,0,-2,-8,3,50,41,410,-37987,0
5040405,2403,2934,2157,2633,3204,-59,89,-936,91,-22,-336,0,-2,-8,3,50,41,410,-37987,0
5040417,2396,2925,2155,2631,3203,-60,89,-936,91,-23,-337,4,0,0,-5,41,56,410,-37987,0
5040435,2399,2929,2161,2638,3203,-60,89,-936,91,-23,-337,4,0,0,-5,41,56,410,-37987,0
5040446,2400,2930,2160,2637,3201,-61,89,-935,91,-24,-339,-1,-7,16,-6,33,58,410,-37987,0
5040464,2396,2925,2158,2634,3201,-61,89,-935,91,-24,-339,-1,-7,16,-6,33,58,410,-37987,0
5040476,2400,2930,2157,2633,3200,-63,89,-935,92,-25,-340,6,-12,-4,-1,28,25,410,-37987,0
5040495,2405,2936,2157,2633,3200,-63,89,-935,92,-25,-340,6,-12,-4,-1,28,25,410,-37987,0
5040507,2400,2930,2159,2636,3200,-63,89,-935,92,-26,-340,4,-6,-9,4,22,-3,410,-37987,0
5040525,2388,2915,2161,2638,3200,-63,89,-935,92,-26,-340,4,-6,-9,4,22,-3,410,-37987,0
5040537,2400,2930,2164,2642,3200,-64,89,-935,92,-26,-340,2,4,7,1,16,6,410,-37987,0
5040554,2399,2929,2161,2638,3200,-64,89,-935,92,-26,-340,2,4,7,1,16,6,410,-37987,0
5040566,2403,2934,2150,2625,3200,-64,89,-935,92,-26,-340,2,2,-9,-5,1,25,410,-37987,0
5040584,2401,2931,2167,2645,3200,-64,89,-935,92,-26,-340,2,2,-9,-5,1,25,410,-37987,0
5040596,2399,2929,2159,2636,3199,-64,89,-935,92,-26,-340,0,-1,4,-1,-10,16,410,-37987,0
5040614,2399,2929,2159,2636,3199,-64,89,-935,92,-26,-340,0,-1,4,-1,-10,16,410,-37987,0
5040626,2394,2923,2156,2632,3198,-64,89,-935,92,-26,-341,-1,1,-5,5,-15,-5,410,-37987,0
5040645,2427,2963,2150,2625,3198,-64,89,-935,92,-26,-341,-1,1,-5,5,-15,-5,410,-37987,0
5040657,2403,2934,2156,2632,3198,-63,89,-935,91,-25,-341,-1,3,-5,5,-16,0,410,-37987,0
5040675,2402,2932,2157,2633,3198,-63,89,-935,91,-25,-341,-1,3,-5,5,-16,0,410,-37987,0
5040687,2402,2932,2162,2639,3198,-63,89,-935,91,-25,-341,-3,0,-3,-1,-15,10,410,-37987,0
5040705,2403,2934,2152,2627,3198,-63,89,-935,91,-25,-341,-3,0,-3,-1,-15,10,410,-37987,0
5040717,2399,2929,2158,2634,3198,-62,88,-935,91,-25,-341,-7,0,0,4,-23,0,410,-37987,0
5040735,2407,2938,2161,2638,3198,-62,88,-935,91,-25,-341,-7,0,0,4,-23,0,410,-37987,0
5040747,2431,2968,2161,2638,3198,-61,88,-935,91,-24,-341,-6,5,1,8,-33,-10,410,-37987,0
5040764,2394,2923,2161,2638,3198,-61,88,-935,91,-24,-341,-6,5,1,8,-33,-10,410,-37987,0
5040776,2400,2930,2156,2632,3198,-61,88,-935,90,-23,-341,0,10,-8,10,-34,-5,410,-37987,0
5040795,2400,2930,2158,2634,3198,-61,88,-935,90,-23,-341,0,10,-8,10,-34,-5,410,-37987,0
5040807,2405,2936,2166,2644,3198,-60,88,-935,90,-22,-341,-3,3,-2,11,-39,2,410,-37987,0
5040826,2401,2931,2164,2642,3198,-60,88,-935,90,-22,-341,-3,3,-2,11,-39,2,410,-37987,0
5040838,2401,2931,2163,2641,3198,-58,88,-935,89,-21,-341,4,3,-10,13,-42,-1,410,-37987,0
5040856,2412,2945,2161,2638,3198,-58,88,-935,89,-21,-341,4,3,-10,13,-42,-1,410,-37987,0
5040868,2394,2923,2164,2642,3198,-57,87,-935,88,-20,-341,13,0,-20,16,-43,-12,410,-37987,0
5040887,2385,2912,2160,2637,3198,-57,87,-935,88,-20,-341,13,0,-20,16,-43,-12,410,-37987,0
5040899,2400,2930,2187,2670,3199,-55,86,-935,87,-20,-340,1,3,-15,21,-61,-20,410,-37987,0
5040918,2395,2924,2165,2643,3199,-55,86,-935,87,-20,-340,1,3,-15,21,-61,-20,410,-37987,0
5040930,2400,2930,2164,2642,3199,-53,86,-935,86,-18,-340,7,3,-30,28,-68,-15,410,-37987,0
5040948,2398,2927,2168,2647,3199,-53,86,-935,86,-18,-340,7,3,-30,28,-68,-15,410,-37987,0
5040961,2393,2921,2167,2645,3200,-51,85,-936,85,-17,-340,-4,10,-12,32,-64,-17,410,-37987,0
5040980,2399,2929,2175,2655,3200,-51,85,-936,85,-17,-340,-4,10,-12,32,-64,-17,410,-37987,0
5040993,2392,2920,2173,2653,3200,-48,84,-936,83,-15,-340,-17,16,13,36,-105,-18,410,-37987,0
5041011,2396,2925,2176,2656,3200,-48,84,-936,83,-15,-340,-17,16,13,36,-105,-18,410,-37987,0
5041023,2399,2929,2175,2655,3200,20434,83,-936,81,-13,-340,-5,12,-19,43,-86,-13,410,-37987,0
5041044,2399,2929,2170,2649,3200,-44,82,-936,80,-12,-339,-15,-5,-14,41,-75,-12,410,-37987,0
5041062,2397,2926,2176,2656,3200,-44,82,-936,80,-12,-339,-15,-5,-14,41,-75,-12,410,-37987,0
5041075,2399,2929,2178,2659,3201,-42,81,-937,79,-11,-339,-25,-10,10,36,-60,-9,410,-37987,0
5041095,2407,2938,2177,2658,3201,-41,80,-937,78,-10,-339,-25,-9,11,34,-63,-11,410,-37987,0
5041113,2395,2924,2179,2660,3201,-41,80,-937,78,-10,-339,-25,-9,11,34,-63,-11,410,-37987,0
5041125,2392,2920,2181,2663,3201,-40,80,1062,77,-9,-339,-20,-4,-10,27,-66,-22,410,-37987,0
5041146,2395,2924,2181,2663,3201,-38,79,-937,76,-8,-339,-19,1,-15,23,-63,-16,410,-37987,0
5041164,2395,2924,2182,2664,3201,-38,79,-937,76,-8,-339,-19,1,-15,23,-63,-16,410,-37987,0
5041176,2396,2925,2183,2665,3201,-37,78,-937,75,-7,-338,-19,0,-10,18,-43,-1,410,-37987,0
5041196,2400,2930,2181,2663,3201,-36,78,-937,75,-7,-339,-19,-1,-15,14,-26,0,410,-37987,0
5041213,2397,2926,2186,2669,3201,-36,78,-937,75,-7,-339,-19,-1,-15,14,-26,0,410,-37987,0
5041225,2399,2929,2181,2663,3201,-36,78,-937,75,-7,-338,-20,-2,-10,19,-8,-13,410,-37987,0
5041246,2399,2929,2183,2665,3202,-36,77,-937,74,-7,-338,-18,0,-9,18,-6,-19,410,-37987,0
5041263,2397,2926,2181,2663,3202,-36,77,-937,74,-7,-338,-18,0,-9,18,-6,-19,410,-37987,0
5041276,2397,2926,2187,2670,3203,-36,76,-938,74,-7,-338,-19,5,0,18,-20,-12,410,-37987,0
5041296,2397,2926,2186,2669,3203,-36,76,-938,74,-7,-338,-20,6,-4,13,-20,3,410,-37987,0
5041313,2399,2929,2188,2671,3203,-36,76,-938,74,-7,-338,-20,6,-4,13,-20,3,410,-37987,0
5041325,2398,2927,2178,2659,3202,-36,76,-938,73,-7,-338,-18,-3,-6,10,-7,20,410,-37987,0
5041345,2398,2927,2195,2680,3202,-36,76,-937,73,-7,-338,-18,-5,-5,11,-1,18,410,-37987,0
5041363,2394,2923,2190,2673,3202,-36,76,-937,73,-7,-338,-18,-5,-5,11,-1,18,410,-37987,0
5041375,2393,2921,2190,2673,3202,-36,75,-937,73,-7,-338,-13,-18,-7,11,11,-6,410,-37987,0
5041396,2411,2943,2181,2663,3202,-36,75,-937,73,-8,-338,-13,-13,-11,4,15,-5,410,-37987,0
5041414,2423,2958,2184,2666,3202,-36,75,-937,73,-8,-338,-13,-13,-11,4,15,-5,410,-37987,0
5041426,2396,2925,2184,2666,3202,-38,76,-937,73,-8,-338,-10,1,-17,-12,29,1,410,-37987,0
5041446,2407,2938,2176,2656,3202,-38,76,-937,74,-9,-338,-10,6,-16,-11,28,0,410,-37987,0
5041464,2404,2935,2183,2665,3202,-38,76,-937,74,-9,-338,-10,6,-16,-11,28,0,410,-37987,0
5041476,2407,2938,2176,2656,3202,-39,76,-937,74,-9,-338,-8,30,-9,0,25,-12,410,-37987,0
5041496,2391,2919,2177,2658,3203,-40,76,-937,74,-10,-338,-8,35,-12,4,26,-8,410,-37985,0
5041514,2398,2927,2176,2656,3203,-40,76,-937,74,-10,-338,-8,35,-12,4,26,-8,410,-37981,0
5041526,2393,2921,2183,2665,3203,-41,75,-937,74,-11,-338,-10,114,7,-9,48,-3,410,-37967,0
5041546,2399,2929,2177,2658,3203,-41,76,-937,75,-12,-338,-11,96,10,-71,51,-29,410,-37952,0
5041565,2395,2924,2178,2659,3203,-41,76,-937,75,-12,-338,-11,96,10,-71,51,-29,410,-37940,759
5041578,2387,2914,2178,2659,3203,-43,79,-938,77,-12,-337,-6,83,17,-93,48,-5,410,-37921,759
5041598,2390,2918,2173,2653,3203,-44,79,-937,78,-13,-337,0,55,1,-95,41,45,410,-37902,759
5041616,2396,2925,2172,2652,3203,-44,79,-937,78,-13,-337,0,55,1,-95,41,45,410,-37889,759
5041628,2398,2927,2171,2650,3201,-45,81,-936,81,-13,-339,-2,20,0,-81,35,75,410,-37869,759
5041648,2397,2926,2171,2650,3200,-46,83,-936,82,-13,-340,-4,13,13,-67,34,44,410,-37849,759
5041666,2392,2920,2175,2655,3200,-46,83,-936,82,-13,-340,-4,13,13,-67,34,44,410,-37836,1699
5041679,2392,2920,2175,2655,3200,-47,85,-936,84,-14,-340,-2,18,9,-37,31,-7,410,-37815,1699
5041699,2398,2927,2175,2655,3200,-48,85,-936,84,-14,-340,0,42,-12,-21,30,-21,410,-37795,1699
5041717,2392,2920,2179,2660,3200,-48,85,-936,84,-14,-340,0,42,-12,-21,30,-21,410,-37781,1699
5041730,2398,2927,2176,2656,3200,-49,85,-936,84,-15,-340,-2,55,-1,-12,33,-3,410,-37759,1699
5041749,2415,2948,2182,2664,3200,-49,85,-936,84,-15,-340,-2,55,-1,-12,33,-3,410,-37743,1699
5041762,2396,2925,2183,2665,3200,-50,83,-936,83,-16,-340,0,58,-2,-10,23,20,410,-37717,1699
5041781,2406,2937,2180,2661,3200,-50,83,-936,83,-16,-340,0,58,-2,-10,23,20,410,-37699,1971
5041794,2402,2932,2183,2665,3199,-51,81,-936,82,-17,-341,-3,58,13,-16,13,19,410,-37671,1971
5041813,2407,2938,2177,2658,3199,-51,81,-936,82,-17,-341,-3,58,13,-16,13,19,410,-37651,1971
5041825,2399,2929,2185,2667,3199,-51,80,-936,81,-18,-341,0,66,2,-12,13,-11,410,-37617,1971
5041846,2415,2948,2185,2667,3199,-51,78,-936,80,-19,-341,2,55,-3,-5,16,-12,410,-37587,1971
5041865,2409,2941,2197,2682,3199,-51,78,-936,80,-19,-341,2,55,-3,-5,16,-12,410,-37565,1971
5041877,2411,2943,2191,2675,3199,-52,77,-936,79,-20,-341,6,9,15,14,16,27,410,-37530,1971
5041898,2415,2948,2184,2666,3198,-52,76,-936,79,-20,-341,4,6,6,13,5,36,410,-37497,2863
5041916,2410,2942,2187,2670,3198,-52,76,-936,79,-20,-341,4,6,6,13,5,36,410,-37475,2863
5041929,2427,2963,2186,2669,3198,20427,76,-936,78,-20,-342,8,2,-13,21,-10,2,410,-37438,2863
5041949,2408,2940,2184,2666,3198,-52,76,-936,78,-20,-342,9,13,-17,15,-9,-23,410,-37401,2863
5041968,2423,2958,2185,2667,3198,-52,76,-936,78,-20,-342,9,13,-17,15,-9,-23,410,-37375,2863
5041980,2406,2937,2188,2671,3198,-51,76,-936,77,-20,-341,6,29,0,2,-8,-21,410,-37335,2863
5042000,2414,2947,2186,2669,3199,-51,75,-936,77,-19,-341,2,30,4,-6,-8,-10,410,-37293,3316
5042019,2425,2960,2188,2671,3199,-51,75,-936,77,-19,-341,2,30,4,-6,-8,-10,410,-37265,3316
5042032,2428,2964,2204,2691,3199,-51,75,-936,76,-19,-341,0,54,5,5,-15,-9,410,-37223,3316
5042051,2416,2949,2199,2684,3199,-51,75,-936,76,-19,-341,0,54,5,5,-15,-9,410,-37193,3316
5042063,2427,2963,2205,2692,3199,-50,73,-936,75,-19,-341,-7,60,16,2,-28,-20,410,-37142,3316
5042083,2440,2979,2220,2710,3200,-50,71,-937,74,-19,-340,-10,58,19,-17,-37,-18,410,-37090,3316
5042103,2440,2979,2214,2703,3200,-49,70,-937,72,-19,-340,-15,63,9,-28,-39,-12,410,-37035,4142
5042122,2443,2982,2211,2699,3200,-49,70,-937,72,-19,-340,-15,63,9,-28,-39,-12,410,-36998,4142
5042135,2451,2992,2218,2708,3200,-48,68,-937,70,-19,-340,-7,44,-13,10,-31,-5,410,-36944,4142
5042154,2445,2985,2217,2706,3200,-48,68,-937,70,-19,-340,-7,44,-13,10,-31,-5,410,-36905,4142
5042167,2432,2969,2213,2702,3200,-48,66,-937,69,-19,-341,-10,44,4,8,-31,0,410,-36837,4142
5042188,2450,2991,2223,2714,3200,-47,65,-937,68,-19,-341,-5,30,-6,-3,-30,-5,410,-36775,4142
5042207,2456,2998,2232,2725,3200,-47,65,-937,68,-19,-341,-5,30,-6,-3,-30,-5,410,-36730,4871
5042221,2453,2995,2219,2709,3200,20433,65,-937,67,-19,-340,-16,42,-2,-6,-32,-15,410,-36658,4871
5042242,2459,3002,2234,2727,3200,-46,64,-937,66,-19,-340,-9,68,7,-6,-32,-21,410,-36585,4871
5042261,2463,3007,2238,2732,3200,-46,64,-937,66,-19,-340,-9,68,7,-6,-32,-21,410,-36535,4871
5042274,2448,2989,2250,2747,3200,-45,62,-937,64,-19,-340,-6,50,4,-9,-31,-16,410,-36453,4871
5042295,2465,3009,2241,2736,3200,-45,61,-937,64,-18,-340,-2,42,1,-10,-28,5,410,-36377,4871
5042314,2471,3017,2258,2757,3200,-45,61,-937,64,-18,-340,-2,42,1,-10,-28,5,410,-36322,6323
5042328,2456,2998,2242,2737,3200,-45,61,-937,63,-18,-340,-3,16,-3,0,-26,7,410,-36233,6323
5042349,2475,3021,2255,2753,3200,-44,60,-937,63,-18,-340,-6,11,-2,6,-14,-11,410,-36150,6323
5042369,2477,3024,2262,2761,3200,-44,60,-937,62,-18,-340,-1,28,-3,0,-6,-15,410,-36055,6323
5042390,2482,3030,2275,2777,3200,-43,60,-937,62,-18,-340,0,24,-9,-1,-11,-13,410,-35970,6323
5042409,2489,3039,2264,2764,3200,-43,60,-937,62,-18,-340,0,24,-9,-1,-11,-13,410,-35909,6323
5042423,2488,3037,2268,2769,3200,-43,60,-938,62,-18,-340,-8,11,1,11,-24,3,410,-35813,7752
5042443,2489,3039,2275,2777,3200,-43,59,-938,61,-17,-340,-6,4,0,7,-29,10,410,-35722,7752
5042463,2490,3040,2272,2774,3200,-42,59,-937,61,-17,-340,-4,-6,-11,-8,-36,6,410,-35622,7752
5042483,2495,3046,2278,2781,3200,-41,60,-938,61,-16,-340,-11,-12,1,-8,-32,-10,410,-35525,7752
5042503,2492,3042,2270,2771,3200,-41,60,-938,61,-15,-340,-4,-11,-9,-12,-26,-21,410,-35426,7752
5042523,2493,3043,2275,2777,3201,-40,60,-938,61,-15,-339,-6,-2,-9,-10,-18,-23,410,-35318,8216
5042544,2501,3053,2295,2802,3201,-40,61,-938,62,-15,-339,-7,-6,-22,-26,-13,-17,410,-35216,8216
5042564,2492,3042,2283,2787,3201,-40,61,-938,62,-14,-339,-10,-15,-5,-35,-20,-9,410,-35109,8216
5042585,2497,3048,2299,2807,3201,-39,62,-938,63,-14,-339,-15,-9,-1,-33,-27,0,410,-35005,8216
5042604,2496,3047,2298,2805,3201,-39,62,-938,63,-14,-339,-15,-9,-1,-33,-27,0,410,-34932,8216
5042618,2495,3046,2286,2791,3201,-38,63,-938,64,1986,-339,-18,-17,2,-44,-33,-8,410,-34812,8216
5042640,2495,3046,2295,2802,3201,-38,65,-938,64,-12,-339,-11,-14,-14,-55,-28,-17,410,-34700,8774
5042661,2494,3045,2306,2815,3201,-38,66,-938,65,-11,-339,-6,-12,-13,-58,-18,-20,410,-34581,8774
5042683,2511,3065,2314,2825,3202,-37,67,-938,67,-10,-338,-3,-16,-16,-55,-10,-20,410,-34465,8774
5042704,2498,3050,2311,2821,3203,-37,68,-938,68,-10,-338,-2,-22,-8,-62,1,-16,410,-34353,8774
5042724,2497,3048,2307,2816,3203,-37,70,-938,69,-10,-338,-9,-19,-10,-53,1,-10,410,-34239,8774
5042744,2500,3052,2309,2819,3203,-37,71,-938,70,-10,-338,-6,-20,-20,-47,-3,-6,410,-34126,9166
5042764,2508,3062,2317,2829,3203,-37,72,-938,71,-9,-338,-8,-21,-1,-40,-5,-12,410,-34012,9166
5042785,2503,3056,2326,2840,3203,-37,73,-938,71,-9,-337,-10,-16,-1,-16,-7,-14,410,-33904,9166
5042805,2497,3048,2327,2841,3203,-37,73,-938,71,-9,-337,-6,-25,-10,1,0,-9,410,-33795,9166
5042824,2504,3057,2314,2825,3203,-37,73,-938,71,-9,-337,-6,-25,-10,1,0,-9,410,-33721,9166
5042838,2498,3050,2320,2832,3203,-38,73,-938,72,-9,-337,-11,-39,-2,15,-3,23,410,-33613,9166
5042857,2494,3045,2323,2836,3203,-38,73,-938,72,-9,-337,-11,-39,-2,15,-3,23,410,-33537,8657
5042871,2500,3052,2311,2821,3203,-38,75,-938,73,-9,-338,-4,-61,-16,-6,-5,11,410,-33419,8657
5042893,2491,3041,2312,2822,3203,-38,77,-937,75,-8,-338,-3,-41,-18,5,-2,-8,410,-33302,8657
5042914,2483,3031,2326,2840,3203,-38,78,-937,76,-8,-338,-1,-58,-6,1,1,-16,410,-33189,8657
5042934,2492,3042,2323,2836,3203,-38,80,-937,77,-7,-337,-2,-46,-19,0,0,0,410,-33082,8657
5042954,2492,3042,2312,2822,3203,-38,81,-937,78,-7,-338,-1,-58,-6,8,4,17,410,-32973,8657
5042975,2483,3031,2309,2819,3203,-38,83,-937,79,-7,-338,-13,-70,5,11,4,23,410,-32863,9491
5042996,2495,3046,2312,2822,3202,-38,84,-937,81,-7,-338,-11,-58,10,0,6,16,410,-32761,9491
5043015,2497,3048,2319,2831,3202,-38,84,-937,81,-7,-338,-11,-58,10,0,6,16,410,-32692,9491
5043028,2496,3047,2309,2819,3203,-39,86,-937,82,-6,-338,3,-175,-11,4,24,-21,410,-32578,9491
5043051,2491,3041,2317,2829,3203,-40,87,-937,83,-6,-337,7,-40,-30,-3,23,-22,410,-32478,9491
5043070,2484,3032,2310,2820,3203,-40,87,-937,83,-6,-337,7,-40,-30,-3,23,-22,410,-32409,9491
5043084,2481,3029,2305,2814,3203,-40,89,-937,85,-7,-337,4,-48,-20,6,16,27,410,-32306,8501
5043104,2478,3025,2292,2798,3203,-40,90,-937,86,-7,-338,0,-63,-22,5,25,36,410,-32211,8501
5043124,2484,3032,2276,2778,3202,-41,91,-936,88,-7,-338,-9,-48,-18,8,20,19,410,-32113,8501
5043144,2385,2912,2201,2687,3202,-41,92,-936,88,-7,-338,77,-209,-265,3,13,-13,410,-32025,8501
5043164,2526,3084,2364,2886,3202,20437,91,-936,86,-8,-338,-34,135,66,185,50,36,410,-31928,8501
5043185,2477,3024,2296,2803,3201,-44,90,-936,87,-10,-338,-19,-137,-32,-53,89,3,410,-31827,7887
5043206,2416,2949,2250,2747,3201,-45,90,-936,87,-10,-338,-32,107,39,-29,49,8,410,-31719,7887
5043227,2511,3065,2359,2880,3201,-46,91,-936,89,-11,-339,-25,31,-9,-84,58,29,410,-31607,7887
5043249,2479,3026,2312,2822,3200,-47,93,-936,91,-11,-339,-9,15,-31,-123,36,42,410,-31506,7887
5043269,2456,2998,2320,2832,3199,-48,95,-935,92,-11,-340,-21,95,8,-46,48,64,410,-31398,7887
5043291,2460,3003,2235,2728,3198,-50,96,-935,93,-12,-341,109,100,-311,-30,46,72,410,-31301,8238
5043312,2464,3008,2330,2844,3196,-51,95,-934,93,-13,-343,-26,51,27,86,46,122,410,-31192,8238
5043334,2482,3030,2357,2877,3194,-52,93,-933,92,-15,-345,-17,-22,14,38,64,97,410,-31087,8238
5043354,2489,3039,2331,2846,3193,-53,92,-933,91,-17,-346,-22,-32,14,36,58,43,410,-30981,8238
5043375,2472,3018,2317,2829,3192,-55,91,-933,91,-18,-346,-9,-1,6,36,66,5,410,-30867,8238
5043396,2476,3023,2332,2847,3192,-56,91,-933,91,-19,-346,2,-22,-13,17,53,0,410,-30767,8460
5043416,2478,3025,2308,2818,3191,-58,90,-933,91,-20,-346,12,-32,-16,5,51,29,410,-30663,8460
5043436,2487,3036,2314,2825,3191,-59,91,-932,92,-20,-347,17,-30,-17,17,47,66,410,-30562,8460
5043456,2477,3024,2323,2836,3190,-59,91,-932,92,-21,-348,16,-52,-35,23,53,76,410,-30463,8460
5043476,2476,3023,2313,2824,3189,-60,91,-932,93,-22,-349,12,-62,-31,23,61,66,410,-30361,8460
5043497,2477,3024,2296,2803,3187,-62,91,-931,93,-23,-350,9,-75,-18,25,63,50,410,-30267,8234
5043517,2468,3013,2286,2791,3187,-63,90,-931,93,-24,-350,6,-75,-4,32,60,29,410,-30174,8234
5043537,2472,3018,2282,2786,3186,-65,92,-931,95,-25,-350,3,-84,-1,35,68,15,410,-30086,8234
5043556,2456,2998,2288,2793,3186,-65,92,-931,95,-25,-350,3,-84,-1,35,68,15,410,-30028,8234
5043569,2452,2993,2268,2769,3186,-66,95,-931,98,-25,-350,5,-64,-10,35,62,24,410,-29935,8234
5043591,2457,3000,2252,2749,3186,-67,96,-930,99,-26,-350,12,-49,-21,24,55,28,410,-29851,8234
5043610,2450,2991,2252,2749,3186,-67,96,-930,99,-26,-350,12,-49,-21,24,55,28,410,-29793,6976
5043624,2453,2995,2268,2769,3186,-69,96,-930,100,-27,-350,0,-27,-7,17,66,3,410,-29706,6976
5043645,2453,2995,2261,2760,3186,-70,97,-930,101,-28,-350,4,-16,-9,8,70,-8,410,-29627,6976
5043664,2452,2993,2251,2748,3186,-70,97,-930,101,-28,-350,4,-16,-9,8,70,-8,410,-29572,6976
5043677,2444,2984,2252,2749,3186,-73,97,-930,101,-30,-350,-3,12,-4,1,74,14,410,-29485,6976
5043698,2450,2991,2251,2748,3186,-75,97,-930,102,-31,-350,-3,15,-6,-8,75,26,410,-29405,6976
5043717,2456,2998,2249,2746,3186,-75,97,-930,102,-31,-350,-3,15,-6,-8,75,26,410,-29348,6915
5043731,2460,3003,2268,2769,3185,-76,97,-929,103,-33,-351,-5,7,-5,-6,68,30,410,-29259,6915
5043752,2457,3000,2253,2750,3185,-78,97,-929,103,-34,-351,-5,3,-13,-2,60,21,410,-29182,6915
5043771,2450,2991,2244,2739,3185,-78,97,-929,103,-34,-351,-5,3,-13,-2,60,21,410,-29127,6915
5043785,2459,3002,2244,2739,3185,-80,97,-929,104,-35,-351,-13,-16,10,11,62,23,410,-29043,6915
5043806,2459,3002,2257,2755,3184,-81,97,-929,104,-36,-352,-17,-14,-3,9,60,25,410,-28965,6915
5043825,2460,3003,2241,2736,3184,-81,97,-929,104,-36,-352,-17,-14,-3,9,60,25,410,-28911,6728
5043839,2453,2995,2244,2739,3184,-83,96,-929,104,-39,-352,-12,-1,-8,10,60,10,410,-28834,6728
5043858,2445,2985,2251,2748,3184,-83,96,-929,104,-39,-352,-12,-1,-8,10,60,10,410,-28782,6728
5043871,2442,2981,2227,2719,3184,-85,96,-929,105,-40,-352,-9,-37,-9,4,44,15,410,-28700,6728
5043893,2436,2974,2227,2719,3183,-86,96,-928,105,-41,-352,-9,-50,-12,16,42,31,410,-28632,6728
5043912,2440,2979,2224,2715,3183,-86,96,-928,105,-41,-352,-9,-50,-12,16,42,31,410,-28587,6728
5043926,2439,2978,2224,2715,3182,-88,95,-928,103,-43,-353,-7,-65,-33,79,51,44,410,-28519,6468
5043947,2440,2979,2213,2702,3181,-88,93,-928,103,-44,-354,-7,-75,0,103,48,11,410,-28463,6468
5043966,2428,2964,2211,2699,3181,-88,93,-928,103,-44,-354,-7,-75,0,103,48,11,410,-28428,6468
5043979,2424,2959,2207,2694,3183,-91,88,-928,99,-47,-353,-4,-82,-7,173,61,-16,410,-28377,6468
5043999,2412,2945,2201,2687,3183,-92,83,-929,96,-49,-353,0,-62,-20,215,71,2,410,-28333,6468
5044018,2399,2929,2180,2661,3183,-92,83,-929,96,-49,-353,0,-62,-20,215,71,2,410,-28302,6468
5044031,2403,2934,2183,2665,3183,-94,81,-929,95,-52,-353,14,-126,-18,207,48,73,410,-28247,4317
5044053,2423,2958,2156,2632,3180,-95,78,-928,93,-54,-355,-1,-148,1,80,41,137,410,-28194,4317
5044072,2419,2953,2155,2631,3180,-95,78,-928,93,-54,-355,-1,-148,1,80,41,137,410,-28159,4317
5044085,2415,2948,2146,2620,3178,-97,81,-927,96,-54,-357,-2,-72,-50,-103,64,-33,410,-28112,4317
5044106,2402,2932,2165,2643,3179,-98,83,-927,98,-54,-356,16,-17,-40,16,93,-166,410,-28074,4317
5044125,2398,2927,2199,2684,3179,-98,83,-927,98,-54,-356,16,-17,-40,16,93,-166,410,-28049,4317
5044138,2392,2920,2166,2644,3184,-100,83,-929,98,-57,-351,15,-48,18,78,90,-74,410,-28013,3629
5044158,2410,2942,2144,2617,3185,-101,81,-928,97,-59,-352,10,-4,12,11,41,112,410,-27976,3629
5044178,2442,2981,2151,2626,3182,-103,81,-927,98,-59,-355,15,15,10,-58,15,176,410,-27939,3629
5044198,2434,2971,2156,2632,3179,-103,81,-927,98,-59,-356,30,7,2,-8,33,44,410,-27904,3629
5044217,2404,2935,2161,2638,3179,-103,81,-927,98,-59,-356,30,7,2,-8,33,44,410,-27882,3629
5044229,2406,2937,2158,2634,3181,-105,81,-928,98,-61,-354,34,-49,7,55,56,-126,410,-27850,3629
5044249,2411,2943,2141,2614,3183,-105,81,-928,98,-61,-352,26,-33,24,27,30,-29,410,-27821,2882
5044268,2432,2969,2148,2622,3183,-105,81,-928,98,-61,-352,26,-33,24,27,30,-29,410,-27798,2882
5044281,2420,2954,2122,2590,3181,-106,80,-927,98,-61,-354,10,83,0,-38,-17,102,410,-27760,2882
5044302,2415,2948,2138,2610,3180,-106,81,-927,99,-61,-355,12,69,-33,-48,-9,16,410,-27727,2882
5044321,2418,2952,2167,2645,3180,-106,81,-927,99,-61,-355,12,69,-33,-48,-9,16,410,-27706,2882
5044334,2400,2930,2138,2610,3181,-105,81,-927,99,1938,-353,16,4,-23,55,4,-52,410,-27671,2882
5044355,2431,2968,2141,2614,3182,-105,81,-928,98,-61,-353,13,40,26,12,-12,39,410,-27636,2893
5044375,2427,2963,2138,2610,3181,-105,81,-927,98,-61,-354,5,21,16,-58,-23,56,410,-27600,2893
5044396,2423,2958,2150,2625,3180,-105,81,-927,99,-60,-355,13,8,0,-6,-12,15,410,-27570,2893
5044414,2419,2953,2146,2620,3180,-105,81,-927,99,-60,-355,13,8,0,-6,-12,15,410,-27549,2893
5044427,2415,2948,2151,2626,3181,-105,81,-927,98,-61,-354,-7,69,43,54,0,-28,410,-27511,2893
5044447,2423,2958,2154,2630,3181,-105,80,-927,98,-61,-354,-7,79,17,-41,-13,-40,410,-27472,2893
5044466,2424,2959,2157,2633,3181,-105,80,-927,98,-61,-354,-7,79,17,-41,-13,-40,410,-27444,2867
5044480,2431,2968,2167,2645,3183,-104,83,-928,99,-59,-353,1,104,-15,-45,-14,-58,410,-27404,2867
5044500,2439,2978,2169,2648,3183,-103,83,-928,99,-59,-352,0,129,2,25,-4,-40,410,-27362,2867
5044519,2436,2974,2163,2641,3183,-103,83,-928,99,-59,-352,0,129,2,25,-4,-40,410,-27332,2867
5044532,2444,2984,2166,2644,3184,-103,82,-928,98,-59,-352,5,121,34,8,-3,28,410,-27276,2867
5044553,2455,2997,2160,2637,3183,-103,82,-928,98,-59,-353,9,166,39,-22,-17,64,410,-27224,2867
5044572,2480,3028,2191,2675,3183,-103,82,-928,98,-59,-353,9,166,39,-22,-17,64,410,-27184,4072
5044585,2476,3023,2177,2658,3181,-103,83,1072,99,-58,-354,-8,206,9,-5,-24,0,410,-27114,4072
5044607,2486,3035,2192,2676,3181,-102,83,-928,99,-58,-354,-3,189,10,17,-22,-46,410,-27045,4072
5044627,2495,3046,2191,2675,3182,-101,83,-928,98,-57,-353,7,173,1,3,-29,-38,410,-26964,4072
5044648,2533,3092,2232,2725,3183,-101,80,-928,96,-58,-353,-2,203,22,-20,-43,5,410,-26886,4072
5044667,2523,3080,2219,2709,3183,-101,80,-928,96,-58,-353,-2,203,22,-20,-43,5,410,-26828,4072
5044680,2540,3101,2229,2721,3181,-99,70,-928,88,-59,-355,9,180,0,-30,-50,30,410,-26732,6929
5044702,2536,3096,2229,2721,3180,-98,70,-928,88,-58,-355,13,157,21,-2,-53,23,410,-26639,6929
5044721,2575,3144,2258,2757,3180,-98,70,-928,88,-58,-355,13,157,21,-2,-53,23,410,-26570,6929
5044735,2558,3123,2253,2750,3180,-96,70,-928,87,-57,-356,-15,188,36,-12,-73,0,410,-26451,6929
5044757,2584,3155,2287,2792,3179,-96,65,-928,82,-58,-356,-8,147,12,-31,-73,-12,410,-26337,6929
5044778,2582,3152,2274,2776,3179,-95,60,-928,79,-58,-357,-7,92,19,-81,-80,-13,410,-26204,6929
5044800,2610,3186,2291,2797,3178,-93,62,-928,80,-55,-357,-9,91,16,-98,-84,5,410,-26071,9138
5044821,2598,3172,2299,2807,3178,-90,65,-928,81,-53,-357,-13,91,27,-116,-83,15,410,-25927,9138
5044843,2609,3185,2285,2789,3178,-89,68,-928,83,-51,-358,-2,90,1,-161,-81,4,410,-25780,9138
5044863,2616,3194,2331,2846,3177,-88,69,-928,83,-50,-358,-4,96,-23,-216,-68,0,410,-25621,9138
5044886,2659,3246,2347,2865,3176,-86,73,-928,86,-55,-358,-17,116,16,-163,-82,-11,410,-25458,9138
5044909,2655,3241,2360,2881,3176,-85,74,-928,87,-46,-358,-12,52,-5,-155,-82,-8,410,-25305,11666
5044930,2647,3231,2352,2871,3176,-84,76,-927,89,-44,-359,-14,22,-5,-109,-71,18,410,-25145,11666
5044953,2652,3238,2348,2866,3175,-82,78,-927,89,-42,-360,-20,29,0,-53,-66,34,410,-25003,11666
5044974,2656,3242,2374,2898,3174,-81,78,-927,89,-41,-360,-16,-21,-27,-1,-61,25,410,-24846,11666
5044997,2651,3236,2368,2891,3174,-80,77,-927,88,-41,-361,-16,-47,9,56,-56,22,410,-24707,11666
5045018,2630,3211,2367,2890,3173,20400,76,-927,87,-40,-361,-2,-84,-23,28,-58,45,410,-24553,11483
5045040,2637,3219,2339,2855,3172,-78,75,-927,86,-39,-362,-14,-86,-17,8,-61,48,410,-24409,11483
5045062,2638,3221,2336,2852,3171,-76,75,-926,85,-38,-363,-7,-77,-6,4,-59,17,410,-24257,11483
5045084,2623,3202,2359,2880,3171,-75,76,-927,86,-37,-363,-16,-57,19,-10,-58,-25,410,-24107,11483
5045107,2599,3173,2341,2858,3172,-74,77,-927,86,-36,-362,-20,-37,65,-3,-58,-57,410,-23973,11483
5045128,2598,3172,2344,2862,3173,-73,77,-927,85,-35,-361,4,-67,-64,36,-50,-6,410,-23826,10984
5045150,2595,3168,2328,2842,3173,-72,76,-927,85,-34,-361,-11,-89,-7,3,-53,65,410,-23695,10984
5045171,2591,3163,2316,2827,3171,-71,76,-927,84,-33,-363,-5,-115,-19,-8,-63,67,410,-23556,10984
5045193,2571,3139,2293,2799,3170,-70,76,-926,84,-32,-364,-4,-104,-34,-3,-45,13,410,-23432,10984
5045214,2572,3140,2287,2792,3170,-69,76,-927,83,-32,-364,-10,32645,7,9,-36,-15,410,-23297,10984
5045236,2533,3092,2273,2775,3171,-68,77,-927,84,-31,-363,8,32678,-60,21,-18,-18,410,-23164,10200
5045259,2535,3095,2273,2775,3171,-68,78,-927,85,-30,-363,2,-113,-40,22,-33,21,410,-23048,10200
5045280,2526,3084,2259,2758,3171,-67,78,-926,86,-29,-363,0,-128,-47,29,-17,43,410,-22936,10200
5045302,2516,3072,2251,2748,3170,-67,80,-926,86,-29,-364,4,-144,-37,43,-12,35,410,-22835,10200
5045322,2498,3050,2247,2743,3170,-67,79,-926,85,-29,-364,3,-142,-42,43,-12,20,410,-22734,10200
5045342,2487,3036,2228,2720,3170,-66,82,-926,88,-28,-364,-2,-122,-22,45,-10,6,410,-22639,8254
5045363,2483,3031,2232,2725,3170,-66,84,-926,91,-27,-364,0,-116,-8,56,-1,-3,410,-22554,8254
5045382,2481,3029,2212,2700,3170,-66,84,-926,91,-27,-364,0,-116,-8,56,-1,-3,410,-22499,8254
5045395,2477,3024,2213,2702,3170,-67,90,-926,94,-26,-363,-8,-100,0,66,2,-2,410,-22422,8254
5045414,2455,2997,2204,2691,3170,-67,90,-926,94,-26,-363,-8,-100,0,66,2,-2,410,-22371,8254
5045427,2459,3002,2211,2699,3171,-67,93,-926,97,-25,-363,-6,-83,-3,83,-11,-6,410,-22290,8254
5045449,2453,2995,2202,2688,3171,-67,94,-926,97,-25,-363,-6,-66,9,90,-10,-6,410,-22220,6542
5045468,2434,2971,2207,2694,3171,-67,94,-926,97,-25,-363,-6,-66,9,90,-10,-6,410,-22175,6542
5045481,2440,2979,2204,2691,3171,-66,92,-926,95,-25,-363,4,-56,-11,104,-22,8,410,-22109,6542
5045501,2436,2974,2194,2678,3171,-66,91,-926,95,-25,-363,-2,-46,-3,113,-26,14,410,-22049,6542
5045520,2434,2971,2190,2673,3171,-66,91,-926,95,-25,-363,-2,-46,-3,113,-26,14,410,-22008,6542
5045534,2442,2981,2200,2686,3171,-65,88,-926,92,-25,-363,0,-25,-20,120,-20,6,410,-21945,6542
5045554,2440,2979,2191,2675,3171,-65,85,-926,90,-26,-363,-1,-23,-19,110,-14,-8,410,-21886,5285
5045574,2441,2980,2198,2683,3171,-65,83,-927,88,-26,-363,5,-9,-24,106,-10,-10,410,-21825,5285
5045594,2443,2982,2196,2681,3172,-65,81,-927,87,-27,-362,0,-10,-10,93,-11,1,410,-21768,5285
5045613,2439,2978,2188,2671,3172,-65,81,-927,87,-27,-362,0,-10,-10,93,-11,1,410,-21727,5285
5045626,2447,2987,2194,2678,3171,-65,80,-927,85,-27,-363,-2,0,-21,30,-5,21,410,-21659,5285
5045647,2447,2987,2207,2694,3171,-65,80,-927,86,-27,-363,11,-11,-25,-13,-2,25,410,-21601,5285
5045666,2461,3004,2192,2676,3171,-65,80,-927,86,-27,-363,11,-11,-25,-13,-2,25,410,-21561,4836
5045680,2445,2985,2192,2676,3171,-65,81,-927,86,-27,-363,10,-2,-23,7,13,-7,410,-21499,4836
5045701,2447,2987,2210,2698,3171,-65,80,-927,86,-27,-363,6,-2,-10,19,20,-6,410,-21443,4836
5045720,2445,2985,2200,2686,3171,-65,80,-927,86,-27,-363,6,-2,-10,19,20,-6,410,-21405,4836
5045733,2441,2980,2196,2681,3171,-66,80,-927,86,-28,-363,3,-4,3,-11,21,16,410,-21347,4836
5045752,2449,2990,2203,2689,3171,-66,80,-927,86,-28,-363,3,-4,3,-11,21,16,410,-21311,4836
5045765,2448,2989,2196,2681,3170,-66,80,-926,86,-28,-364,3,-2,7,1,21,18,410,-21255,4836
5045785,2456,2998,2193,2677,3170,-67,80,-926,86,-29,-364,8,0,-1,5,17,13,410,-21201,5042
5045805,2442,2981,2178,2659,3170,-67,80,-926,86,-29,-364,8,7,-1,-1,16,11,410,-21151,5042
5045823,2441,2980,2188,2671,3170,-67,80,-926,86,-29,-364,8,7,-1,-1,16,11,410,-21118,5042
5045836,2440,2979,2199,2684,3170,-68,80,-926,87,-30,-364,0,0,7,10,15,8,410,-21064,5042
5045856,2435,2973,2191,2675,3170,-68,80,-926,86,-30,-364,-3,0,13,14,16,15,410,-21015,5042
5045874,2429,2965,2176,2656,3170,-68,80,-926,86,-30,-364,-3,0,13,14,16,15,410,-20982,5042
5045887,2437,2975,2192,2676,3169,-68,80,-926,87,-30,-364,-1,-15,0,-10,3,5,410,-20926,4493
5045908,2434,2971,2189,2672,3169,-68,80,-926,87,-30,-365,-2,15,8,-8,-8,-10,410,-20872,4493
5045929,2419,2953,2183,2665,3170,20411,80,-926,87,-30,-364,-6,17,6,0,-13,-15,410,-20822,4493
5045950,2410,2942,2179,2660,3170,-68,80,-926,86,-30,-364,3,11,-8,13,-13,-9,410,-20777,4493
5045969,2418,2952,2179,2660,3170,-68,80,-926,86,-30,-364,3,11,-8,13,-13,-9,410,-20746,4493
5045982,2408,2940,2170,2649,3170,20412,79,-926,86,-29,-364,1,3,-7,3,-16,21,410,-20699,4493
5046002,2412,2945,2174,2654,3169,-67,80,-926,86,-29,-365,-4,-1,-7,-8,-12,20,410,-20655,3913
5046021,2409,2941,2178,2659,3169,-67,80,-926,86,-29,-365,-4,-1,-7,-8,-12,20,410,-20626,3913
5046034,2392,2920,2174,2654,3168,-67,80,-926,86,-29,-365,-1,-3,-6,5,-3,-6,410,-20583,3913
5046053,2388,2915,2172,2652,3168,-67,80,-926,86,-29,-365,-1,-3,-6,5,-3,-6,410,-20555,3913
5046066,2402,2932,2176,2656,3169,-66,79,-926,85,-29,-365,-1,-8,7,23,4,-11,410,-20514,3913
5046086,2393,2921,2171,2650,3169,-67,79,-926,85,-29,-365,-1,-12,2,3,2,8,410,-20474,3913
5046105,2403,2934,2172,2652,3169,-67,79,-926,85,-29,-365,-1,-12,2,3,2,8,410,-20448,3333
5046117,2399,2929,2164,2642,3168,-67,80,-926,86,-29,-365,-3,-10,3,-20,8,21,410,-20410,3333
5046137,2399,2929,2175,2655,3168,-67,80,-926,86,-29,-365,2,-7,-3,-4,11,8,410,-20371,3333
5046158,2397,2926,2167,2645,3168,-68,80,-926,86,-29,-365,1,-10,-7,11,14,-5,410,-20338,3333
5046176,2403,2934,2164,2642,3168,-68,80,-926,86,-29,-365,1,-10,-7,11,14,-5,410,-20316,3333
5046189,2393,2921,2160,2637,3168,-68,79,-926,86,-30,-365,2,-12,-4,11,15,10,410,-20280,3333
5046210,2376,2901,2159,2636,3168,-68,79,-926,86,-30,-365,6,-15,-6,1,15,18,410,-20249,3158
5046229,2415,2948,2158,2634,3168,-68,79,-926,86,-30,-365,6,-15,-6,1,15,18,410,-20229,3158
5046241,2424,2959,2160,2637,3168,-69,80,-925,86,-30,-366,2,-17,-7,-5,14,10,410,-20198,3158
5046262,2405,2936,2159,2636,3168,-69,80,-925,87,-31,-366,6,-12,-7,3,11,-6,410,-20172,3158
5046281,2431,2968,2162,2639,3168,-69,80,-925,87,-31,-366,6,-12,-7,3,11,-6,410,-20154,3158
5046293,2409,2941,2165,2643,3168,20410,80,-925,87,-31,-366,9,-3,-22,-3,11,-18,410,-20127,3158
5046313,2412,2945,2167,2645,3168,-70,80,-926,87,-31,-365,6,12,-11,-5,11,-11,410,-20103,2362
5046332,2406,2937,2167,2645,3168,-70,80,-926,87,-31,-365,6,12,-11,-5,11,-11,410,-20088,2362
5046344,2412,2945,2173,2653,3168,-70,80,-926,87,-31,-365,0,6,-2,6,5,8,410,-20065,2362
5046363,2414,2947,2175,2655,3168,-70,80,-926,87,-31,-365,0,6,-2,6,5,8,410,-20051,2362
5046375,2411,2943,2172,2652,3168,-70,79,-925,86,-31,-366,3,1,-10,19,-2,13,410,-20030,2362
5046395,2416,2949,2169,2648,3168,-150,79,-925,86,-31,-366,4,-7,-5,3,-3,8,410,-20009,2362
5046414,2412,2945,2167,2645,3168,-150,79,-925,86,-31,-366,4,-7,-5,3,-3,8,410,-19995,1782
5046426,2410,2942,2169,2648,3168,-70,79,-925,86,-31,-366,4,3,-5,-9,-4,-3,410,-19976,1782
5046445,2425,2960,2174,2654,3168,-70,79,-925,86,-31,-366,4,3,-5,-9,-4,-3,410,-19964,1782
5046457,2405,2936,2166,2644,3168,-70,79,-926,86,-31,-365,2,8,-1,12,-4,-19,410,-19947,1782
5046475,2405,2936,2164,2642,3168,-70,79,-926,86,-31,-365,2,8,-1,12,-4,-19,410,-19936,1782
5046488,2409,2941,2175,2655,3168,-70,79,-926,86,-31,-365,1,9,0,8,0,-3,410,-19917,1782
5046507,2404,2935,2167,2645,3168,-70,79,-926,86,-31,-365,1,9,0,8,0,-3,410,-19906,1782
5046519,2410,2942,2166,2644,3168,-70,78,-926,86,-31,-365,0,24,1,-7,0,16,410,-19887,1730
5046539,2408,2940,2169,2648,3168,-70,78,-926,86,-31,-365,-5,61,7,-3,0,-7,410,-19864,1730
5046561,2399,2929,2169,2648,3168,-70,78,-926,86,-31,-365,-11,89,9,-2,3,-41,410,-19840,1730
5046579,2401,2931,2171,2650,3168,-70,78,-926,86,-31,-365,-11,89,9,-2,3,-41,410,-19822,1730
5046592,2401,2931,2168,2647,3170,-70,79,-926,86,-31,-364,-16,169,32,-20,10,-50,410,-19788,1730
5046613,2400,2930,2173,2653,3171,-70,80,-926,87,-31,-363,-9,168,27,-29,15,-17,410,-19753,1730
5046633,2408,2940,2178,2659,3171,20410,80,-926,87,-31,-363,-15,172,23,-46,12,21,410,-19708,2587
5046654,2431,2968,2179,2660,3171,-70,81,-926,88,-31,-363,-12,188,12,-67,15,32,410,-19661,2587
5046673,2412,2945,2183,2665,3171,-70,81,-926,88,-31,-363,-12,188,12,-67,15,32,410,-19626,2587
5046686,2431,2968,2164,2642,3170,-71,75,-926,84,-34,-365,-2,112,2,-101,13,8,410,-19569,2587
5046707,2425,2960,2190,2673,3169,-71,77,-926,86,-33,-365,-1,135,16,-120,10,1,410,-19509,2587
5046726,2426,2962,2198,2683,3169,-71,77,-926,86,-33,-365,-1,135,16,-120,10,1,410,-19466,2587
5046739,2432,2969,2201,2687,3169,-72,80,-926,87,-33,-365,-4,152,22,20342,11,-14,410,-19390,4952
5046761,2448,2989,2217,2706,3168,-72,77,-926,85,-34,-365,-7,140,24,-145,10,-10,410,-19322,4952
5046780,2453,2995,2221,2711,3168,-72,77,-926,85,-34,-365,-7,140,24,-145,10,-10,410,-19273,4952
5046794,2459,3002,2247,2743,3168,-73,77,-926,86,-34,-365,4,159,0,-56,13,-17,410,-19195,4952
5046815,2463,3007,2250,2747,3169,-73,78,-926,87,-34,-365,-1,125,16,20,18,-6,410,-19122,4952
5046834,2467,3012,2247,2743,3169,-73,78,-926,87,-34,-365,-1,125,16,20,18,-6,410,-19070,4952
5046848,2491,3041,2258,2757,3168,-74,76,-925,86,-35,-365,-11,127,27,38,16,40,410,-18987,6146
5046868,2489,3039,2250,2747,3167,-75,74,-925,84,-37,-366,-4,102,14,9,16,40,410,-18896,6146
5046887,2508,3062,2258,2757,3167,-75,74,-925,84,-37,-366,-4,102,14,9,16,40,410,-18832,6146
5046901,2503,3056,2276,2778,3166,-75,68,-925,79,-39,-367,-2,122,16,-21,18,-11,410,-18736,6146
5046920,2520,3076,2287,2792,3166,-75,68,-925,79,-39,-367,-2,122,16,-21,18,-11,410,-18666,6146
5046934,2552,3115,2304,2813,3167,-76,62,-926,75,-41,-366,3,135,22,-5,18,-48,410,-18551,6146
5046956,2539,3100,2308,2818,3168,-76,58,-926,71,-43,-366,-6,136,38,21,19,-21,410,-18440,8395
5046976,2565,3131,2318,2830,3168,-76,57,-926,71,-44,-366,-2,112,25,12,11,25,410,-18321,8395
5046997,2574,3142,2319,2831,3167,-76,55,-926,67,-45,-367,-2,86,20,11,0,58,410,-18198,8395
5047018,2577,3146,2308,2818,3166,-76,53,-926,67,-45,-368,2,42,10,20,-3,54,410,-18066,8395
5047039,2589,3161,2319,2831,3165,-76,52,-925,67,-45,-368,-3,25,14,20,-5,31,410,-17926,8395
5047062,2585,3156,2314,2825,3165,20403,51,-925,67,-45,-368,1,23,-137,-11,-5,-10,410,-17779,10345
5047085,2595,3168,2343,2860,3165,-76,52,-925,67,-45,-368,0,44,9,17,-7,-18,410,-17638,10345
5047107,2593,3166,2355,2875,3165,-76,51,-926,66,-45,-368,15,-5,-41,15,-10,-11,410,-17507,10345
5047128,2587,3158,2335,2851,3165,-76,51,-926,66,-45,-368,16,-22,-40,4,-12,21,410,-17361,10345
5047150,2584,3155,2335,2851,3165,-76,51,-925,66,-45,-369,-4,-32,-9,-5,-16,40,410,-17231,10345
5047170,2577,3146,2312,2822,3164,-75,51,-925,66,-45,-369,-9,-55,-13,13,-20,31,410,-17084,10694
5047193,2580,3150,2320,2832,3163,-75,51,-925,65,-44,-370,0,-60,-20,1,-20,11,410,-16936,10694
5047216,2576,3145,2336,2852,3163,-75,51,-925,65,-44,-370,1,-55,-14,-17,-20,3,410,-16806,10694
5047236,2576,3145,2336,2852,3163,-74,53,-925,67,-43,-370,-4,-70,-15,-14,-10,-11,410,-16673,10694
5047258,2571,3139,2348,2866,3163,-74,54,-925,68,-43,-369,-39,-33,75,29,-9,-10,410,-16549,10694
5047278,2560,3125,2339,2855,3164,-74,53,-925,67,-43,-369,-13,-186,-47,52,-8,8,410,-16420,10231
5047301,2528,3086,2318,2830,3163,-74,50,-925,65,-44,-370,15,-101,-8,117,26,68,410,-16305,10231
5047321,2516,3072,2272,2774,3161,-74,48,-924,63,-44,-372,10,-71,27,93,-37,121,410,-16175,10231
5047344,2520,3076,2301,2809,3158,-73,46,-924,62,-44,-374,13,-91,-12,68,-73,163,410,-16046,10231
5047366,2533,3092,2280,2783,3155,-71,46,-923,61,-42,-376,0,-90,-14,45,-85,135,410,-15927,10231
5047387,2487,3036,2241,2736,3153,-70,45,-922,60,-41,-379,5,-94,-36,10,-65,94,410,-15805,9373
5047409,2512,3067,2304,2813,3151,-69,45,-921,59,-40,-381,-28,-77,33,30,-92,106,410,-15693,9373
5047429,2544,3106,2282,2786,3149,-68,44,-921,60,-38,-382,1,-125,-32,-9,-75,73,410,-15574,9373
5047451,2531,3090,2234,2727,3148,-66,46,-921,59,-38,-382,12,-116,-41,-2,-48,3,410,-15466,9373
5047470,2479,3026,2231,2724,3148,-66,46,-921,59,-38,-382,12,-116,-41,-2,-48,3,410,-15394,9373
5047484,2502,3054,2255,2753,3149,-65,46,1078,59,1962,-381,11,-145,-41,11,-26,-64,410,-15283,9373
5047507,2480,3028,2252,2749,3150,-64,46,-921,59,-36,-380,9,-123,-26,13,-30,-31,410,-15185,8611
5047527,2469,3014,2248,2744,3151,-63,50,-922,62,-34,-380,4,-113,-24,16,-33,11,410,-15088,8611
5047548,2483,3031,2240,2735,3151,-63,54,-921,66,-32,-380,-11,-80,-3,19,-31,46,410,-14994,8611
5047569,2491,3041,2232,2725,3150,-62,55,-921,65,-31,-381,-13,-58,-8,15,-34,33,410,-14903,8611
5047589,2479,3026,2233,2726,3150,-61,55,-921,65,-31,-381,-28,-48,12,18,-23,-15,410,-14806,8611
5047610,2491,3041,2233,2726,3150,-61,55,-921,64,-31,-380,-27,-10,31,13,-17,-53,410,-14713,7621
5047630,2487,3036,2240,2735,3151,-60,55,-922,64,-31,-379,-22,7,20,-6,-18,-68,410,-14613,7621
5047651,2464,3008,2252,2749,3153,-60,55,-922,65,-30,-378,-4,6,-22,-11,-28,-62,410,-14523,7621
5047671,2475,3021,2250,2747,3153,-59,56,-922,65,-29,-378,0,0,-31,-13,-31,-17,410,-14426,7621
5047692,2482,3030,2242,2737,3153,-58,56,-922,65,-29,-378,5,-25,-44,-15,-35,23,410,-14330,7621
5047713,2487,3036,2240,2735,3153,-58,56,-922,65,-28,-379,2,-66,-33,-6,-24,33,410,-14243,7605
5047733,2483,3031,2263,2763,3152,-58,56,-922,64,-28,-379,7,-67,-36,17,-30,21,410,-14147,7605
5047755,2471,3017,2239,2733,3152,-57,55,-922,64,-28,-379,6,-78,-41,23,-28,15,410,-14067,7605
5047774,2470,3015,2237,2731,3152,-57,55,-922,64,-28,-379,6,-78,-41,23,-28,15,410,-14013,7605
