Timestamp_ms,ADC1_Raw,ADC1_V_milli,ADC2_Raw,ADC2_V_milli,Heading_deci,Roll_deci,Pitch_deci,Quat_W_milli,Quat_X_milli,Quat_Y_milli,Quat_Z_milli,LinAccel_X_centi,LinAccel_Y_centi,LinAccel_Z_centi,AngVel_X_deci,AngVel_Y_deci,AngVel_Z_deci,Temp_C_deci,Encoder_Count,Encoder_RPM_deci
5088164,2380,2905,2199,2684,3175,-18,75,-930,67,8,-360,0.0,2.0,-10.0,10.0,5.0,-6.0,410.0,-37052.0,916.0
5088176,2377,2902,2185,2667,3175,-18,75,-930,67,8,-360,0.0,4.0,-1.0,-5.0,3.0,-2.0,410.0,-37039.0,916.0
5088195,2391,2919,2178,2659,3175,-18,75,-930,67,8,-360,0.0,4.0,-1.0,-5.0,3.0,-2.0,410.0,-37031.0,916.0
5088207,2380,2905,2191,2675,3175,-18,75,-930,67,8,-360,-3.0,4.0,2.0,-7.0,-2.0,0.0,410.0,-37019.0,1126.0
5088226,2381,2907,2184,2666,3175,-18,75,-930,67,8,-360,-3.0,4.0,2.0,-7.0,-2.0,0.0,410.0,-37012.0,1126.0
5088238,2380,2905,2184,2666,3175,-18,75,-930,67,8,-360,-4.0,-1.0,-6.0,8.0,3.0,1.0,410.0,-37001.0,1126.0
5088257,2380,2905,2187,2670,3175,-18,75,-930,67,8,-360,-4.0,-1.0,-6.0,8.0,3.0,1.0,410.0,-36994.0,1126.0
5088269,2381,2907,2183,2665,3175,-18,74,-930,66,8,-360,-5.0,-5.0,-9.0,16.0,-3.0,3.0,410.0,-36984.0,1126.0
5088287,2383,2909,2187,2670,3175,-18,74,-930,66,8,-360,-5.0,-5.0,-9.0,16.0,-3.0,3.0,410.0,-36977.0,1126.0
5088299,2375,2899,2188,2671,3175,-18,74,-930,66,8,-360,-6.0,-9.0,-1.0,9.0,-8.0,3.0,410.0,-36967.0,1126.0
5088317,2382,2908,2186,2669,3175,-18,74,-930,66,8,-360,-6.0,-9.0,-1.0,9.0,-8.0,3.0,410.0,-36959.0,909.0
5088330,2380,2905,2189,2672,3175,-18,74,-930,66,8,-360,-4.0,-4.0,-7.0,2.0,-10.0,2.0,410.0,-36950.0,909.0
5088347,2378,2903,2184,2666,3175,-18,74,-930,66,8,-360,-4.0,-4.0,-7.0,2.0,-10.0,2.0,410.0,-36943.0,909.0
5088359,2384,2910,2188,2671,3175,-18,74,-930,66,8,-360,-7.0,-6.0,-15.0,-4.0,-8.0,-2.0,410.0,-36932.0,909.0
5088378,2377,2902,2185,2667,3175,-18,74,-930,66,8,-360,-7.0,-6.0,-15.0,-4.0,-8.0,-2.0,410.0,-36925.0,909.0
5088390,2380,2905,2190,2673,3175,-18,74,-930,66,8,-360,-8.0,0.0,-1.0,-5.0,-8.0,-2.0,410.0,-36915.0,909.0
5088410,2381,2907,2186,2669,3175,-17,74,-930,66,8,-360,-8.0,3.0,-3.0,-9.0,-8.0,-2.0,410.0,-36904.0,909.0
5088428,2383,2909,2180,2661,3175,-17,74,-930,66,8,-360,-8.0,3.0,-3.0,-9.0,-8.0,-2.0,410.0,-36897.0,930.0
5088440,2376,2901,2197,2682,3175,-17,74,-930,66,9,-360,-8.0,4.0,-8.0,-11.0,-8.0,-3.0,410.0,-36886.0,930.0
5088459,2389,2916,2188,2671,3175,-17,74,-930,66,9,-360,-8.0,4.0,-8.0,-11.0,-8.0,-3.0,410.0,-36879.0,930.0
5088471,2379,2904,2186,2669,3176,-17,75,-930,66,9,-360,-7.0,17.0,-7.0,-9.0,-3.0,-11.0,410.0,-36867.0,930.0
5088491,2376,2901,2184,2666,3176,-17,75,-930,66,9,-360,-5.0,15.0,-5.0,-8.0,-3.0,-10.0,410.0,-36855.0,930.0
5088511,2393,2921,2178,2659,3176,-17,75,-930,66,9,-360,1.0,12.0,-8.0,-1.0,0.0,-3.0,410.0,-36844.0,930.0
5088529,2374,2898,2182,2664,3176,-17,75,-930,66,9,-360,1.0,12.0,-8.0,-1.0,0.0,-3.0,410.0,-36837.0,1006.0
5088542,2384,2910,2184,2666,3176,-17,75,-930,66,9,-360,4.0,0.0,-1.0,0.0,3.0,6.0,410.0,-36825.0,1006.0
5088561,2368,2891,2187,2670,3176,-17,75,-930,66,9,-360,4.0,0.0,-1.0,0.0,3.0,6.0,410.0,-36817.0,1006.0
5088573,2381,2907,2192,2676,3176,-17,75,-930,66,9,-360,1.0,-3.0,-4.0,2.0,-3.0,5.0,410.0,-36805.0,1006.0
5088593,2382,2908,2185,2667,3176,-17,75,-930,66,9,-360,1.0,-8.0,-3.0,0.0,-9.0,-5.0,410.0,-36793.0,1006.0
5088614,2372,2896,2188,2671,3176,-16,75,-930,66,1,-360,5.0,-7.0,-6.0,1.0,-15.0,-10.0,410.0,-36781.0,1006.0
5088634,2384,2910,2188,2671,3176,-16,75,-930,66,9,-360,-1.0,-4.0,0.0,1.0,-21.0,-7.0,410.0,-36771.0,1031.0
5088652,2378,2903,2182,2664,3176,-16,75,-930,66,9,-360,-1.0,-4.0,0.0,1.0,-21.0,-7.0,410.0,-36765.0,1031.0
5088664,2380,2905,2185,2667,3176,-15,75,-930,66,10,-360,-2.0,-8.0,-1.0,3.0,-27.0,7.0,410.0,-36755.0,1031.0
5088685,2376,2901,2187,2670,3176,-15,75,-930,66,10,-360,-1.0,-13.0,0.0,5.0,-27.0,9.0,410.0,-36746.0,1031.0
5088703,2376,2901,2191,2675,3176,-15,75,-930,66,10,-360,-1.0,-13.0,0.0,5.0,-27.0,9.0,410.0,-36740.0,1031.0
5088715,2383,2909,2184,2666,3175,-14,75,-930,65,11,-360,-5.0,-18.0,2.0,8.0,-32.0,-5.0,410.0,-36730.0,1031.0
5088735,2379,2904,2191,2675,3176,-13,75,-930,65,12,-360,-1.0,-9.0,-4.0,9.0,-35.0,-7.0,410.0,-36721.0,825.0
5088754,2372,2896,2188,2671,3176,-13,75,-930,65,12,-360,-1.0,-9.0,-4.0,9.0,-35.0,-7.0,410.0,-36716.0,825.0
5088766,2382,2908,2176,2656,3176,-13,75,-930,65,12,-368,-10.0,-3.0,5.0,-7.0,-40.0,-5.0,410.0,-36706.0,825.0
5088786,2374,2898,2184,2666,3176,-11,75,-930,65,13,-360,-7.0,-3.0,0.0,-6.0,-43.0,1.0,410.0,-36699.0,825.0
5088804,2375,2899,2183,2665,3176,-11,75,-930,65,13,-360,-7.0,-3.0,0.0,-6.0,-43.0,1.0,410.0,-36694.0,825.0
5088816,2389,2916,2189,2672,3175,-10,75,-930,64,14,-360,-8.0,-8.0,-9.0,2.0,-37.0,4.0,410.0,-36686.0,825.0
5088836,2373,2897,2191,2675,3175,-10,75,-930,64,15,-360,1.0,-6.0,-17.0,7.0,-33.0,2.0,410.0,-36679.0,709.0
5088854,2390,2918,2186,2669,3175,-10,75,-930,64,15,-360,1.0,-6.0,-17.0,7.0,-33.0,2.0,410.0,-36674.0,709.0
5088867,2377,2902,2191,2675,3175,-9,75,-930,64,15,-360,-7.0,-7.0,-4.0,3.0,-26.0,-11.0,410.0,-36667.0,709.0
5088887,2375,2899,2181,2663,3176,-8,75,-930,63,16,-360,-3.0,-1.0,-7.0,0.0,-26.0,-11.0,410.0,-36660.0,709.0
5088905,2368,2891,2187,2670,3176,-8,75,-930,63,16,-360,-3.0,-1.0,-7.0,0.0,-26.0,-11.0,410.0,-36656.0,709.0
5088917,2375,2899,2184,2666,3176,-8,75,-930,63,16,-360,-16.0,-5.0,15.0,1.0,-25.0,-6.0,410.0,-36649.0,709.0
5088937,2377,2902,2189,2672,3176,-7,75,-930,63,17,-360,-9.0,-3.0,-4.0,11.0,-45.0,0.0,410.0,-36645.0,561.0
5088955,2383,2909,2192,2676,3176,-7,75,-930,63,17,-360,-9.0,-3.0,-4.0,11.0,-45.0,0.0,410.0,-36642.0,561.0
5088967,2375,2899,2186,2669,3176,-6,74,-930,62,17,-360,0.0,-9.0,-14.0,31.0,-31.0,0.0,410.0,-36638.0,561.0
5088987,2368,2891,2202,2688,3176,-5,73,-930,62,18,-360,0.0,-14.0,-27.0,30.0,-30.0,-1.0,410.0,-36634.0,561.0
5089005,2386,2913,2198,2683,3176,-5,73,-930,62,18,-360,0.0,-14.0,-27.0,30.0,-30.0,-1.0,410.0,-36632.0,561.0
5089018,2375,2899,2191,2675,3176,-5,73,-930,61,18,-360,8.0,-7.0,-45.0,20.0,-39.0,-3.0,410.0,-36628.0,561.0
5089038,2379,2904,2195,2680,3176,-4,72,-930,60,19,-360,8.0,-17.0,-44.0,3.0,-35.0,-4.0,410.0,-36624.0,346.0
5089056,2388,2915,2195,2680,3176,-4,72,-930,60,19,-360,8.0,-17.0,-44.0,3.0,-35.0,-4.0,410.0,-36622.0,346.0
5089068,2381,2907,2191,2675,3176,-3,72,-930,60,20,-360,-4.0,-15.0,-5.0,-5.0,-21.0,-6.0,410.0,-36619.0,346.0
5089088,2377,2902,2200,2686,3176,-3,72,-930,60,20,-360,-2.0,-9.0,-5.0,-4.0,-30.0,-5.0,410.0,-36616.0,346.0
5089106,2375,2899,2196,2681,3176,-3,72,-930,60,20,-360,-2.0,-9.0,-5.0,-4.0,-30.0,-5.0,410.0,-36615.0,346.0
5089118,2369,2892,2193,2677,3176,-1,73,-930,60,21,-360,0.0,-16.0,-13.0,-1.0,-36.0,-3.0,410.0,-36614.0,346.0
5089138,2368,2891,2196,2681,3176,-1,73,-930,60,21,-360,-5.0,-19.0,-5.0,-1.0,-35.0,-5.0,410.0,-36614.0,166.0
5089156,2381,2907,2199,2684,3176,-1,73,-930,60,21,-360,-5.0,-19.0,-5.0,-1.0,-35.0,-5.0,410.0,-36614.0,166.0
5089168,2376,2901,2189,2672,3176,-80,73,-930,59,22,-360,-12.0,-6.0,17.0,6.0,-30.0,-5.0,410.0,-36614.0,166.0
5089188,2373,2897,2194,2678,3176,0,73,-930,59,23,-360,-8.0,-14.0,11.0,0.0,-28.0,-3.0,410.0,-36614.0,166.0
5089206,2376,2901,2195,2680,3176,0,73,-930,59,23,-360,-8.0,-14.0,11.0,0.0,-28.0,-3.0,410.0,-36614.0,166.0
5089218,2376,2901,2192,2676,3176,0,73,-930,59,23,-360,-9.0,-8.0,-4.0,-8.0,-21.0,-7.0,410.0,-36614.0,166.0
5089238,2371,2894,2188,2671,3176,0,73,-930,59,24,-360,-8.0,-3.0,-3.0,-9.0,-23.0,-7.0,410.0,-36614.0,0.0
5089256,2377,2902,2196,2681,3176,0,73,-930,59,24,-360,-8.0,-3.0,-3.0,-9.0,-23.0,-7.0,410.0,-36614.0,0.0
5089268,2372,2896,2200,2686,3176,1,73,-930,59,24,-360,-8.0,6.0,-13.0,-16.0,-26.0,-10.0,410.0,-36614.0,0.0
5089287,2377,2902,2198,2683,3176,1,73,-930,59,24,-360,-8.0,6.0,-13.0,-16.0,-26.0,-10.0,410.0,-36614.0,0.0
5089300,2377,2902,2198,2683,3176,2,74,-930,59,25,-360,-10.0,17.0,-7.0,-14.0,-31.0,-6.0,410.0,-36614.0,0.0
5089317,2373,2897,2199,2684,3176,2,74,-930,59,25,-360,-10.0,17.0,-7.0,-14.0,-31.0,-6.0,410.0,-36614.0,0.0
5089330,2373,2897,2199,2684,3176,3,74,-930,59,26,-360,-5.0,21.0,-13.0,-6.0,-38.0,-8.0,410.0,-36614.0,0.0
5089349,2367,2890,2200,2686,3176,3,74,-930,59,26,-360,-5.0,21.0,-13.0,-6.0,-38.0,-8.0,410.0,-36614.0,0.0
5089361,2375,2899,2194,2678,3176,4,74,-930,59,27,-359,-5.0,21.0,-10.0,3.0,-28.0,0.0,410.0,-36614.0,0.0
5089380,2376,2901,2192,2676,3176,4,74,-930,59,27,-359,-5.0,21.0,-10.0,3.0,-28.0,0.0,410.0,-36614.0,0.0
5089391,2368,2891,2198,2683,3176,5,74,-930,58,27,-360,-10.0,10.0,-12.0,8.0,-23.0,9.0,410.0,-36614.0,0.0
5089409,2373,2897,2197,2682,3176,5,74,-930,58,27,-360,-10.0,10.0,-12.0,8.0,-23.0,9.0,410.0,-36614.0,0.0
5089421,2375,2899,2192,2676,3176,5,73,-930,58,28,-360,-11.0,0.0,6.0,11.0,-16.0,7.0,410.0,-36614.0,0.0
5089439,2376,2901,2199,2684,3176,5,73,-930,58,28,-360,-11.0,0.0,6.0,11.0,-16.0,7.0,410.0,-36614.0,0.0
5089451,2379,2904,2212,2700,3176,5,73,-930,57,28,-360,-10.0,-6.0,-2.0,10.0,-8.0,0.0,410.0,-36614.0,0.0
5089470,2377,2902,2192,2676,3176,5,73,-930,57,28,-360,-10.0,-6.0,-2.0,10.0,-8.0,0.0,410.0,-36614.0,0.0
5089481,2375,2899,2196,2681,3176,6,73,-930,57,28,-360,-9.0,-3.0,-7.0,5.0,-9.0,-3.0,410.0,-36614.0,0.0
5089500,2376,2901,2201,2687,3176,6,73,-930,57,28,-360,-9.0,-3.0,-7.0,5.0,-9.0,-3.0,410.0,-36614.0,0.0
5089512,2368,2891,2198,2683,3176,6,73,-930,57,28,-360,-8.0,0.0,-9.0,0.0,-8.0,-3.0,410.0,-36614.0,0.0
5089530,2375,2899,2201,2687,3176,6,73,-930,57,28,-360,-8.0,0.0,-9.0,0.0,-8.0,-3.0,410.0,-36614.0,0.0
5089541,2376,2901,2199,2684,3176,6,73,-930,57,28,-360,-6.0,4.0,-8.0,-3.0,5.0,-3.0,410.0,-36614.0,0.0
5089560,2378,2903,2203,2689,3176,6,73,-930,57,28,-360,-6.0,4.0,-8.0,-3.0,5.0,-3.0,410.0,-36614.0,0.0
5089571,2376,2901,2200,2686,3176,6,73,-930,57,28,-360,-7.0,7.0,-12.0,-2.0,8.0,-2.0,410.0,-36614.0,0.0
5089590,2373,2897,2201,2687,3176,6,73,-930,57,28,-360,-7.0,7.0,-12.0,-2.0,8.0,-2.0,410.0,-36614.0,0.0
5089601,2375,2899,2198,2683,3176,5,73,-930,57,28,-360,-7.0,4.0,-10.0,-1.0,13.0,-2.0,410.0,-36614.0,0.0
5089620,2389,2916,2197,2682,3176,5,73,-930,57,28,-360,-7.0,4.0,-10.0,-1.0,13.0,-2.0,410.0,-36614.0,0.0
5089632,2375,2899,2200,2686,3176,5,73,-930,58,27,-360,-12.0,3.0,3.0,-2.0,12.0,3.0,410.0,-36614.0,0.0
5089650,2370,2893,2199,2684,3176,5,73,-930,58,27,-360,-12.0,3.0,3.0,-2.0,12.0,3.0,410.0,-36614.0,0.0
5089661,2409,2941,2201,2687,3176,5,73,-930,58,27,-360,-9.0,2.0,-3.0,1.0,9.0,3.0,410.0,-36614.0,0.0
5089680,2372,2896,2199,2684,3176,5,73,-930,58,27,-360,-9.0,2.0,-3.0,1.0,9.0,3.0,410.0,-36614.0,0.0
5089691,2372,2896,2204,2691,3176,4,73,-930,58,27,-360,-8.0,0.0,0.0,-1.0,12.0,1.0,410.0,-36614.0,0.0
5089709,2376,2901,2199,2684,3176,4,73,-930,58,27,-360,-8.0,0.0,0.0,-1.0,12.0,1.0,410.0,-36614.0,0.0
5089721,2374,2898,2192,2676,3176,4,73,-930,58,26,-360,-9.0,2.0,-2.0,0.0,17.0,3.0,410.0,-36614.0,0.0
5089740,2379,2904,2207,2694,3176,4,73,-930,58,26,-360,-9.0,2.0,-2.0,0.0,17.0,3.0,410.0,-36614.0,0.0
5089751,2372,2896,2200,2686,3176,3,73,-930,58,26,-360,-10.0,2.0,5.0,-4.0,16.0,1.0,410.0,-36614.0,0.0
5089769,2387,2914,2192,2676,3176,3,73,-930,58,26,-360,-10.0,2.0,5.0,-4.0,16.0,1.0,410.0,-36614.0,0.0
5089780,2376,2901,2195,2680,3176,3,73,-930,58,25,-360,-5.0,6.0,-16.0,-4.0,19.0,1.0,410.0,-36614.0,0.0
5089800,2368,2891,2199,2684,3176,2,73,-930,58,25,-360,-6.0,7.0,-12.0,-5.0,23.0,6.0,410.0,-36614.0,0.0
5089817,2379,2904,2202,2688,3176,2,73,-930,58,25,-360,-6.0,7.0,-12.0,-5.0,23.0,6.0,410.0,-36614.0,0.0
5089829,2373,2897,2194,2678,3176,1,73,-930,59,25,-368,-6.0,3.0,-11.0,-1.0,18.0,11.0,410.0,-36614.0,0.0
5089849,2377,2902,2196,2681,3175,1,73,-930,59,24,-360,-4.0,2.0,-8.0,-2.0,21.0,9.0,410.0,-36614.0,0.0
5089866,2374,2898,2197,2682,3175,1,73,-930,59,24,-360,-4.0,2.0,-8.0,-2.0,21.0,9.0,410.0,-36614.0,0.0
5089878,2387,2914,2196,2681,3175,0,73,-930,59,23,-360,-5.0,-1.0,-6.0,-1.0,36.0,6.0,410.0,-36614.0,0.0
5089898,2375,2899,2203,2689,3175,0,73,-930,59,23,-360,-10.0,-2.0,10.0,-2.0,37.0,5.0,410.0,-36614.0,0.0
5089916,2384,2910,2194,2678,3175,0,73,-930,59,23,-360,-10.0,-2.0,10.0,-2.0,37.0,5.0,410.0,-36614.0,0.0
5089927,2374,2898,2199,2684,3175,0,73,-930,59,22,-360,-6.0,0.0,-3.0,-1.0,35.0,-3.0,410.0,-36614.0,0.0
5089947,2380,2905,2202,2688,3175,-1,73,-930,60,21,-360,-2.0,0.0,-6.0,-1.0,38.0,0.0,410.0,-36614.0,0.0
5089964,2369,2892,2194,2678,3175,-1,73,-930,60,21,-360,-2.0,0.0,-6.0,-1.0,38.0,0.0,410.0,-36614.0,0.0
5089976,2375,2899,2197,2682,3175,-2,73,-930,60,20,-360,-5.0,5.0,-2.0,-1.0,36.0,4.0,410.0,-36614.0,0.0
5089995,2384,2910,2195,2680,3175,-2,73,-930,60,20,-360,-5.0,5.0,-2.0,-1.0,36.0,4.0,410.0,-36614.0,0.0
5090007,2373,2897,2193,2677,3175,-3,73,-930,60,20,-360,-3.0,5.0,-6.0,1.0,37.0,5.0,410.0,-36614.0,0.0
5090026,2378,2903,2192,2676,3175,-3,73,-930,60,20,-360,-3.0,5.0,-6.0,1.0,37.0,5.0,410.0,-36614.0,0.0
5090037,2375,2899,2193,2677,3175,-4,73,-930,61,19,-360,-4.0,1.0,-10.0,1.0,35.0,8.0,410.0,-36614.0,0.0
5090054,2385,2912,2198,2683,3175,-4,73,-930,61,19,-360,-4.0,1.0,-10.0,1.0,35.0,8.0,410.0,-36614.0,0.0
5090066,2375,2899,2193,2677,3175,-5,73,-930,61,18,-360,-5.0,0.0,6.0,0.0,32.0,10.0,410.0,-36613.0,0.0
5090085,2379,2904,2187,2670,3175,-5,73,-930,61,18,-360,-5.0,0.0,6.0,0.0,32.0,10.0,410.0,-36613.0,0.0
5090096,2381,2907,2192,2676,3175,-6,73,-930,61,17,-361,-2.0,0.0,-5.0,-5.0,29.0,8.0,410.0,-36613.0,16.0
5090114,2375,2899,2194,2678,3175,-6,73,-930,61,17,-361,-2.0,0.0,-5.0,-5.0,29.0,8.0,410.0,-36613.0,16.0
5090126,2379,2904,2197,2682,3175,-7,73,-930,62,17,-361,-2.0,-1.0,3.0,-1.0,25.0,10.0,410.0,-36613.0,16.0
5090143,2377,2902,2184,2666,3175,-7,73,-930,62,17,-361,-2.0,-1.0,3.0,-1.0,25.0,10.0,410.0,-36613.0,16.0
5090155,2373,2897,2189,2672,3175,-8,73,-930,62,16,-361,-2.0,1.0,-8.0,-3.0,28.0,11.0,410.0,-36613.0,16.0
5090173,2380,2905,2190,2673,3175,-8,73,-930,62,16,-361,-2.0,1.0,-8.0,-3.0,28.0,11.0,410.0,-36613.0,16.0
5090185,2380,2905,2188,2671,3174,-8,73,-930,62,15,-361,-6.0,2.0,1.0,-2.0,22.0,10.0,410.0,-36613.0,16.0
5090203,2368,2891,2184,2666,3174,-8,73,-930,62,15,-361,-6.0,2.0,1.0,-2.0,22.0,10.0,410.0,-36613.0,0.0
5090215,2369,2892,2191,2675,3174,-9,73,-929,62,15,-361,0.0,8.0,-5.0,0.0,23.0,6.0,410.0,-36613.0,0.0
5090233,2380,2905,2195,2680,3174,-9,73,-929,62,15,-361,0.0,8.0,-5.0,0.0,23.0,6.0,410.0,-36613.0,0.0
5090244,2397,2926,2194,2678,3174,-10,73,-929,62,14,-361,-4.0,6.0,-3.0,3.0,31.0,6.0,410.0,-36612.0,0.0
5090262,2383,2909,2180,2661,3174,-10,73,-929,62,14,-361,-4.0,6.0,-3.0,3.0,31.0,6.0,410.0,-36611.0,0.0
5090273,2377,2902,2188,2671,3174,-11,73,-929,63,13,-362,0.0,18.0,-13.0,-10.0,28.0,6.0,410.0,-36609.0,0.0
5090292,2372,2896,2191,2675,3174,-11,73,-929,63,13,-362,0.0,18.0,-13.0,-10.0,28.0,6.0,410.0,-36607.0,0.0
5090304,2379,2904,2199,2684,3174,-11,73,-929,63,13,-362,-7.0,21.0,-6.0,-15.0,37.0,0.0,410.0,-36605.0,132.0
5090322,2383,2909,2186,2669,3174,-11,73,-929,63,13,-362,-7.0,21.0,-6.0,-15.0,37.0,0.0,410.0,-36603.0,132.0
5090335,2381,2907,2188,2671,3174,-13,73,-929,64,12,-361,0.0,25.0,-11.0,-4.0,40.0,-1.0,410.0,-36599.0,132.0
5090353,2379,2904,2188,2671,3174,-13,73,-929,64,12,-361,0.0,25.0,-11.0,-4.0,40.0,-1.0,410.0,-36596.0,132.0
5090365,2377,2902,2181,2663,3174,-14,73,-929,64,10,-361,3.0,22.0,-9.0,-4.0,41.0,5.0,410.0,-36592.0,132.0
5090384,2383,2909,2180,2661,3174,-14,73,-929,64,10,-361,3.0,22.0,-9.0,-4.0,41.0,5.0,410.0,-36588.0,132.0
5090396,2379,2904,2187,2670,3174,-15,73,-929,64,10,-362,-3.0,16.0,3.0,-13.0,36.0,8.0,410.0,-36583.0,132.0
5090414,2376,2901,2184,2666,3174,-15,73,-929,64,10,-362,-3.0,16.0,3.0,-13.0,36.0,8.0,410.0,-36579.0,393.0
5090426,2380,2905,2196,2681,3174,-16,73,-929,65,9,-362,-2.0,13.0,7.0,-8.0,31.0,1.0,410.0,-36573.0,393.0
5090444,2373,2897,2183,2665,3174,-16,73,-929,65,9,-362,-2.0,13.0,7.0,-8.0,31.0,1.0,410.0,-36569.0,393.0
5090456,2377,2902,2180,2661,3174,-17,73,-929,65,8,-362,4.0,13.0,-5.0,-3.0,25.0,-81.0,410.0,-36562.0,393.0
5090475,2378,2903,2187,2670,3174,-17,73,-929,65,8,-362,4.0,13.0,-5.0,-3.0,25.0,-81.0,410.0,-36558.0,393.0
5090488,2381,2907,2183,2665,3174,-18,73,-929,65,8,-361,1.0,12.0,0.0,-3.0,19.0,5.0,410.0,-36551.0,393.0
5090505,2383,2909,2176,2656,3174,-18,73,-929,65,8,-361,1.0,12.0,0.0,-3.0,19.0,5.0,410.0,-36546.0,393.0
5090517,2368,2891,2184,2666,3173,-18,73,-929,66,7,-362,2.0,12.0,3.0,-8.0,11.0,8.0,410.0,-36538.0,663.0
5090536,2375,2899,2184,2666,3173,-18,73,-929,66,7,-362,2.0,12.0,3.0,-8.0,11.0,8.0,410.0,-36532.0,663.0
5090548,2379,2904,2176,2656,3173,-18,73,-929,66,7,-362,0.0,15.0,-3.0,-6.0,13.0,2.0,410.0,-36524.0,663.0
5090565,2376,2901,2178,2659,3173,-18,73,-929,66,7,-362,0.0,15.0,-3.0,-6.0,13.0,2.0,410.0,-36519.0,663.0
5090577,2381,2907,2182,2664,3173,-19,73,-929,66,7,-362,0.0,15.0,-3.0,0.0,9.0,-3.0,410.0,-36509.0,663.0
5090596,2374,2898,2191,2675,3173,-19,73,-929,66,7,-362,0.0,15.0,-3.0,0.0,9.0,-3.0,410.0,-36504.0,663.0
5090608,2371,2894,2186,2669,3173,-19,73,-929,66,7,-362,-1.0,17.0,1.0,3.0,3.0,2.0,410.0,-36494.0,663.0
5090627,2383,2909,2181,2663,3173,-19,73,-929,66,7,-362,-1.0,17.0,1.0,3.0,3.0,2.0,410.0,-36487.0,772.0
5090639,2381,2907,2183,2665,3173,-99,73,-929,66,7,-362,-5.0,19.0,6.0,2.0,-5.0,9.0,410.0,-36477.0,772.0
5090657,2382,2908,2184,2666,3173,-99,73,-929,66,7,-362,-5.0,19.0,6.0,2.0,-5.0,9.0,410.0,-36469.0,772.0
5090668,2381,2907,2176,2656,3173,-19,73,-929,66,7,-362,-5.0,21.0,0.0,-6.0,-6.0,1.0,410.0,-36455.0,772.0
5090688,2381,2907,2198,2683,3173,-19,74,-929,66,7,-362,0.0,28.0,-7.0,-8.0,0.0,-5.0,410.0,-36442.0,772.0
5090706,2379,2904,2186,2669,3173,-19,74,-929,66,7,-362,0.0,28.0,-7.0,-8.0,0.0,-5.0,410.0,-36433.0,772.0
5090718,2378,2903,2185,2667,3173,-19,73,-929,66,7,-362,-3.0,31.0,-1.0,-13.0,1.0,-12.0,410.0,-36417.0,772.0
5090737,2383,2909,2191,2675,3173,-19,73,-929,66,7,-362,-3.0,31.0,-1.0,-13.0,1.0,-12.0,410.0,-36407.0,1196.0
5090750,2372,2896,2184,2666,3173,-19,73,-929,66,7,-370,-3.0,31.0,1.0,-6.0,1.0,0.0,410.0,-36390.0,1196.0
5090770,2382,2908,2186,2669,3173,-19,73,-929,66,7,-370,-6.0,26.0,-1.0,-3.0,-1.0,5.0,410.0,-36372.0,1196.0
5090790,2376,2901,2186,2669,3173,-19,73,-929,65,6,-362,-3.0,18.0,-1.0,2.0,-3.0,8.0,410.0,-36355.0,1196.0
5090809,2395,2924,2190,2673,3173,-19,73,-929,65,6,-362,-3.0,18.0,-1.0,2.0,-3.0,8.0,410.0,-36343.0,1196.0
5090821,2383,2909,2178,2659,3173,-19,72,-929,65,6,-362,-1.0,16.0,1.0,0.0,-7.0,-1.0,410.0,-36324.0,1196.0
5090841,2383,2909,2188,2671,3173,-19,72,-929,65,6,-362,1.0,17.0,4.0,2.0,-9.0,-2.0,410.0,-36304.0,1634.0
5090860,2376,2901,2199,2684,3173,-19,72,-929,65,6,-362,1.0,17.0,4.0,2.0,-9.0,-2.0,410.0,-36292.0,1634.0
5090872,2383,2909,2188,2671,3173,-19,72,-929,65,7,-362,0.0,11.0,-6.0,1.0,-9.0,0.0,410.0,-36271.0,1634.0
5090893,2386,2913,2191,2675,3173,-19,72,-929,65,7,-362,2.0,16.0,-6.0,0.0,-9.0,0.0,410.0,-36251.0,1634.0
5090911,2385,2912,2188,2671,3173,-19,72,-929,65,7,-362,2.0,16.0,-6.0,0.0,-9.0,0.0,410.0,-36238.0,1634.0
5090924,2384,2910,2191,2675,3173,-18,72,-929,65,7,-362,-1.0,13.0,-6.0,8.0,-18.0,-1.0,410.0,-36217.0,1634.0
5090944,2376,2901,2186,2669,3173,-18,71,-929,64,7,-362,-2.0,11.0,-4.0,9.0,-22.0,-1.0,410.0,-36197.0,1731.0
5090962,2380,2905,2188,2671,3173,-18,71,-929,64,7,-362,-2.0,11.0,-4.0,9.0,-22.0,-1.0,410.0,-36183.0,1731.0
5090975,2399,2929,2182,2664,3173,-17,71,-929,64,8,-362,0.0,0.0,-9.0,10.0,-22.0,1.0,410.0,-36161.0,1731.0
5090994,2388,2915,2207,2694,3173,-17,71,-929,64,8,-362,0.0,0.0,-9.0,10.0,-22.0,1.0,410.0,-36147.0,1731.0
5091006,2384,2910,2187,2670,3173,-16,71,-929,63,8,-362,-1.0,-2.0,-4.0,3.0,-16.0,2.0,410.0,-36127.0,1731.0
5091024,2382,2908,2187,2670,3173,-16,71,-929,63,8,-362,-1.0,-2.0,-4.0,3.0,-16.0,2.0,410.0,-36113.0,1731.0
5091036,2383,2909,2190,2673,3173,-96,71,-929,63,9,-362,-2.0,2.0,1.0,2.0,-17.0,-6.0,410.0,-36090.0,1731.0
5091055,2381,2907,2195,2680,3173,-96,71,-929,63,9,-362,-2.0,2.0,1.0,2.0,-17.0,-6.0,410.0,-36075.0,1816.0
5091068,2383,2909,2178,2659,3173,-16,71,-929,63,9,-362,-6.0,12.0,1.0,0.0,-11.0,-15.0,410.0,-36050.0,1816.0
5091087,2384,2910,2187,2670,3173,-16,71,-929,63,9,-362,-6.0,12.0,1.0,0.0,-11.0,-15.0,410.0,-36033.0,1816.0
5091099,2383,2909,2189,2672,3174,-15,71,-929,63,9,-362,-9.0,32.0,4.0,-23.0,-21.0,-11.0,410.0,-36006.0,1816.0
5091118,2383,2909,2199,2684,3174,-15,71,-929,63,9,-362,-9.0,32.0,4.0,-23.0,-21.0,-11.0,410.0,-35986.0,1816.0
5091130,2382,2908,2194,2678,3174,-15,72,-929,63,10,-361,-1.0,64.0,-144.0,-51.0,-26.0,-18.0,410.0,-35950.0,1816.0
5091152,2392,2920,2202,2688,3175,-14,73,-930,64,11,-361,-8.0,58.0,-3.0,-56.0,-10.0,-16.0,410.0,-35916.0,1816.0
5091171,2389,2916,2196,2681,3175,-14,73,-930,64,11,-361,-8.0,58.0,-3.0,-56.0,-10.0,-16.0,410.0,-35892.0,2614.0
5091184,2392,2920,2200,2686,3175,-14,73,-930,65,11,-361,-8.0,44.0,0.0,-63.0,-9.0,12.0,410.0,-35853.0,2614.0
5091204,2384,2910,2201,2687,3174,-14,74,-929,65,11,-361,-7.0,34.0,5.0,-51.0,-14.0,23.0,410.0,-35819.0,2614.0
5091223,2400,2930,2200,2686,3174,-14,74,-929,65,11,-361,-7.0,34.0,5.0,-51.0,-14.0,23.0,410.0,-35795.0,2614.0
5091236,2399,2929,2202,2688,3173,-94,74,-929,65,11,-362,-14.0,38.0,14.0,-20.0,-10.0,14.0,410.0,-35755.0,2614.0
5091256,2402,2932,2220,2710,3173,-14,74,-929,65,11,-362,-17.0,51.0,12.0,-11.0,-15.0,-11.0,410.0,-35714.0,2614.0
5091275,2407,2938,2215,2704,3173,-14,74,-929,65,11,-362,-17.0,51.0,12.0,-11.0,-15.0,-11.0,410.0,-35681.0,3365.0
5091288,2404,2935,2216,2705,3174,-13,73,-929,65,12,-361,-10.0,93.0,14.0,-51.0,-23.0,-41.0,410.0,-35627.0,3365.0
5091308,2415,2948,2221,2711,3175,-13,75,-930,66,13,-361,-10.0,107.0,17.0,-116.0,-18.0,-31.0,410.0,-35563.0,3365.0
5091329,2405,2936,2220,2710,3175,-12,79,-929,69,14,-360,-1.0,108.0,5.0,-191.0,-25.0,-14.0,410.0,-35489.0,3365.0
5091350,2406,2937,2215,2704,3175,-12,82,-929,71,15,-360,-2.0,96.0,-7.0,-248.0,-43.0,0.0,410.0,-35420.0,3365.0
5091369,2463,3007,2229,2721,3175,-12,82,-929,71,15,-360,-2.0,96.0,-7.0,-248.0,-43.0,0.0,410.0,-35378.0,3365.0
5091382,2454,2996,2271,2772,3175,-11,86,-929,74,17,-361,0.0,95.0,-40.0,-257.0,-11.0,-5.0,410.0,-35313.0,5732.0
5091404,2433,2970,2263,2763,3176,-11,86,-929,74,18,-360,-13.0,135.0,21.0,77.0,-8.0,-66.0,410.0,-35251.0,5732.0
5091423,2424,2959,2255,2753,3176,-11,86,-929,74,18,-360,-13.0,135.0,21.0,77.0,-8.0,-66.0,410.0,-35204.0,5732.0
5091437,2436,2974,2269,2770,3177,-10,81,-930,70,16,-359,-4.0,64.0,-4.0,33.0,-16.0,15.0,410.0,-35125.0,5732.0
5091457,2443,2982,2252,2749,3176,-10,81,-930,70,16,-359,-21.0,52.0,27.0,-71.0,0.0,81.0,410.0,-35049.0,5732.0
5091477,2458,3001,2255,2753,3175,-90,83,-929,72,17,-361,-15.0,33.0,-1.0,-95.0,0.0,67.0,410.0,-34968.0,5732.0
5091498,2454,2996,2264,2764,3174,-11,85,-929,72,17,-361,-7.0,38.0,-6.0,16.0,8.0,-10.0,410.0,-34891.0,6020.0
5091517,2455,2997,2279,2782,3174,-11,85,-929,72,17,-361,-7.0,38.0,-6.0,16.0,8.0,-10.0,410.0,-34836.0,6020.0
5091530,2454,2996,2275,2777,3176,-11,83,-929,71,16,-360,-3.0,35.0,-10.0,35.0,16.0,-65.0,410.0,-34749.0,6020.0
5091551,2469,3014,2287,2792,3176,-11,82,-930,71,16,-359,-10.0,52.0,10.0,-38.0,8.0,-30.0,410.0,-34665.0,6020.0
5091570,2470,3015,2288,2793,3176,-11,82,-930,71,16,-359,-10.0,52.0,10.0,-38.0,8.0,-30.0,410.0,-34607.0,6020.0
5091583,2482,3030,2290,2796,3176,-11,81,-930,70,15,-359,-10.0,52.0,16.0,11.0,7.0,11.0,410.0,-34510.0,6020.0
5091605,2483,3031,2289,2794,3176,-12,80,-930,69,15,-359,-5.0,44.0,6.0,36.0,8.0,11.0,410.0,-34419.0,7320.0
5091625,2477,3024,2288,2793,3176,-12,78,-930,68,14,-360,5.0,22.0,-33.0,-9.0,16.0,9.0,410.0,-34315.0,7320.0
5091646,2488,3037,2301,2809,3176,-13,79,-930,68,14,-360,2.0,29.0,-30.0,-35.0,23.0,-2.0,410.0,-34220.0,7320.0
5091666,2512,3067,2314,2825,3176,-13,80,-930,69,13,-359,-9.0,40.0,2.0,-15.0,32.0,-20.0,410.0,-34115.0,7320.0
5091687,2505,3058,2320,2832,3176,-14,79,-930,69,12,-359,-10.0,33.0,10.0,16.0,32.0,-25.0,410.0,-34008.0,7320.0
5091709,2497,3048,2322,2835,3177,-15,79,-930,69,12,-359,-8.0,14.0,-2.0,5.0,21.0,-1.0,410.0,-33899.0,8317.0
5091729,2495,3046,2316,2827,3177,-15,79,-930,69,12,-359,-14.0,24.0,9.0,-11.0,8.0,21.0,410.0,-33792.0,8317.0
5091750,2512,3067,2327,2841,3176,-15,79,-930,69,12,-359,-13.0,16.0,3.0,-13.0,0.0,20.0,410.0,-33689.0,8317.0
5091770,2502,3054,2325,2838,3176,-15,79,-930,69,12,-359,-11.0,2.0,3.0,5.0,-6.0,1.0,410.0,-33577.0,8317.0
5091790,2507,3061,2322,2835,3176,-15,78,-930,69,12,-359,-9.0,-4.0,11.0,15.0,3.0,-11.0,410.0,-33470.0,8317.0
5091810,2524,3081,2338,2854,3176,-16,79,-930,69,11,-359,-4.0,-12.0,-2.0,-1.0,29.0,-11.0,410.0,-33355.0,8943.0
5091831,2519,3075,2335,2851,3176,-16,79,-930,70,10,-359,-8.0,1.0,-6.0,-13.0,48.0,0.0,410.0,-33238.0,8943.0
5091852,2518,3074,2351,2870,3176,-18,79,-930,70,10,-359,-8.0,-2.0,-19.0,-10.0,55.0,7.0,410.0,-33131.0,8943.0
5091871,2520,3076,2349,2868,3176,-18,79,-930,70,10,-359,-8.0,-2.0,-19.0,-10.0,55.0,7.0,410.0,-33056.0,8943.0
5091885,2525,3083,2349,2868,3176,-19,79,-930,70,1,-359,-11.0,-13.0,5.0,29.0,41.0,18.0,410.0,-32930.0,8943.0
5091907,2530,3089,2355,2875,3176,-20,78,-930,70,8,-359,-15.0,-22.0,3.0,-1.0,31.0,14.0,410.0,-32815.0,8943.0
5091927,2527,3085,2347,2865,3176,-20,78,-930,71,7,-360,-7.0,-18.0,-14.0,-18.0,24.0,0.0,410.0,-32690.0,9444.0
5091949,2529,3087,2358,2879,3176,-21,79,-930,71,7,-360,2.0,7.0,-26.0,-1.0,34.0,-12.0,410.0,-32575.0,9444.0
5091968,2530,3089,2365,2887,3176,-21,79,-930,71,7,-360,2.0,7.0,-26.0,-1.0,34.0,-12.0,410.0,-32497.0,9444.0
5091982,2520,3076,2366,2888,3176,-23,79,-930,72,5,-359,-13.0,5.0,28.0,13.0,50.0,0.0,410.0,-32375.0,9444.0
5092003,2519,3075,2363,2885,3176,-23,79,-930,72,5,-359,-5.0,-7.0,10.0,-7.0,46.0,15.0,410.0,-32262.0,9444.0
5092022,2489,3039,2367,2890,3176,-23,79,-930,72,5,-359,-5.0,-7.0,10.0,-7.0,46.0,15.0,410.0,-32183.0,9444.0
5092035,2425,2960,2384,2910,3176,-25,79,-929,72,3,-360,-49.0,-110.0,-97.0,9.0,42.0,33.0,410.0,-32054.0,9783.0
5092059,2515,3070,2334,2849,3175,-26,79,-929,72,3,-360,-13.0,70.0,34.0,92.0,56.0,103.0,410.0,-31935.0,9783.0
5092078,2520,3076,2321,2833,3175,-26,79,-929,72,3,-360,-13.0,70.0,34.0,92.0,56.0,103.0,410.0,-31850.0,9783.0
5092092,2537,3097,2380,2905,3171,-28,81,-928,75,2,-363,-26.0,-17.0,32.0,-158.0,29.0,83.0,410.0,-31731.0,9783.0
5092112,2559,3124,2359,2880,3170,-28,84,-927,77,3,-364,-30.0,-36.0,12.0,-160.0,17.0,39.0,410.0,-31609.0,9783.0
5092134,2508,3062,2367,2890,3170,-29,85,-927,79,3,-372,10.0,1.0,-70.0,-29.0,28.0,-1.0,410.0,-31489.0,9783.0
5092156,2499,3051,2421,2956,3170,-30,84,-927,78,2,-364,16.0,-25.0,-55.0,91.0,36.0,22.0,410.0,-31391.0,9104.0
5092176,2556,3120,2399,2929,3168,-31,82,-927,77,1,1633,-8.0,-52.0,40.0,156.0,20.0,145.0,410.0,-31279.0,9104.0
5092198,2419,2953,2233,2726,3165,-31,78,-926,74,0,-368,-41.0,97.0,119.0,32.0,43.0,111.0,410.0,-31173.0,9104.0
5092218,2539,3100,2341,2858,3163,-33,77,-925,73,-2,-370,-16.0,-91.0,26.0,69.0,62.0,85.0,410.0,-31055.0,9104.0
5092240,2501,3053,2304,2813,3162,-34,76,-925,73,-3,-371,-8.0,-91.0,-27.0,-12.0,61.0,-21.0,410.0,-30939.0,9104.0
5092261,2476,3023,2289,2794,3163,-35,76,-926,74,-4,-369,16.0,-87.0,-37.0,-65.0,53.0,-93.0,410.0,-30823.0,8984.0
5092281,2480,3028,2303,2811,3165,-36,78,-926,76,-4,-368,14.0,-27.0,15.0,-66.0,32.0,-67.0,410.0,-30710.0,8984.0
5092303,2479,3026,2315,2826,3166,-36,80,-926,77,-4,-367,2.0,-52.0,17.0,-31.0,18.0,3.0,410.0,-30610.0,8984.0
5092322,2475,3021,2315,2826,3166,-36,80,-926,77,-4,-367,2.0,-52.0,17.0,-31.0,18.0,3.0,410.0,-30543.0,8984.0
5092335,2481,3029,2299,2807,3165,-37,78,-926,76,-5,-369,14.0,-37.0,-21.0,36.0,28.0,78.0,410.0,-30431.0,8984.0
5092358,2482,3030,2292,2798,3163,-38,78,-925,75,-5,-370,4.0,-61.0,-6.0,-7.0,27.0,56.0,410.0,-30331.0,8984.0
5092377,2492,3042,2305,2814,3163,-38,78,-925,75,-5,-370,4.0,-61.0,-6.0,-7.0,27.0,56.0,410.0,-30263.0,8045.0
5092391,2484,3032,2283,2787,3162,-39,78,-925,76,-7,-370,0.0,-78.0,-10.0,1.0,43.0,-12.0,410.0,-30161.0,8045.0
5092411,2476,3023,2283,2787,3163,-40,78,-925,76,-7,-370,-4.0,-26.0,-11.0,12.0,37.0,-32.0,410.0,-30052.0,8045.0
5092433,2475,3021,2304,2813,3163,-41,78,-925,76,-8,-369,-5.0,-21.0,-4.0,-6.0,25.0,-21.0,410.0,-29946.0,8045.0
5092454,2487,3036,2306,2815,3163,-41,78,-925,76,-8,-369,-7.0,-19.0,1.0,-5.0,8.0,9.0,410.0,-29834.0,8045.0
5092476,2495,3046,2298,2805,3163,-41,78,-925,76,-8,-370,1.0,-11.0,0.0,20.0,6.0,40.0,410.0,-29722.0,8045.0
5092498,2495,3046,2304,2813,3162,-41,77,-925,76,-8,-371,-1.0,11.0,-6.0,8.0,6.0,39.0,410.0,-29618.0,8870.0
5092518,2504,3057,2314,2825,3162,-41,78,-925,77,-8,-371,-10.0,76.0,6.0,-43.0,21.0,-15.0,410.0,-29497.0,8870.0
5092540,2528,3086,2345,2863,3163,-42,78,-925,78,-9,-370,-16.0,115.0,24.0,-36.0,30.0,-65.0,410.0,-29375.0,8870.0
5092562,2541,3102,2366,2888,3164,-42,79,-925,78,-9,-369,-12.0,141.0,12.0,1.0,27.0,-72.0,410.0,-29254.0,8870.0
5092582,2533,3092,2380,2905,3165,-43,79,-926,78,-9,-368,-13.0,127.0,17.0,8.0,18.0,-23.0,410.0,-29123.0,8870.0
5092604,2530,3089,2390,2918,3165,-43,79,-926,78,-9,-369,2.0,77.0,-6.0,22.0,0.0,63.0,410.0,-29001.0,9669.0
5092624,2546,3108,2374,2898,3162,-43,78,-925,77,-10,-371,0.0,-10.0,-10.0,37.0,-6.0,142.0,410.0,-28871.0,9669.0
5092646,2560,3125,2355,2875,3159,-44,77,-924,77,-10,-373,0.0,-66.0,-35.0,31.0,3.0,155.0,410.0,-28750.0,9669.0
5092666,2563,3129,2347,2865,3157,-45,76,-923,77,-11,-375,-1.0,-88.0,-40.0,-1.0,21.0,82.0,410.0,-28607.0,9669.0
5092689,2544,3106,2347,2865,3157,-45,77,-923,77,-11,-375,9.0,-29.0,-28.0,-10.0,43.0,-59.0,410.0,-28465.0,9669.0
5092712,2556,3120,2363,2885,3158,-46,77,-924,78,-12,-374,3.0,-11.0,-18.0,-1.0,38.0,-84.0,410.0,-28336.0,10231.0
5092733,2541,3102,2364,2886,3160,-46,78,-924,78,-12,-372,8.0,-6.0,-16.0,6.0,25.0,-28.0,410.0,-28201.0,10231.0
5092754,2544,3106,2350,2869,3160,-46,77,-924,78,-13,-373,6.0,-32.0,1.0,14.0,11.0,58.0,410.0,-28080.0,10231.0
5092774,2559,3124,2348,2866,3158,-47,77,-923,78,-13,-374,1.0,-72.0,-9.0,3.0,14.0,106.0,410.0,-27949.0,10231.0
5092796,2567,3134,2356,2876,3156,-48,77,-923,78,-13,-376,0.0,-90.0,-14.0,-6.0,21.0,88.0,410.0,-27833.0,10231.0
5092816,2559,3124,2344,2862,3155,-48,77,-922,78,-14,-376,-7.0,-75.0,6.0,10.0,36.0,25.0,410.0,-27692.0,10288.0
5092839,2542,3103,2344,2862,3156,-50,78,-922,79,-14,-376,1.0,-54.0,14.0,-13.0,39.0,-49.0,410.0,-27556.0,10288.0
5092862,2524,3081,2348,2866,3156,-50,78,-923,80,-14,-375,10.0,-13.0,-4.0,-22.0,20.0,-33.0,410.0,-27432.0,10288.0
5092883,2539,3100,2353,2873,3157,-50,79,-923,80,-15,-375,11.0,-16.0,4.0,6.0,-4.0,21.0,410.0,-27304.0,10288.0
5092904,2545,3107,2345,2863,3156,-50,78,-922,80,-15,-376,6.0,-34.0,-4.0,31.0,-16.0,67.0,410.0,-27190.0,10288.0
5092924,2548,3111,2341,2858,3154,-50,78,-922,79,-15,-377,-2.0,-60.0,-4.0,16.0,-18.0,84.0,410.0,-27063.0,9691.0
5092946,2557,3122,2340,2857,3153,-50,78,-921,79,-14,-378,1.0,-62.0,-14.0,2.0,-18.0,56.0,410.0,-26945.0,9691.0
5092966,2552,3115,2342,2859,3152,-49,78,-921,79,-14,-378,26.0,-49.0,-34.0,-5.0,-20.0,6.0,410.0,-26816.0,9691.0
5092988,2548,3111,2322,2835,3153,-48,78,-921,80,-13,-378,6.0,-26.0,-15.0,1.0,-25.0,-31.0,410.0,-26685.0,9691.0
5093011,2544,3106,2324,2837,3153,-48,79,-922,80,-13,-378,14.0,-17.0,-23.0,15.0,-30.0,-13.0,410.0,-26570.0,9691.0
5093031,2528,3086,2336,2852,3153,-47,79,-922,80,-12,-378,9.0,-37.0,-11.0,26.0,-39.0,27.0,410.0,-26446.0,9595.0
5093053,2549,3112,2313,2824,3153,-46,80,-921,79,-11,-378,4.0,-74.0,-19.0,18.0,-45.0,61.0,410.0,-26334.0,9595.0
5093073,2540,3101,2291,2797,3151,20433,79,-921,79,-10,-380,3.0,-81.0,-22.0,2.0,-33.0,60.0,410.0,-26210.0,9595.0
5093095,2535,3095,2292,2798,3150,-45,79,-921,79,-10,-380,-6.0,-43.0,-3.0,5.0,-22.0,24.0,410.0,-26095.0,9595.0
5093115,2542,3103,2307,2816,3150,-45,80,-921,79,-10,-380,-9.0,-52.0,-2.0,-5.0,-16.0,-24.0,410.0,-25975.0,9595.0
5093136,2531,3090,2315,2826,3151,-45,80,-921,79,-9,-379,-5.0,-31.0,-2.0,-7.0,-6.0,-45.0,410.0,-25847.0,9476.0
5093159,2542,3103,2316,2827,3152,-44,80,-921,79,-9,-379,0.0,-12.0,3.0,9.0,-6.0,-24.0,410.0,-25734.0,9476.0
5093178,2531,3090,2323,2836,3152,-44,80,-921,79,-9,-379,0.0,-12.0,3.0,9.0,-6.0,-24.0,410.0,-25660.0,9476.0
5093192,2528,3086,2311,2821,3151,-44,80,-921,79,-9,-379,-3.0,4.0,-4.0,-9.0,-20.0,38.0,410.0,-25540.0,9476.0
5093213,2548,3111,2306,2815,3151,-43,80,-921,79,-9,-380,-11.0,-6.0,-12.0,9.0,-10.0,34.0,410.0,-25430.0,9476.0
5093233,2544,3106,2317,2829,3150,-43,80,-921,78,-9,-380,-5.0,-10.0,-13.0,20.0,-10.0,16.0,410.0,-25309.0,9476.0
5093254,2531,3090,2306,2815,3150,-43,79,-921,78,-8,-381,-3.0,4.0,-7.0,0.0,-20.0,1.0,410.0,-25191.0,9237.0
5093274,2544,3106,2309,2819,3150,-43,79,-921,78,-8,-381,-3.0,19.0,-14.0,-15.0,-31.0,-3.0,410.0,-25070.0,9237.0
5093295,2532,3091,2329,2843,3150,-42,80,-921,78,-7,-381,-9.0,-7.0,-5.0,-1.0,-35.0,-1.0,410.0,-24954.0,9237.0
5093315,2543,3105,2316,2827,3150,-41,79,-921,77,-7,-381,-1.0,-24.0,-23.0,44.0,-46.0,16.0,410.0,-24840.0,9237.0
5093335,2539,3100,2304,2813,3149,-40,78,-920,76,-6,-381,-7.0,-60.0,-12.0,32.0,-51.0,38.0,410.0,-24720.0,9237.0
5093357,2545,3107,2311,2821,3148,-40,78,-920,76,-6,-382,-7.0,-86.0,-12.0,10.0,-52.0,46.0,410.0,-24606.0,9433.0
5093377,2532,3091,2307,2816,3147,-38,78,-920,75,-5,-383,3.0,-90.0,-27.0,4.0,-51.0,27.0,410.0,-24482.0,9433.0
5093399,2527,3085,2303,2811,3147,-38,77,-920,75,-4,-383,-1.0,-65.0,-4.0,12.0,-50.0,1.0,410.0,-24374.0,9433.0
5093419,2544,3106,2298,2805,3147,-36,78,-920,75,-3,-383,-12.0,-26.0,19.0,-8.0,-45.0,-21.0,410.0,-24245.0,9433.0
5093442,2559,3124,2310,2820,3148,-36,78,-920,75,-3,-382,-11.0,81.0,27.0,-53.0,-41.0,-77.0,410.0,-24113.0,9433.0
5093464,2552,3115,2340,2857,3150,-35,79,-921,75,-2,-381,-6.0,104.0,17.0,-23.0,-35.0,-89.0,410.0,-23988.0,9595.0
5093485,2552,3115,2351,2870,3151,-34,79,-921,75,-1,-379,-3.0,101.0,26.0,37.0,-29.0,-38.0,410.0,-23855.0,9595.0
5093507,2570,3137,2357,2877,3151,-33,78,-921,74,0,-380,0.0,41.0,1.0,33.0,-41.0,46.0,410.0,-23732.0,9595.0
5093527,2575,3144,2342,2859,3149,-32,78,-921,74,0,-381,-12.0,6.0,-5.0,0.0,-45.0,108.0,410.0,-23597.0,9595.0
5093548,2579,3148,2335,2851,3147,-31,78,-920,74,0,-383,-17.0,21.0,-17.0,-23.0,-46.0,83.0,410.0,-23469.0,9595.0
5093568,2595,3168,2335,2851,3146,-31,78,-920,74,1,-383,-31.0,-2.0,1.0,-13.0,-33.0,-16.0,410.0,-23317.0,10689.0
5093592,2568,3135,2344,2862,3148,-30,78,-921,73,1,-382,-1.0,22.0,-14.0,30.0,-26.0,-94.0,410.0,-23169.0,10689.0
5093615,2583,3153,2360,2881,3150,-29,78,-921,72,1,-381,2.0,24.0,-37.0,1.0,-42.0,-40.0,410.0,-23037.0,10689.0
5093635,2574,3142,2355,2875,3150,-28,77,-921,72,2,-381,-6.0,22.0,-12.0,-1.0,-48.0,29.0,410.0,-22895.0,10689.0
5093657,2579,3148,2355,2875,3149,-28,76,-921,71,3,-382,-4.0,-2.0,-7.0,11.0,-41.0,59.0,410.0,-22760.0,10689.0
5093677,2580,3150,2350,2869,3148,-26,76,-920,71,3,-383,-5.0,-12.0,-9.0,21.0,-43.0,50.0,410.0,-22614.0,10703.0
5093699,2598,3172,2351,2870,3147,-26,76,-920,70,3,-383,-12.0,-47.0,9.0,21.0,-38.0,20.0,410.0,-22481.0,10703.0
5093719,2575,3144,2350,2869,3147,-25,75,-920,69,4,-383,-17.0,-41.0,5.0,18.0,-26.0,-8.0,410.0,-22330.0,10703.0
5093742,2561,3126,2356,2876,3147,-25,75,-920,69,4,-383,-10.0,-41.0,-2.0,5.0,-19.0,-18.0,410.0,-22181.0,10703.0
5093765,2579,3148,2361,2882,3148,-25,76,-921,70,4,-383,-6.0,-50.0,-1.0,20.0,-15.0,3.0,410.0,-22050.0,10703.0
5093785,2575,3144,2362,2884,3148,-25,76,-920,70,5,-383,-7.0,-57.0,-6.0,18.0,-8.0,28.0,410.0,-21910.0,10833.0
5093807,2572,3140,2352,2871,3147,-25,77,-920,72,5,-383,1.0,-69.0,-20.0,1.0,-8.0,38.0,410.0,-21783.0,10833.0
5093827,2562,3128,2342,2859,3146,-25,80,-920,73,6,-384,-8.0,-78.0,-18.0,1.0,-8.0,20.0,410.0,-21648.0,10833.0
5093849,2559,3124,2348,2866,3146,-25,81,-920,74,6,-384,-4.0,-52.0,-9.0,10.0,-6.0,-3.0,410.0,-21525.0,10833.0
5093868,2543,3105,2330,2844,3146,-25,81,-920,74,6,-384,-4.0,-52.0,-9.0,10.0,-6.0,-3.0,410.0,-21440.0,10833.0
5093882,2556,3120,2322,2835,3146,-25,83,-920,76,7,-384,-1.0,-52.0,-26.0,0.0,-15.0,10.0,410.0,-21303.0,10833.0
5093904,2546,3108,2328,2842,3146,-25,85,-919,77,8,-384,-2.0,-51.0,-30.0,-5.0,-13.0,28.0,410.0,-21181.0,10196.0
5093925,2545,3107,2329,2843,3145,-25,86,-919,78,8,-385,3.0,-50.0,-35.0,6.0,-10.0,38.0,410.0,-21056.0,10196.0
5093946,2533,3092,2314,2825,3145,-25,87,-919,79,9,-385,9.0,-50.0,-24.0,32.0,-18.0,33.0,410.0,-20935.0,10196.0
5093967,2520,3076,2291,2797,3144,-25,87,-919,79,9,-385,-9.0,-47.0,-1.0,15.0,-23.0,15.0,410.0,-20819.0,10196.0
5093987,2520,3076,2295,2802,3144,-24,88,-919,79,10,-385,-7.0,-26.0,0.0,7.0,-20.0,3.0,410.0,-20702.0,10196.0
5094007,2513,3068,2298,2805,3144,-24,89,-918,80,10,-385,-17.0,-25.0,23.0,4.0,-15.0,-1.0,410.0,-20590.0,9530.0
5094028,2511,3065,2301,2809,3143,-24,89,-918,80,10,-385,-15.0,-20.0,1.0,31.0,-20.0,-2.0,410.0,-20477.0,9530.0
5094048,2492,3042,2297,2804,3143,-23,88,-919,79,10,-385,6.0,-43.0,-24.0,35.0,-16.0,5.0,410.0,-20368.0,9530.0
5094068,2511,3065,2289,2794,3143,-23,88,-918,79,10,-386,-5.0,-49.0,-9.0,23.0,-11.0,18.0,410.0,-20261.0,9530.0
5094088,2494,3045,2280,2783,3143,-23,89,-918,79,10,-386,-19.0,-17.0,20.0,18.0,-11.0,26.0,410.0,-20152.0,9530.0
5094108,2483,3031,2274,2776,3143,-23,89,-918,80,10,-386,-3.0,-24.0,-11.0,25.0,-11.0,13.0,410.0,-20046.0,8943.0
5094128,2489,3039,2275,2777,3142,-23,88,-918,79,10,-387,11.0,-33.0,-33.0,33.0,-10.0,11.0,410.0,-19935.0,8943.0
5094149,2492,3042,2285,2789,3142,-23,88,-918,79,10,-387,-3.0,-32.0,-11.0,11.0,-5.0,9.0,410.0,-19831.0,8943.0
5094169,2485,3034,2279,2782,3142,-23,88,-918,79,10,-387,-5.0,-20.0,-7.0,-5.0,0.0,3.0,410.0,-19719.0,8943.0
5094190,2487,3036,2295,2802,3142,-23,89,-918,80,11,-387,0.0,-9.0,-7.0,-19.0,5.0,-8.0,410.0,-19606.0,8943.0
5094211,2472,3018,2265,2765,3142,-23,90,-918,80,11,-387,-3.0,8.0,-10.0,-31.0,3.0,-9.0,410.0,-19502.0,8770.0
5094231,2482,3030,2271,2772,3142,-23,90,-918,81,11,-387,0.0,5.0,-30.0,-45.0,-3.0,-2.0,410.0,-19391.0,8770.0
5094252,2480,3028,2282,2786,3142,-23,91,-918,81,11,-387,-11.0,-12.0,5.0,-27.0,-7.0,-5.0,410.0,-19294.0,8770.0
5094272,2470,3015,2276,2778,3142,-23,91,-918,81,11,-387,-9.0,0.0,0.0,43.0,-10.0,0.0,410.0,-19190.0,8770.0
5094293,2480,3028,2279,2782,3142,-23,90,-918,80,11,1612,1.0,-11.0,-21.0,37.0,-8.0,24.0,410.0,-19084.0,8770.0
5094314,2487,3036,2257,2755,3141,-23,89,-918,80,11,-387,-9.0,-9.0,4.0,21.0,0.0,27.0,410.0,-18982.0,8398.0
5094334,2475,3021,2273,2775,3141,-23,89,-918,79,11,-388,-4.0,11.0,3.0,0.0,2.0,8.0,410.0,-18868.0,8398.0
5094355,2495,3046,2252,2749,3141,-23,89,-918,80,11,-388,-8.0,11.0,10.0,-36.0,9.0,-14.0,410.0,-18763.0,8398.0
5094375,2484,3032,2256,2754,3141,-23,90,-918,80,11,-387,-5.0,72.0,-6.0,-75.0,6.0,-29.0,410.0,-18646.0,8398.0
5094397,2528,3086,2330,2844,3142,-23,91,-918,82,11,-386,-27.0,183.0,52.0,-35.0,11.0,-51.0,410.0,-18525.0,8398.0
5094418,2551,3114,2334,2849,3143,-23,92,-918,82,11,-385,-27.0,243.0,74.0,-17.0,16.0,-80.0,410.0,-18392.0,9407.0
5094440,2557,3122,2362,2884,3145,-23,92,-919,82,11,-384,-9.0,261.0,41.0,-11.0,6.0,-70.0,410.0,-18250.0,9407.0
5094463,2563,3129,2381,2907,3146,-23,92,-919,82,11,-383,-9.0,257.0,25.0,3.0,5.0,22.0,410.0,-18095.0,9407.0
5094486,2572,3140,2382,2908,3145,-23,92,-919,82,11,-384,-15.0,134.0,-10.0,26.0,6.0,71.0,410.0,-17946.0,9407.0
5094508,2588,3159,2388,2915,3144,-24,91,-918,82,11,-385,-18.0,80.0,-1.0,23.0,1.0,77.0,410.0,-17805.0,9407.0
5094528,2580,3150,2375,2899,3143,-24,91,-918,81,10,-387,-2.0,9.0,-42.0,36.0,2.0,49.0,410.0,-17646.0,11257.0
5094551,2584,3155,2378,2903,3141,-25,90,-918,81,10,-387,22.0,14.0,-50.0,29.0,8.0,14.0,410.0,-17498.0,11257.0
5094572,2587,3158,2387,2914,3141,-25,90,-918,81,10,-387,21.0,5.0,-44.0,-10.0,15.0,-8.0,410.0,-17334.0,11257.0
5094595,2582,3152,2393,2921,3142,-25,90,-918,81,10,-387,10.0,27.0,-1.0,1.0,24.0,-15.0,410.0,-17174.0,11257.0
5094618,2577,3146,2385,2912,3142,-25,90,-918,81,9,-387,7.0,7.0,19.0,15.0,35.0,8.0,410.0,-17026.0,11257.0
5094639,2571,3139,2369,2892,3142,-26,90,-918,81,8,-387,12.0,-2.0,5.0,13.0,47.0,48.0,410.0,-16875.0,11561.0
5094661,2556,3120,2366,2888,3140,-28,89,-917,81,7,-388,-9.0,-32.0,22.0,28.0,50.0,78.0,410.0,-16749.0,11561.0
5094681,2584,3155,2411,2943,3138,-29,88,-917,81,6,-389,-30.0,-192.0,-12.0,51.0,43.0,84.0,410.0,-16606.0,11561.0
5094703,2508,3062,2311,2821,3136,-30,86,-916,79,4,-391,8.0,-9.0,20.0,130.0,46.0,123.0,410.0,-16467.0,11561.0
5094723,2546,3108,2347,2865,3134,-31,86,-915,80,4,-393,-15.0,-10.0,58.0,-30.0,-10.0,153.0,410.0,-16311.0,11561.0
5094746,2542,3103,2350,2869,3131,-31,86,-914,80,4,-396,-7.0,-65.0,58.0,-113.0,-23.0,171.0,410.0,-16153.0,11214.0
5094769,2540,3101,2330,2844,3128,-31,89,-912,83,6,-400,-9.0,-42.0,12.0,-120.0,-44.0,173.0,410.0,-16012.0,11214.0
5094790,2557,3122,2339,2855,3122,-31,93,-911,85,7,-402,-26.0,-27.0,40.0,-120.0,-53.0,180.0,410.0,-15875.0,11214.0
5094812,2564,3130,2304,2813,3119,-30,94,-909,86,9,-405,-4.0,-75.0,-58.0,-88.0,-96.0,146.0,410.0,-15753.0,11214.0
5094832,2556,3120,2309,2819,3118,-28,94,-909,85,10,-406,-2.0,-41.0,-26.0,31.0,-67.0,25.0,410.0,-15620.0,11214.0
5094855,2543,3105,2311,2821,3118,-26,93,-910,83,11,-405,4.0,-70.0,-24.0,85.0,-61.0,-80.0,410.0,-15501.0,9954.0
5094875,2520,3076,2291,2797,3121,-25,91,-910,82,11,-404,11.0,-32.0,-49.0,60.0,-53.0,-95.0,410.0,-15370.0,9954.0
5094898,2518,3074,2288,2793,3122,-104,90,-911,80,12,-403,12.0,-21.0,-34.0,31.0,-55.0,-67.0,410.0,-15245.0,9954.0
5094919,2514,3069,2295,2802,3123,-23,90,-911,80,13,-402,7.0,-6.0,-34.0,-2.0,-60.0,-23.0,410.0,-15128.0,9954.0
5094939,2516,3072,2289,2794,3123,-101,90,-911,80,14,-402,-4.0,-4.0,-21.0,-25.0,-63.0,5.0,410.0,-15007.0,9954.0
5094960,2526,3084,2283,2787,3123,-20,90,-911,80,15,-402,-7.0,-7.0,-12.0,-20.0,-59.0,5.0,410.0,-14890.0,9682.0
5094981,2526,3084,2287,2792,3123,-19,91,-911,80,16,-402,-11.0,-6.0,-3.0,-10.0,-40.0,-10.0,410.0,-14772.0,9682.0
5095001,2516,3072,2291,2797,3124,-18,91,-912,80,16,-401,-14.0,4.0,11.0,-11.0,-20.0,-34.0,410.0,-14654.0,9682.0
5095021,2536,3096,2292,2798,3125,-18,91,-912,80,17,-401,-11.0,28.0,12.0,-20.0,1.0,-43.0,410.0,-14537.0,9682.0
5095041,2521,3078,2301,2809,3125,-18,92,-912,80,17,-400,-18.0,28.0,12.0,-39.0,13.0,-41.0,410.0,-14417.0,9682.0
5095062,2535,3095,2304,2813,3126,-19,92,-912,81,16,-400,-16.0,24.0,14.0,-36.0,20.0,-23.0,410.0,-14303.0,9558.0
5095082,2525,3083,2299,2807,3126,-20,92,-912,81,16,-399,-9.0,14.0,2.0,8.0,13.0,7.0,410.0,-14182.0,9558.0
5095103,2515,3070,2304,2813,3125,-20,91,-912,80,15,-400,-16.0,5.0,6.0,36.0,3.0,35.0,410.0,-14070.0,9558.0
5095122,2516,3072,2299,2807,3125,-20,91,-912,80,15,-400,-16.0,5.0,6.0,36.0,3.0,35.0,410.0,-13993.0,9558.0
5095136,2512,3067,2284,2788,3124,-20,91,-912,80,15,-401,-10.0,-7.0,-11.0,4.0,-9.0,30.0,410.0,-13866.0,9558.0
5095158,2514,3069,2292,2798,3123,-20,91,-911,80,15,-401,-12.0,-16.0,-11.0,-4.0,-3.0,-10.0,410.0,-13747.0,9558.0
5095179,2504,3057,2289,2794,3124,-20,91,-912,80,15,-401,-4.0,-14.0,-24.0,5.0,0.0,-41.0,410.0,-13625.0,9629.0
5095200,2489,3039,2285,2789,3125,-20,91,-912,80,15,-400,-12.0,0.0,0.0,8.0,-4.0,-37.0,410.0,-13514.0,9629.0
5095221,2493,3043,2289,2794,3125,-20,91,-912,80,15,-400,-1.0,-14.0,-13.0,17.0,-10.0,-1.0,410.0,-13412.0,9629.0
5095240,2501,3053,2287,2792,3125,-20,91,-912,80,15,-400,-1.0,-14.0,-13.0,17.0,-10.0,-1.0,410.0,-13340.0,9629.0
5095254,2488,3037,2280,2783,3125,-20,90,-912,79,15,-401,-7.0,-41.0,3.0,54.0,-7.0,28.0,410.0,-13238.0,9629.0
5095273,2485,3034,2276,2778,3125,-20,90,-912,79,15,-401,-7.0,-41.0,3.0,54.0,-7.0,28.0,410.0,-13170.0,9629.0
5095287,2482,3030,2269,2770,3124,-20,89,-912,78,15,-401,-2.0,-63.0,-6.0,53.0,-5.0,22.0,410.0,-13058.0,8734.0
5095309,2477,3024,2261,2760,3123,-20,88,-912,78,15,-402,6.0,-47.0,-15.0,64.0,6.0,8.0,410.0,-12964.0,8734.0
5095328,2471,3017,2258,2757,3123,-20,88,-912,78,15,-402,6.0,-47.0,-15.0,64.0,6.0,8.0,410.0,-12902.0,8734.0
5095341,2467,3012,2257,2755,3123,-20,88,-912,78,14,-401,5.0,-47.0,-16.0,83.0,30.0,-8.0,410.0,-12808.0,8734.0
5095362,2450,2991,2247,2743,3124,-20,88,-912,77,14,-401,3.0,-50.0,-8.0,83.0,28.0,-17.0,410.0,-12719.0,8734.0
5095381,2451,2992,2252,2749,3124,-20,88,-912,77,14,-401,3.0,-50.0,-8.0,83.0,28.0,-17.0,410.0,-12660.0,8734.0
5095394,2454,2996,2248,2744,3125,-20,86,-912,76,13,-401,8.0,-31.0,-31.0,83.0,6.0,-17.0,410.0,-12561.0,7725.0
5095416,2447,2987,2245,2741,3125,-20,85,-912,76,13,-401,14.0,-22.0,-35.0,78.0,13.0,-10.0,410.0,-12476.0,7725.0
5095436,2437,2975,2240,2735,3125,-21,84,-912,75,12,-400,5.0,-13.0,-21.0,65.0,40.0,3.0,410.0,-12382.0,7725.0
5095457,2444,2984,2247,2743,3125,-21,83,-912,74,11,-400,-10.0,-21.0,4.0,66.0,39.0,6.0,410.0,-12300.0,7725.0
5095477,2442,2981,2244,2739,3125,-22,82,1086,73,10,-401,-11.0,-15.0,8.0,66.0,6.0,6.0,410.0,-12208.0,7725.0
5095499,2440,2979,2242,2737,3125,-22,81,-913,72,2,-401,-8.0,-14.0,4.0,71.0,-6.0,0.0,410.0,-12120.0,6984.0
5095520,2437,2975,2240,2735,3125,-22,79,-913,71,9,-401,-11.0,-16.0,14.0,75.0,-11.0,-8.0,410.0,-12043.0,6984.0
5095539,2441,2980,2240,2735,3125,-22,79,-913,71,9,-401,-11.0,-16.0,14.0,75.0,-11.0,-8.0,410.0,-11990.0,6984.0
5095552,2431,2968,2241,2736,3125,-21,77,-913,69,9,-400,-10.0,-18.0,16.0,67.0,-16.0,-7.0,410.0,-11912.0,6984.0
5095572,2442,2981,2240,2735,3125,-21,76,-913,68,9,-400,-5.0,-15.0,5.0,65.0,-21.0,-4.0,410.0,-11834.0,6984.0
5095591,2433,2970,2244,2739,3125,-21,76,-913,68,9,-400,-5.0,-15.0,5.0,65.0,-21.0,-4.0,410.0,-11781.0,6984.0
5095604,2441,2980,2240,2735,3125,-21,74,-913,67,8,-400,-1.0,-8.0,-21.0,38.0,4.0,0.0,410.0,-11704.0,6587.0
5095623,2430,2967,2251,2748,3125,-21,74,-913,67,8,-400,-1.0,-8.0,-21.0,38.0,4.0,0.0,410.0,-11652.0,6587.0
5095636,2437,2975,2247,2743,3125,-21,73,1086,66,8,-401,1.0,-8.0,-34.0,5.0,15.0,8.0,410.0,-11566.0,6587.0
5095658,2432,2969,2248,2744,3125,-21,73,-913,67,8,-401,-2.0,-10.0,-20.0,-3.0,16.0,8.0,410.0,-11493.0,6587.0
5095677,2434,2971,2248,2744,3125,-21,73,-913,67,8,-401,-2.0,-10.0,-20.0,-3.0,16.0,8.0,410.0,-11442.0,6587.0
5095690,2442,2981,2244,2739,3125,-22,74,-913,67,7,-401,-3.0,-7.0,-14.0,3.0,21.0,10.0,410.0,-11363.0,6587.0
5095710,2438,2976,2249,2746,3125,-23,74,-913,67,7,-401,-9.0,-14.0,-2.0,3.0,16.0,8.0,410.0,-11290.0,6509.0
5095730,2447,2987,2250,2747,3125,-23,74,-913,67,7,-401,-7.0,-7.0,-15.0,6.0,15.0,6.0,410.0,-11214.0,6509.0
5095750,2435,2973,2248,2744,3125,-23,74,-913,67,6,-401,2.0,-10.0,-11.0,18.0,20.0,3.0,410.0,-11141.0,6509.0
5095771,2429,2965,2259,2758,3125,-24,73,-913,67,6,-401,-8.0,-10.0,5.0,25.0,34.0,14.0,410.0,-11076.0,6509.0
5095789,2432,2969,2248,2744,3125,-24,73,-913,67,6,-401,-8.0,-10.0,5.0,25.0,34.0,14.0,410.0,-11033.0,6509.0
5095802,2426,2962,2249,2746,3124,-25,73,-913,67,4,-402,-7.0,-16.0,5.0,28.0,30.0,25.0,410.0,-10965.0,6509.0
5095822,2431,2968,2261,2760,3124,-26,72,-912,67,4,-402,-9.0,-21.0,3.0,22.0,28.0,21.0,410.0,-10901.0,5773.0
5095841,2424,2959,2244,2739,3124,-26,72,-912,67,4,-402,-9.0,-21.0,3.0,22.0,28.0,21.0,410.0,-10858.0,5773.0
5095854,2430,2967,2246,2742,3123,-27,72,-912,67,3,-402,-8.0,-15.0,1.0,-3.0,19.0,3.0,410.0,-10795.0,5773.0
5095873,2429,2965,2242,2737,3123,-27,72,-912,67,3,-402,-8.0,-15.0,1.0,-3.0,19.0,3.0,410.0,-10753.0,5773.0
5095885,2422,2957,2243,2738,3124,-27,73,-912,68,3,-402,-1.0,-6.0,-20.0,-5.0,1.0,-22.0,410.0,-10688.0,5773.0
5095906,2420,2954,2231,2724,3124,-27,73,-913,68,3,-401,5.0,-3.0,-27.0,-4.0,3.0,-29.0,410.0,-10628.0,5773.0
5095924,2418,2952,2248,2744,3124,-27,73,-913,68,3,-401,5.0,-3.0,-27.0,-4.0,3.0,-29.0,410.0,-10588.0,5098.0
5095937,2419,2953,2246,2742,3125,-28,73,-913,68,3,-401,3.0,3.0,-9.0,4.0,24.0,-11.0,410.0,-10524.0,5098.0
5095958,2425,2960,2240,2735,3125,-28,73,-913,68,2,-401,4.0,-8.0,-8.0,0.0,28.0,12.0,410.0,-10468.0,5098.0
5095976,2420,2954,2249,2746,3125,-28,73,-913,68,2,-401,4.0,-8.0,-8.0,0.0,28.0,12.0,410.0,-10431.0,5098.0
5095989,2411,2943,2233,2726,3124,-109,73,-913,68,2,-401,12.0,-8.0,-20.0,-4.0,30.0,23.0,410.0,-10369.0,5098.0
5096010,2411,2943,2232,2725,3124,-30,73,-912,69,1,-402,10.0,-14.0,-13.0,-3.0,34.0,9.0,410.0,-10315.0,5098.0
5096029,2412,2945,2225,2716,3124,-30,73,-912,69,1,-402,10.0,-14.0,-13.0,-3.0,34.0,9.0,410.0,-10279.0,4904.0
5096042,2409,2941,2237,2731,3124,-110,73,-912,69,1,-402,3.0,-12.0,1.0,1.0,9.0,-5.0,410.0,-10223.0,4904.0
5096061,2405,2936,2224,2715,3124,-110,73,-912,69,1,-402,3.0,-12.0,1.0,1.0,9.0,-5.0,410.0,-10189.0,4904.0
5096074,2408,2940,2224,2715,3124,-30,73,-912,69,1,-402,9.0,-11.0,-1.0,0.0,8.0,-5.0,410.0,-10138.0,4904.0
5096093,2408,2940,2228,2720,3124,-30,73,-912,69,1,-402,9.0,-11.0,-1.0,0.0,8.0,-5.0,410.0,-10105.0,4904.0
5096105,2411,2943,2224,2715,3124,-31,73,-912,69,0,-402,2.0,-10.0,-3.0,-8.0,12.0,14.0,410.0,-10058.0,4904.0
5096124,2407,2938,2225,2716,3124,-31,73,-912,69,0,-402,2.0,-10.0,-3.0,-8.0,12.0,14.0,410.0,-10026.0,4904.0
5096136,2411,2943,2208,2695,3123,-30,73,-912,69,0,-402,1.0,-15.0,2.0,2.0,-8.0,9.0,410.0,-9974.0,4735.0
5096157,2403,2934,2216,2705,3123,-30,73,-912,69,0,-402,0.0,-16.0,2.0,6.0,0.0,-3.0,410.0,-9930.0,4735.0
5096175,2402,2932,2214,2703,3123,-30,73,-912,69,0,-402,0.0,-16.0,2.0,6.0,0.0,-3.0,410.0,-9900.0,4735.0
5096187,2400,2930,2213,2702,3123,-30,73,-912,70,1,-402,-7.0,-13.0,2.0,-8.0,-9.0,-13.0,410.0,-9851.0,4735.0
5096208,2404,2935,2214,2703,3124,-30,73,-912,70,1,-402,-9.0,-6.0,4.0,-7.0,-28.0,-16.0,410.0,-9808.0,4735.0
5096226,2404,2935,2206,2693,3124,-30,73,-912,70,1,-402,-9.0,-6.0,4.0,-7.0,-28.0,-16.0,410.0,-9779.0,4735.0
5096239,2403,2934,2209,2697,3125,-29,74,-913,69,2,-401,0.0,1.0,-151.0,0.0,-30.0,-34.0,410.0,-9732.0,3899.0
5096260,2400,2930,2214,2703,3125,-28,74,-913,69,3,-401,-12.0,0.0,5.0,3.0,-27.0,-35.0,410.0,-9692.0,3899.0
5096278,2395,2924,2209,2697,3125,-28,74,-913,69,3,-401,-12.0,0.0,5.0,3.0,-27.0,-35.0,410.0,-9666.0,3899.0
5096290,2399,2929,2206,2693,3126,-27,73,-913,69,3,-400,4.0,3.0,-36.0,9.0,-19.0,-12.0,410.0,-9622.0,3899.0
5096311,2403,2934,2221,2711,3126,-27,73,1086,68,3,-400,-17.0,-3.0,-10.0,1.0,8.0,-1.0,410.0,-9582.0,3899.0
5096331,2397,2926,2223,2714,3126,-27,73,-913,68,3,-400,-10.0,-8.0,-12.0,0.0,-2.0,3.0,410.0,-9541.0,3899.0
5096351,2401,2931,2209,2697,3126,-27,73,1086,69,3,-400,-11.0,-11.0,5.0,4.0,-1.0,8.0,410.0,-9501.0,3452.0
5096372,2399,2929,2208,2695,3126,-27,73,-913,69,3,-400,-9.0,-9.0,-6.0,0.0,7.0,11.0,410.0,-9462.0,3452.0
5096392,2392,2920,2215,2704,3126,-28,74,-913,69,3,-400,-5.0,-7.0,-18.0,-13.0,8.0,6.0,410.0,-9424.0,3452.0
5096412,2397,2926,2206,2693,3126,-28,74,-913,69,3,-400,-8.0,-5.0,-9.0,-16.0,3.0,-2.0,410.0,-9390.0,3452.0
5096430,2397,2926,2218,2708,3126,-28,74,-913,69,3,-400,-8.0,-5.0,-9.0,-16.0,3.0,-2.0,410.0,-9367.0,3452.0
5096442,2398,2927,2212,2700,3126,-28,75,-913,69,3,-400,0.0,3.0,-11.0,-5.0,19.0,1.0,410.0,-9333.0,3452.0
5096462,2391,2919,2216,2705,3126,-28,75,-913,70,3,-400,-5.0,4.0,6.0,2.0,18.0,7.0,410.0,-9303.0,2957.0
5096480,2384,2910,2201,2687,3126,-28,75,-913,70,3,-400,-5.0,4.0,6.0,2.0,18.0,7.0,410.0,-9284.0,2957.0
5096492,2394,2923,2221,2711,3125,-28,74,-913,69,2,-401,12.0,-1.0,-13.0,8.0,7.0,26.0,410.0,-9252.0,2957.0
5096512,2407,2938,2204,2691,3125,-29,74,-913,69,2,-401,-2.0,-6.0,12.0,0.0,10.0,23.0,410.0,-9224.0,2957.0
5096530,2399,2929,2227,2719,3125,-29,74,-913,69,2,-401,-2.0,-6.0,12.0,0.0,10.0,23.0,410.0,-9206.0,2957.0
5096542,2395,2924,2207,2694,3124,-29,74,-912,70,2,-401,-5.0,-8.0,10.0,0.0,-6.0,2.0,410.0,-9176.0,2957.0
5096562,2397,2926,2204,2691,3124,-29,74,-913,69,2,-401,-6.0,-12.0,16.0,3.0,-18.0,-6.0,410.0,-9151.0,2533.0
5096580,2398,2927,2208,2695,3124,-29,74,-913,69,2,-401,-6.0,-12.0,16.0,3.0,-18.0,-6.0,410.0,-9134.0,2533.0
5096593,2384,2910,2207,2694,3125,-28,74,1086,69,3,-401,5.0,-6.0,-16.0,11.0,-21.0,-28.0,410.0,-9107.0,2533.0
5096613,2387,2914,2206,2693,3125,-27,73,-913,69,3,-401,0.0,-5.0,-6.0,7.0,-21.0,-22.0,410.0,-9083.0,2533.0
5096631,2397,2926,2211,2699,3125,-27,73,-913,69,3,-401,0.0,-5.0,-6.0,7.0,-21.0,-22.0,410.0,-9067.0,2533.0
5096643,2390,2918,2206,2693,3126,-26,73,-913,68,4,-400,0.0,10.0,4.0,-8.0,-19.0,-10.0,410.0,-9043.0,2533.0
5096663,2397,2926,2195,2680,3126,-26,74,-913,68,4,-400,-1.0,5.0,-6.0,-13.0,-18.0,1.0,410.0,-9020.0,2161.0
5096681,2402,2932,2199,2684,3126,-26,74,-913,68,4,-400,-1.0,5.0,-6.0,-13.0,-18.0,1.0,410.0,-9006.0,2161.0
5096693,2393,2921,2202,2688,3126,-26,74,-913,68,5,-400,-6.0,3.0,-5.0,0.0,-25.0,1.0,410.0,-8985.0,2161.0
5096713,2400,2930,2198,2683,3126,-25,74,-913,68,5,-400,-5.0,1.0,0.0,11.0,-31.0,-5.0,410.0,-8966.0,2161.0
5096730,2403,2934,2192,2676,3126,-25,74,-913,68,5,-400,-5.0,1.0,0.0,11.0,-31.0,-5.0,410.0,-8953.0,2161.0
5096743,2412,2945,2193,2677,3126,-24,73,-913,68,5,-400,10.0,-23.0,-12.0,11.0,-23.0,-19.0,410.0,-8933.0,2161.0
5096763,2479,3026,2206,2693,3126,-24,73,-913,67,6,-400,14.0,-31.0,-11.0,-3.0,-11.0,-31.0,410.0,-8916.0,1733.0
5096782,2356,2876,2178,2659,3126,-24,73,-913,67,6,-400,14.0,-31.0,-11.0,-3.0,-11.0,-31.0,410.0,-8906.0,1733.0
5096794,2407,2938,2181,2663,3128,-23,74,-914,67,7,-398,-11.0,36.0,8.0,-14.0,-42.0,-54.0,410.0,-8893.0,1733.0
5096814,2393,2921,2207,2694,3129,-22,75,-914,67,7,-398,-9.0,23.0,-3.0,-3.0,-58.0,15.0,410.0,-8883.0,1733.0
5096832,2415,2948,2192,2676,3129,-22,75,-914,67,7,-398,-9.0,23.0,-3.0,-3.0,-58.0,15.0,410.0,-8878.0,1733.0
5096844,2412,2945,2193,2677,3128,-20,74,-914,66,9,-398,1.0,-37.0,-5.0,33.0,-53.0,40.0,410.0,-8872.0,1733.0
5096863,2415,2948,2194,2678,3128,-20,74,-914,66,9,-398,1.0,-37.0,-5.0,33.0,-53.0,40.0,410.0,-8869.0,800.0
5096876,2385,2912,2178,2659,3127,-19,73,-914,65,10,-400,-27.0,-24.0,9.0,40.0,-65.0,30.0,410.0,-8864.0,800.0
5096895,2399,2929,2180,2661,3127,-19,73,-914,65,10,-400,-27.0,-24.0,9.0,40.0,-65.0,30.0,410.0,-8860.0,800.0
5096907,2401,2931,2199,2684,3126,-16,71,-913,63,11,-400,-8.0,-25.0,-28.0,15.0,-71.0,10.0,410.0,-8855.0,800.0
5096925,2395,2924,2184,2666,3126,-16,71,-913,63,11,-400,-8.0,-25.0,-28.0,15.0,-71.0,10.0,410.0,-8852.0,800.0
5096938,2401,2931,2197,2682,3126,-15,72,-914,63,12,-400,-31.0,-6.0,13.0,-15.0,-16.0,-16.0,410.0,-8849.0,800.0
5096956,2405,2936,2191,2675,3126,-15,72,-914,63,12,-400,-31.0,-6.0,13.0,-15.0,-16.0,-16.0,410.0,-8848.0,800.0
5096969,2407,2938,2188,2671,3126,-14,72,-914,63,13,-400,-7.0,-7.0,-19.0,6.0,-49.0,-20.0,410.0,-8848.0,330.0
5096987,2402,2932,2190,2673,3126,-14,72,-914,63,13,-400,-7.0,-7.0,-19.0,6.0,-49.0,-20.0,410.0,-8848.0,330.0
5096999,2408,2940,2187,2670,3126,-13,71,-914,62,14,-399,-1.0,8.0,0.0,24.0,-26.0,-1.0,410.0,-8848.0,330.0
5097020,2408,2940,2192,2676,3126,-13,71,-914,62,14,-400,-13.0,-9.0,12.0,-5.0,-11.0,16.0,410.0,-8848.0,330.0
5097038,2407,2938,2193,2677,3126,-13,71,-914,62,14,-400,-13.0,-9.0,12.0,-5.0,-11.0,16.0,410.0,-8848.0,330.0
5097050,2395,2924,2196,2681,3126,-11,71,-914,62,15,-400,1.0,7.0,-12.0,-26.0,-51.0,7.0,410.0,-8848.0,330.0
5097070,2384,2910,2197,2682,3126,-11,72,-914,62,16,-400,10.0,30.0,-24.0,-19.0,-43.0,-23.0,410.0,-8848.0,0.0
5097088,2384,2910,2199,2684,3126,-11,72,-914,62,16,-400,10.0,30.0,-24.0,-19.0,-43.0,-23.0,410.0,-8848.0,0.0
5097100,2383,2909,2199,2684,3127,-10,73,-914,62,16,-399,-6.0,48.0,8.0,-11.0,-7.0,-41.0,410.0,-8848.0,0.0
5097121,2384,2910,2197,2682,3128,-10,73,-914,62,17,-399,-5.0,43.0,5.0,-14.0,-33.0,-20.0,410.0,-8848.0,0.0
5097139,2383,2909,2201,2687,3128,-10,73,-914,62,17,-399,-5.0,43.0,5.0,-14.0,-33.0,-20.0,410.0,-8848.0,0.0
5097151,2391,2919,2201,2687,3128,-8,72,-914,61,18,-399,5.0,32.0,-15.0,-16.0,-50.0,18.0,410.0,-8848.0,0.0
5097171,2387,2914,2200,2686,3127,-8,72,-914,60,18,-399,-2.0,29.0,-2.0,-16.0,-30.0,26.0,410.0,-8848.0,0.0
5097189,2384,2910,2187,2670,3127,-8,72,-914,60,18,-399,-2.0,29.0,-2.0,-16.0,-30.0,26.0,410.0,-8848.0,0.0
5097201,2385,2912,2203,2689,3126,-7,71,-914,60,19,-400,-16.0,22.0,15.0,-5.0,-33.0,3.0,410.0,-8848.0,0.0
5097221,2383,2909,2197,2682,3126,-6,71,-914,60,19,-400,-7.0,23.0,-1.0,0.0,-45.0,-16.0,410.0,-8848.0,0.0
5097238,2385,2912,2203,2689,3126,-6,71,-914,60,19,-400,-7.0,23.0,-1.0,0.0,-45.0,-16.0,410.0,-8848.0,0.0
5097250,2390,2918,2202,2688,3127,-5,71,-914,59,20,-399,-10.0,31.0,2.0,3.0,-25.0,-28.0,410.0,-8848.0,0.0
5097269,2383,2909,2215,2704,3127,-5,71,-914,59,20,-399,-10.0,31.0,2.0,3.0,-25.0,-28.0,410.0,-8848.0,0.0
5097281,2382,2908,2205,2692,3128,-5,70,-914,58,20,-399,-18.0,32.0,12.0,3.0,-21.0,-9.0,410.0,-8848.0,0.0
5097301,2386,2913,2206,2693,3128,-5,70,-914,58,20,-399,-9.0,27.0,-5.0,1.0,-35.0,6.0,410.0,-8848.0,0.0
5097321,2400,2930,2205,2692,3128,-4,70,-914,57,20,-399,-11.0,21.0,-4.0,0.0,-24.0,12.0,410.0,-8848.0,0.0
5097338,2392,2920,2207,2694,3128,-4,70,-914,57,20,-399,-11.0,21.0,-4.0,0.0,-24.0,12.0,410.0,-8848.0,0.0
5097350,2387,2914,2207,2694,3127,-4,70,-914,57,20,-399,-13.0,21.0,-15.0,3.0,-13.0,-2.0,410.0,-8848.0,0.0
5097369,2386,2913,2207,2694,3127,-4,70,-914,57,20,-399,-13.0,21.0,-15.0,3.0,-13.0,-2.0,410.0,-8848.0,0.0
5097381,2384,2910,2209,2697,3128,-3,69,-914,57,20,-399,-14.0,20.0,0.0,7.0,-16.0,-13.0,410.0,-8848.0,0.0
5097401,2383,2909,2207,2694,3128,-3,69,-914,56,20,-399,-10.0,26.0,-11.0,7.0,-4.0,-12.0,410.0,-8848.0,0.0
5097421,2386,2913,2203,2689,3128,-3,68,-914,56,20,-399,-15.0,23.0,1.0,5.0,6.0,-83.0,410.0,-8848.0,0.0
5097440,2379,2904,2201,2687,3128,-3,68,-914,56,20,-399,-15.0,23.0,1.0,5.0,6.0,-83.0,410.0,-8848.0,0.0
5097452,2379,2904,2205,2692,3128,-4,68,-914,56,20,-399,-13.0,21.0,0.0,0.0,0.0,13.0,410.0,-8848.0,0.0
5097472,2383,2909,2206,2693,3127,-4,68,-914,56,20,-399,-13.0,14.0,7.0,0.0,10.0,18.0,410.0,-8848.0,0.0
5097489,2377,2902,2207,2694,3127,-4,68,-914,56,20,-399,-13.0,14.0,7.0,0.0,10.0,18.0,410.0,-8848.0,0.0
5097501,2386,2913,2207,2694,3127,-5,68,-914,56,19,-399,-12.0,15.0,-8.0,2.0,25.0,5.0,410.0,-8848.0,0.0
5097520,2385,2912,2200,2686,3127,-5,68,-914,56,19,-399,-12.0,15.0,-8.0,2.0,25.0,5.0,410.0,-8848.0,0.0
5097532,2386,2913,2208,2695,3127,-5,68,-914,56,18,-399,-5.0,14.0,-11.0,1.0,16.0,-6.0,410.0,-8848.0,0.0
5097552,2384,2910,2206,2693,3127,-6,68,-914,56,18,-399,-4.0,19.0,-4.0,0.0,28.0,-2.0,410.0,-8848.0,0.0
5097572,2390,2918,2204,2691,3127,-7,67,-914,57,17,-399,-8.0,19.0,5.0,-5.0,41.0,4.0,410.0,-8848.0,0.0
5097590,2387,2914,2202,2688,3127,-7,67,-914,57,17,-399,-8.0,19.0,5.0,-5.0,41.0,4.0,410.0,-8848.0,0.0
5097601,2391,2919,2196,2681,3127,-8,67,-914,57,16,-399,-2.0,12.0,-15.0,-8.0,19.0,15.0,410.0,-8848.0,0.0
5097622,2390,2918,2202,2688,3126,-8,68,-914,57,16,-400,0.0,12.0,-3.0,-8.0,21.0,11.0,410.0,-8848.0,0.0
5097639,2392,2920,2197,2682,3126,-8,68,-914,57,16,-400,0.0,12.0,-3.0,-8.0,21.0,11.0,410.0,-8848.0,0.0
5097651,2385,2912,2200,2686,3126,-10,68,-914,58,15,-400,-9.0,14.0,0.0,-8.0,40.0,0.0,410.0,-8848.0,0.0
5097669,2396,2925,2202,2688,3126,-10,68,-914,58,15,-400,-9.0,14.0,0.0,-8.0,40.0,0.0,410.0,-8848.0,0.0
5097681,2388,2915,2200,2686,3127,-10,68,-914,58,15,-400,0.0,19.0,-2.0,-10.0,30.0,-5.0,410.0,-8848.0,0.0
5097700,2387,2914,2207,2694,3127,-10,68,-914,58,15,-400,0.0,19.0,-2.0,-10.0,30.0,-5.0,410.0,-8848.0,0.0
5097712,2394,2923,2204,2691,3127,-11,68,-914,59,14,-399,-8.0,20.0,1.0,-12.0,49.0,6.0,410.0,-8848.0,0.0
5097729,2390,2918,2192,2676,3127,-11,68,-914,59,14,-399,-8.0,20.0,1.0,-12.0,49.0,6.0,410.0,-8848.0,0.0
5097741,2401,2931,2189,2672,3126,-13,68,-914,59,13,-400,-5.0,19.0,-3.0,-13.0,38.0,20.0,410.0,-8848.0,0.0
5097760,2394,2923,2192,2676,3126,-13,68,-914,59,13,-400,-5.0,19.0,-3.0,-13.0,38.0,20.0,410.0,-8848.0,0.0
5097772,2404,2935,2188,2671,3126,-14,68,-914,60,12,-400,1.0,13.0,-3.0,-13.0,45.0,15.0,410.0,-8849.0,0.0
5097789,2396,2925,2186,2669,3126,-14,68,-914,60,12,-400,1.0,13.0,-3.0,-13.0,45.0,15.0,410.0,-8849.0,0.0
5097801,2384,2910,2197,2682,3126,-15,68,-914,60,11,-400,11.0,16.0,-10.0,-8.0,33.0,-15.0,410.0,-8849.0,-16.0
5097821,2387,2914,2198,2683,3126,-16,68,-914,60,10,-400,8.0,29.0,-4.0,0.0,33.0,-30.0,410.0,-8849.0,-16.0
5097838,2387,2914,2196,2681,3126,-16,68,-914,60,10,-400,8.0,29.0,-4.0,0.0,33.0,-30.0,410.0,-8849.0,-16.0
5097850,2395,2924,2195,2680,3127,-16,68,-914,60,10,-399,2.0,31.0,6.0,0.0,36.0,-3.0,410.0,-8849.0,-16.0
5097868,2396,2925,2196,2681,3127,-16,68,-914,60,10,-399,2.0,31.0,6.0,0.0,36.0,-3.0,410.0,-8849.0,-16.0
5097880,2399,2929,2184,2666,3126,-17,67,-914,60,9,-400,10.0,19.0,5.0,-5.0,23.0,33.0,410.0,-8848.0,-16.0
5097897,2400,2930,2181,2663,3126,-17,67,-914,60,9,-400,10.0,19.0,5.0,-5.0,23.0,33.0,410.0,-8848.0,-16.0
5097909,2399,2929,2184,2666,3126,-18,67,-914,60,8,-400,7.0,10.0,0.0,0.0,25.0,24.0,410.0,-8848.0,15.0
5097927,2411,2943,2192,2676,3126,-18,67,-914,60,8,-400,7.0,10.0,0.0,0.0,25.0,24.0,410.0,-8848.0,15.0
5097939,2395,2924,2193,2677,3125,-18,66,-914,60,8,-401,0.0,12.0,9.0,8.0,18.0,-4.0,410.0,-8848.0,15.0
5097957,2397,2926,2193,2677,3125,-18,66,-914,60,8,-401,0.0,12.0,9.0,8.0,18.0,-4.0,410.0,-8848.0,15.0
5097969,2396,2925,2192,2676,3126,-18,66,-914,60,7,-400,10.0,15.0,-5.0,11.0,-2.0,-22.0,410.0,-8848.0,15.0
5097986,2394,2923,2189,2672,3126,-18,66,-914,60,7,-400,10.0,15.0,-5.0,11.0,-2.0,-22.0,410.0,-8848.0,15.0
5097998,2395,2924,2189,2672,3126,-19,66,-914,59,7,-400,2.0,17.0,6.0,9.0,14.0,-11.0,410.0,-8848.0,15.0
5098017,2400,2930,2192,2676,3126,-19,66,-914,59,7,-400,2.0,17.0,6.0,9.0,14.0,-11.0,410.0,-8848.0,0.0
5098029,2423,2958,2202,2688,3126,-19,65,-914,59,7,-400,9.0,9.0,-4.0,5.0,-12.0,11.0,410.0,-8849.0,0.0
5098047,2386,2913,2192,2676,3126,-19,65,-914,59,7,-400,9.0,9.0,-4.0,5.0,-12.0,11.0,410.0,-8849.0,0.0
5098058,2399,2929,2194,2678,3126,-18,65,-914,59,7,-400,5.0,3.0,0.0,0.0,-1.0,10.0,410.0,-8849.0,0.0
5098077,2396,2925,2189,2672,3126,-18,65,-914,59,7,-400,5.0,3.0,0.0,0.0,-1.0,10.0,410.0,-8848.0,0.0
5098088,2394,2923,2188,2671,3126,-18,65,-914,59,7,-400,-16.0,8.0,16.0,0.0,-1.0,3.0,410.0,-8849.0,0.0
