Timestamp_ms,ADC1_Raw,ADC1_V_milli,ADC2_Raw,ADC2_V_milli,Heading_deci,Roll_deci,Pitch_deci,Quat_W_milli,Quat_X_milli,Quat_Y_milli,Quat_Z_milli,LinAccel_X_centi,LinAccel_Y_centi,LinAccel_Z_centi,AngVel_X_deci,AngVel_Y_deci,AngVel_Z_deci,Temp_C_deci,Encoder_Count,Encoder_RPM_deci
5132276,2395,2924,2175,2655,3146,-55,83,-919,85,-17,-383,-5,3,-8,-1,-7,9,410,-37592,0
5132294,2397,2926,2171,2650,3146,-55,83,-919,85,-17,-383,-5,3,-8,-1,-7,9,410,-37592,0
5132306,2395,2924,2172,2652,3146,-55,83,-919,85,-17,-384,0,-1,-8,1,-3,6,410,-37592,0
5132326,2395,2924,2173,2653,3145,-55,83,-919,85,-17,-384,-1,-5,-7,1,-1,3,410,-37592,0
5132345,2397,2926,2179,2660,3145,-55,83,-919,85,-17,-384,-1,-5,-7,1,-1,3,410,-37592,0
5132357,2399,2929,2172,2652,3145,-56,83,-919,85,-17,-384,0,-6,-11,1,10,-4,410,-37592,0
5132377,2380,2905,2171,2650,3145,-56,83,-919,85,-17,-384,0,-6,-4,0,13,-4,410,-37592,0
5132396,2407,2938,2175,2655,3145,-56,83,-919,85,-17,-384,0,-6,-4,0,13,-4,410,-37592,0
5132408,2388,2915,2169,2648,3146,-136,83,-919,85,-17,-384,1,-2,1,-4,3,-3,410,-37592,0
5132427,2392,2920,2173,2653,3146,-136,83,-919,85,-17,-384,1,-2,1,-4,3,-3,410,-37592,0
5132439,2395,2924,2191,2675,3146,-56,83,-919,85,-17,-384,0,4,-3,0,3,-7,410,-37592,0
5132458,2404,2935,2172,2652,3146,-56,83,-919,85,-17,-384,0,4,-3,0,3,-7,410,-37592,0
5132470,2395,2924,2171,2650,3146,-136,83,-919,85,-17,-384,3,2,-3,0,0,-2,410,-37592,0
5132489,2393,2921,2171,2650,3146,-136,83,-919,85,-17,-384,3,2,-3,0,0,-2,410,-37592,0
5132501,2394,2923,2170,2649,3146,-56,83,-919,85,-17,-384,0,0,0,0,-6,7,410,-37592,0
5132519,2395,2924,2175,2655,3146,-56,83,-919,85,-17,-384,0,0,0,0,-6,7,410,-37592,0
5132530,2397,2926,2183,2665,3145,-56,83,-919,85,-17,-384,-4,0,-3,0,-11,7,410,-37592,0
5132549,2396,2925,2167,2645,3145,-56,83,-919,85,-17,-384,-4,0,-3,0,-11,7,410,-37592,0
5132561,2387,2914,2169,2648,3145,-55,83,-919,85,-17,-384,-7,-1,-12,1,-13,0,410,-37592,0
5132579,2384,2910,2175,2655,3145,-55,83,-919,85,-17,-384,-7,-1,-12,1,-13,0,410,-37592,0
5132591,2394,2923,2166,2644,3145,-55,83,-919,85,-16,-384,-10,-3,-3,0,-12,3,410,-37592,0
5132609,2431,2968,2169,2648,3145,-55,83,-919,85,-16,-384,-10,-3,-3,0,-12,3,410,-37592,0
5132622,2395,2924,2170,2649,3145,-55,83,-918,85,-16,-384,-9,-1,-7,-2,-5,6,410,-37592,0
5132640,2394,2923,2169,2648,3145,-55,83,-918,85,-16,-384,-9,-1,-7,-2,-5,6,410,-37592,0
5132652,2392,2920,2167,2645,3145,-55,83,-918,85,-16,-384,-7,-1,-10,0,6,2,410,-37592,0
5132671,2394,2923,2173,2653,3145,-55,83,-918,85,-16,-384,-7,-1,-10,0,6,2,410,-37592,0
5132682,2400,2930,2175,2655,3145,-55,83,-918,85,-17,-384,0,-2,-2,0,11,-5,410,-37592,0
5132701,2394,2923,2164,2642,3145,-55,83,-918,85,-17,-384,0,-2,-2,0,11,-5,410,-37592,0
5132713,2396,2925,2171,2650,3145,-55,83,-918,85,-17,-384,4,2,-5,-3,8,1,410,-37592,0
5132731,2395,2924,2168,2647,3145,-55,83,-918,85,-17,-384,4,2,-5,-3,8,1,410,-37592,0
5132743,2376,2901,2172,2652,3145,-56,83,-918,85,-17,-384,4,0,-4,0,4,5,410,-37592,0
5132761,2394,2923,2175,2655,3145,-56,83,-918,85,-17,-384,4,0,-4,0,4,5,410,-37592,0
5132773,2399,2929,2179,2660,3145,-56,83,-918,85,-17,-384,2,0,0,2,2,0,410,-37592,0
5132790,2392,2920,2171,2650,3145,-56,83,-918,85,-17,-384,2,0,0,2,2,0,410,-37592,0
5132802,2397,2926,2199,2684,3145,-56,83,-918,85,-17,-384,2,-1,-3,3,-3,0,410,-37592,0
5132821,2399,2929,2172,2652,3145,-56,83,-918,85,-17,-384,2,-1,-3,3,-3,0,410,-37592,0
5132833,2395,2924,2166,2644,3145,-55,83,-918,85,-17,-384,3,-1,0,0,-8,1,410,-37592,0
5132851,2397,2926,2160,2637,3145,-55,83,-918,85,-17,-384,3,-1,0,0,-8,1,410,-37592,0
5132863,2388,2915,2176,2656,3145,-55,83,-918,85,-17,-384,1,-3,-8,1,-11,1,410,-37592,0
5132881,2392,2920,2174,2654,3145,-55,83,-918,85,-17,-384,1,-3,-8,1,-11,1,410,-37592,0
5132893,2394,2923,2168,2647,3145,-55,83,-918,85,-16,-384,0,-2,-7,1,-15,0,410,-37592,0
5132911,2396,2925,2175,2655,3145,-55,83,-918,85,-16,-384,0,-2,-7,1,-15,0,410,-37592,0
5132923,2396,2925,2168,2647,3145,-55,83,-918,85,-16,-384,-4,0,-1,0,-15,1,410,-37592,0
5132941,2397,2926,2172,2652,3145,-55,83,-918,85,-16,-384,-4,0,-1,0,-15,1,410,-37592,0
5132953,2392,2920,2174,2654,3145,-54,83,-919,85,-16,-384,-4,0,-13,1,-13,5,410,-37592,0
5132971,2396,2925,2175,2655,3145,-54,83,-919,85,-16,-384,-4,0,-13,1,-13,5,410,-37592,0
5132983,2393,2921,2171,2650,3145,-53,83,-918,85,-15,-384,-4,-2,-4,0,-10,5,410,-37592,0
5133002,2399,2929,2164,2642,3145,-53,83,-918,85,-15,-384,-4,-2,-4,0,-10,5,410,-37592,0
5133014,2393,2921,2171,2650,3145,-53,83,-918,84,-15,-384,-4,-5,-5,1,-13,-1,410,-37592,0
5133033,2391,2919,2173,2653,3145,-53,83,-918,84,-15,-384,-4,-5,-5,1,-13,-1,410,-37592,0
5133045,2393,2921,2169,2648,3145,-53,83,-918,84,-15,-384,-5,-3,-5,0,-8,-3,410,-37592,0
5133064,2406,2937,2165,2643,3145,-53,83,-918,84,-15,-384,-5,-3,-5,0,-8,-3,410,-37592,0
5133076,2399,2929,2170,2649,3145,-53,83,-918,84,-15,-384,-1,2,-6,-1,-8,0,410,-37592,0
5133093,2388,2915,2171,2650,3145,-53,83,-918,84,-15,-384,-1,2,-6,-1,-8,0,410,-37592,0
5133105,2395,2924,2172,2652,3145,-52,83,-918,84,-14,-384,-1,1,-7,-1,-6,3,410,-37592,0
5133124,2396,2925,2172,2652,3145,-52,83,-918,84,-14,-384,-1,1,-7,-1,-6,3,410,-37592,0
5133136,2392,2920,2169,2648,3145,-52,83,-919,84,-14,-384,-2,-1,0,0,-6,0,410,-37592,0
5133155,2394,2923,2170,2649,3145,-52,83,-919,84,-14,-384,-2,-1,0,0,-6,0,410,-37592,0
5133167,2388,2915,2171,2650,3145,-52,83,-919,84,-14,-384,-8,-1,-4,1,-6,0,410,-37592,0
5133187,2392,2920,2175,2655,3145,-51,83,-919,84,-14,-384,0,0,-16,0,-10,4,410,-37592,0
5133207,2392,2920,2171,2650,3145,-51,83,-918,84,-14,-384,-4,-3,-11,1,-6,7,410,-37592,0
5133228,2395,2924,2177,2658,3145,-51,83,-918,84,-14,-385,-8,-3,-5,0,-3,6,410,-37592,0
5133246,2395,2924,2173,2653,3145,-51,83,-918,84,-14,-385,-8,-3,-5,0,-3,6,410,-37592,0
5133258,2392,2920,2168,2647,3145,-51,83,-918,84,-14,-385,-9,-4,-4,1,-5,-1,410,-37592,0
5133279,2392,2920,2175,2655,3145,-51,83,-918,84,-14,-385,-8,-2,-9,0,-1,-6,410,-37592,0
5133297,2394,2923,2175,2655,3145,-51,83,-918,84,-14,-385,-8,-2,-9,0,-1,-6,410,-37592,0
5133309,2403,2934,2175,2655,3145,-51,83,-919,84,-14,-384,-8,-2,-6,-1,4,-2,410,-37592,0
5133330,2393,2921,2175,2655,3145,-51,83,-919,84,-14,-384,-6,3,-4,-1,5,-1,410,-37592,0
5133349,2407,2938,2168,2647,3145,-51,83,-919,84,-14,-384,-6,3,-4,-1,5,-1,410,-37592,0
5133361,2393,2921,2172,2652,3145,-51,83,-919,84,-14,-384,-5,2,-5,0,5,7,410,-37592,0
5133380,2391,2919,2175,2655,3145,-51,83,-919,84,-14,-384,-5,2,-5,0,5,7,410,-37592,0
5133392,2419,2953,2173,2653,3145,-51,83,-918,84,-14,-385,-4,0,-9,3,3,6,410,-37592,0
5133411,2394,2923,2172,2652,3145,-51,83,-918,84,-14,-385,-4,0,-9,3,3,6,410,-37592,0
5133423,2393,2921,2173,2653,3145,-51,83,-918,84,-14,-385,-1,-1,-10,4,3,6,410,-37592,0
5133442,2399,2929,2176,2656,3145,-51,83,-918,84,-14,-385,-1,-1,-10,4,3,6,410,-37592,0
5133454,2392,2920,2175,2655,3144,-51,83,-918,84,-14,-385,-1,-2,-10,0,8,13,410,-37592,0
5133473,2394,2923,2168,2647,3144,-51,83,-918,84,-14,-385,-1,-2,-10,0,8,13,410,-37592,0
5133484,2394,2923,2173,2653,3144,-52,83,-918,84,-14,-385,0,-5,1,-3,11,10,410,-37592,0
5133503,2393,2921,2172,2652,3144,-52,83,-918,84,-14,-385,0,-5,1,-3,11,10,410,-37592,0
5133515,2394,2923,2186,2669,3144,-52,83,-918,84,-14,-385,-2,-5,-4,0,11,-5,410,-37592,0
5133533,2393,2921,2177,2658,3144,-52,83,-918,84,-14,-385,-2,-5,-4,0,11,-5,410,-37592,0
5133545,2399,2929,2175,2655,3144,-53,83,-918,84,-15,-385,0,-1,-2,-1,6,-15,410,-37592,0
5133564,2397,2926,2169,2648,3144,-53,83,-918,84,-15,-385,0,-1,-2,-1,6,-15,410,-37592,0
5133576,2392,2920,2173,2653,3145,-53,83,-918,84,-15,-385,-7,7,1,-4,0,-1,410,-37592,0
5133594,2395,2924,2171,2650,3145,-53,83,-918,84,-15,-385,-7,7,1,-4,0,-1,410,-37592,0
5133605,2405,2936,2168,2647,3144,-53,83,-918,84,-15,-385,-7,6,-10,-3,2,7,410,-37592,0
5133624,2403,2934,2171,2650,3144,-53,83,-918,84,-15,-385,-7,6,-10,-3,2,7,410,-37592,0
5133636,2396,2925,2170,2649,3144,-53,83,-918,84,-15,-385,-4,1,-12,5,8,0,410,-37592,0
5133654,2401,2931,2164,2642,3144,-53,83,-918,84,-15,-385,-4,1,-12,5,8,0,410,-37592,0
5133666,2394,2923,2175,2655,3144,-53,82,-918,84,-15,-385,-2,-5,-6,4,16,0,410,-37592,0
5133685,2397,2926,2173,2653,3144,-53,82,-918,84,-15,-385,-2,-5,-6,4,16,0,410,-37592,0
5133697,2395,2924,2166,2644,3144,-53,82,-918,84,-15,-385,-3,-7,0,-1,8,2,410,-37592,0
5133715,2395,2924,2168,2647,3144,-53,82,-918,84,-15,-385,-3,-7,0,-1,8,2,410,-37592,0
5133726,2397,2926,2164,2642,3144,-53,82,-918,84,-15,-385,0,-3,-6,-3,0,2,410,-37592,0
5133744,2395,2924,2164,2642,3144,-53,82,-918,84,-15,-385,0,-3,-6,-3,0,2,410,-37592,0
5133756,2394,2923,2172,2652,3144,-53,82,-918,84,-15,-385,-3,0,-10,-4,0,0,410,-37592,0
5133774,2398,2927,2164,2642,3144,-53,82,-918,84,-15,-385,-3,0,-10,-4,0,0,410,-37592,0
5133786,2399,2929,2182,2664,3144,-53,82,-918,84,-15,-385,-1,3,0,0,-5,0,410,-37592,0
5133804,2391,2919,2173,2653,3144,-53,82,-918,84,-15,-385,-1,3,0,0,-5,0,410,-37592,0
5133816,2399,2929,2174,2654,3144,-53,82,-918,84,-15,-385,-2,2,-6,0,0,3,410,-37592,0
5133834,2397,2926,2170,2649,3144,-53,82,-918,84,-15,-385,-2,2,-6,0,0,3,410,-37592,0
5133846,2399,2929,2168,2647,3144,-53,82,-918,84,-15,-385,-7,-3,-7,2,4,2,410,-37592,0
5133864,2393,2921,2173,2653,3144,-53,82,-918,84,-15,-385,-7,-3,-7,2,4,2,410,-37592,0
5133876,2395,2924,2170,2649,3144,-53,82,-918,84,-15,-385,-5,-4,-4,1,0,-2,410,-37592,0
5133894,2399,2929,2169,2648,3144,-53,82,-918,84,-15,-385,-5,-4,-4,1,0,-2,410,-37592,0
5133906,2398,2927,2175,2655,3144,-53,82,-918,84,-15,-385,-4,-1,-5,1,0,0,410,-37592,0
5133925,2392,2920,2170,2649,3144,-53,82,-918,84,-15,-385,-4,-1,-5,1,0,0,410,-37592,0
5133936,2391,2919,2174,2654,3144,-53,82,-918,84,-15,-385,0,2,-11,-2,3,3,410,-37592,0
5133955,2393,2921,2172,2652,3144,-53,82,-918,84,-15,-385,0,2,-11,-2,3,3,410,-37592,0
5133967,2397,2926,2168,2647,3144,-53,82,-918,84,-15,-385,0,2,-8,0,5,2,410,-37592,0
5133985,2399,2929,2172,2652,3144,-53,82,-918,84,-15,-385,0,2,-8,0,5,2,410,-37592,0
5133996,2396,2925,2162,2639,3144,-53,82,-918,84,-15,-385,1,-1,2,0,-3,0,410,-37592,0
5134015,2390,2918,2164,2642,3144,-53,82,-918,84,-15,-385,1,-1,2,0,-3,0,410,-37592,0
5134026,2399,2929,2171,2650,3144,-133,82,-918,84,-15,-385,0,0,-9,0,-5,0,410,-37592,0
5134044,2386,2913,2169,2648,3144,-133,82,-918,84,-15,-385,0,0,-9,0,-5,0,410,-37592,0
5134056,2397,2926,2175,2655,3144,20426,82,-918,84,-15,-385,0,0,-3,0,-9,3,410,-37592,0
5134075,2392,2920,2171,2650,3144,20426,82,-918,84,-15,-385,0,0,-3,0,-9,3,410,-37592,0
5134087,2392,2920,2171,2650,3144,-53,82,-918,84,-15,-385,-2,0,0,0,-14,3,410,-37592,0
5134104,2398,2927,2170,2649,3144,-53,82,-918,84,-15,-385,-2,0,0,0,-14,3,410,-37592,0
5134116,2384,2910,2169,2648,3144,-133,82,-918,84,-14,-385,-4,2,-10,3,-15,-2,410,-37592,0
5134134,2392,2920,2175,2655,3144,-133,82,-918,84,-14,-385,-4,2,-10,3,-15,-2,410,-37592,0
5134147,2403,2934,2164,2642,3144,-52,82,-918,84,-14,-385,-4,0,-11,3,-13,0,410,-37592,0
5134165,2399,2929,2160,2637,3144,-52,82,-918,84,-14,-385,-4,0,-11,3,-13,0,410,-37592,0
5134177,2393,2921,2171,2650,3144,-51,82,-918,84,-14,-385,-9,-2,-5,1,-15,6,410,-37592,0
5134196,2392,2920,2168,2647,3144,-51,82,-918,84,-14,-385,-9,-2,-5,1,-15,6,410,-37592,0
5134208,2407,2938,2168,2647,3144,-51,82,-918,84,-13,-385,-5,-2,-8,1,-13,4,410,-37592,0
5134226,2407,2938,2171,2650,3144,-51,82,-918,84,-13,-385,-5,-2,-8,1,-13,4,410,-37592,0
5134238,2394,2923,2171,2650,3144,-51,82,-918,83,-13,-385,-3,1,-12,0,-15,1,410,-37592,0
5134256,2400,2930,2169,2648,3144,-51,82,-918,83,-13,-385,-3,1,-12,0,-15,1,410,-37592,0
5134268,2392,2920,2172,2652,3144,-50,82,-918,83,-13,-385,-7,-2,-4,-1,-11,1,410,-37592,0
5134286,2394,2923,2169,2648,3144,-50,82,-918,83,-13,-385,-7,-2,-4,-1,-11,1,410,-37592,0
5134298,2392,2920,2178,2659,3144,-50,82,-918,83,-13,-385,-8,0,0,-1,-8,0,410,-37592,0
5134317,2423,2958,2169,2648,3144,-50,82,-918,83,-13,-385,-8,0,0,-1,-8,0,410,-37592,0
5134328,2393,2921,2173,2653,3144,-50,82,-918,83,-12,-385,-6,0,-7,1,-6,-1,410,-37592,0
5134346,2396,2925,2171,2650,3144,-50,82,-918,83,-12,-385,-6,0,-7,1,-6,-1,410,-37592,0
5134358,2400,2930,2172,2652,3144,-50,82,-918,83,-12,-385,-6,2,-9,0,-10,-5,410,-37592,0
5134377,2398,2927,2182,2664,3144,-50,82,-918,83,-12,-385,-6,2,-9,0,-10,-5,410,-37592,0
5134389,2388,2915,2172,2652,3144,-50,82,-918,83,-12,-385,-3,2,-2,3,-6,0,410,-37592,0
5134407,2395,2924,2169,2648,3144,-50,82,-918,83,-12,-385,-3,2,-2,3,-6,0,410,-37592,0
5134419,2395,2924,2174,2654,3144,-50,82,-918,83,-12,-385,-4,1,-9,0,-9,5,410,-37592,0
5134438,2391,2919,2173,2653,3144,-50,82,-918,83,-12,-385,-4,1,-9,0,-9,5,410,-37592,0
5134450,2397,2926,2174,2654,3144,-49,82,-918,83,-12,-385,-3,-1,-8,3,-11,0,410,-37592,0
5134468,2394,2923,2172,2652,3144,-49,82,-918,83,-12,-385,-3,-1,-8,3,-11,0,410,-37592,0
5134480,2396,2925,2180,2661,3144,-48,82,-918,83,-11,-385,-5,-2,-5,3,-9,-3,410,-37592,0
5134498,2389,2916,2183,2665,3144,-48,82,-918,83,-11,-385,-5,-2,-5,3,-9,-3,410,-37592,0
5134510,2394,2923,2176,2656,3144,-48,82,-918,83,-11,-385,-8,-1,0,2,-14,-5,410,-37592,0
5134529,2393,2921,2175,2655,3144,-48,82,-918,83,-11,-385,-8,-1,0,2,-14,-5,410,-37592,0
5134541,2393,2921,2173,2653,3144,-48,82,-918,83,-11,-385,-8,1,-6,3,-14,-2,410,-37592,0
5134559,2392,2920,2173,2653,3144,-48,82,-918,83,-11,-385,-8,1,-6,3,-14,-2,410,-37592,0
5134570,2389,2916,2172,2652,3144,-48,82,-918,82,-10,-385,-6,2,-9,1,-12,0,410,-37592,0
5134590,2395,2924,2176,2656,3144,-47,82,-918,82,-10,-385,-9,1,-4,1,-10,1,410,-37592,0
5134609,2391,2919,2175,2655,3144,-47,82,-918,82,-10,-385,-9,1,-4,1,-10,1,410,-37592,0
5134621,2394,2923,2173,2653,3144,-47,82,-918,82,-10,-385,-10,-5,-10,0,-8,-4,410,-37592,0
5134641,2395,2924,2176,2656,3144,-47,82,-918,82,-10,-385,-9,-1,-5,2,-3,-5,410,-37592,0
5134661,2392,2920,2175,2655,3144,-47,82,-918,82,-10,-385,-9,1,-9,0,-4,-6,410,-37592,0
5134681,2394,2923,2178,2659,3144,-47,82,-918,82,-10,-385,-8,0,-9,0,-3,-1,410,-37592,0
5134698,2389,2916,2176,2656,3144,-47,82,-918,82,-10,-385,-8,0,-9,0,-3,-1,410,-37592,0
5134710,2396,2925,2178,2659,3144,-47,82,-918,82,-10,-385,-10,0,-4,-4,1,7,410,-37592,0
5134729,2395,2924,2173,2653,3144,-47,82,-918,82,-10,-385,-10,0,-4,-4,1,7,410,-37592,0
5134741,2407,2938,2176,2656,3143,-47,82,-918,82,-10,-385,-5,-1,-6,-3,4,4,410,-37592,0
5134761,2395,2924,2171,2650,3143,-47,82,-918,82,-10,-385,-7,-4,-9,-6,7,0,410,-37592,0
5134780,2392,2920,2174,2654,3143,-47,82,-918,82,-10,-385,-7,-4,-9,-6,7,0,410,-37592,0
5134792,2392,2920,2173,2653,3144,-48,82,-918,82,-10,-385,-6,5,-3,0,8,-8,410,-37592,0
5135181,2392,2920,2173,2653,3143,-48,82,-918,83,-11,-386,-6,-5,0,-1,5,-4,410,-37592,0
5135193,2395,2924,2173,2653,3143,-48,82,-918,83,-11,-385,-2,3,-14,-5,10,-7,410,-37592,0
5135212,2379,2904,2168,2647,3143,-48,82,-918,83,-11,-385,-2,3,-14,-5,10,-7,410,-37592,0
5135225,2397,2926,2171,2650,3144,-49,83,-918,83,-11,-385,-8,8,7,-6,17,1,410,-37592,0
5135245,2394,2923,2173,2653,3144,-49,83,-918,83,-12,-385,-6,6,16,-3,14,3,410,-37592,0
5135263,2396,2925,2171,2650,3144,-49,83,-918,83,-12,-385,-6,6,16,-3,14,3,410,-37592,0
5135275,2400,2930,2174,2654,3144,-50,83,-918,83,-12,-385,-3,5,-2,3,8,-3,410,-37592,0
5135295,2395,2924,2179,2660,3144,-50,83,-918,83,-12,-385,0,2,-10,6,1,0,410,-37592,0
5135315,2395,2924,2160,2637,3144,-50,82,-918,83,-12,-385,0,0,-26,2,-6,11,410,-37592,0
5135335,2399,2929,2166,2644,3143,-50,82,-918,83,-12,-385,0,-4,-7,0,-8,15,410,-37592,0
5135353,2397,2926,2180,2661,3143,-50,82,-918,83,-12,-385,0,-4,-7,0,-8,15,410,-37592,0
5135365,2394,2923,2173,2653,3143,-49,82,-918,83,-12,-386,0,-6,-11,1,-2,5,410,-37592,0
5135385,2395,2924,2168,2647,3143,-49,82,-918,83,-12,-386,-3,-6,-17,1,-4,-5,410,-37592,0
5135403,2393,2921,2171,2650,3143,-49,82,-918,83,-12,-386,-3,-6,-17,1,-4,-5,410,-37592,0
5135415,2388,2915,2171,2650,3143,-49,82,-918,83,-12,-385,-2,-2,-6,-3,-10,-10,410,-37592,0
5135436,2399,2929,2169,2648,3143,-49,82,-918,83,-12,-385,-3,1,-8,-2,-12,-5,410,-37592,0
5135455,2395,2924,2168,2647,3143,-49,82,-918,83,-12,-385,-3,1,-8,-2,-12,-5,410,-37592,0
5135467,2417,2951,2174,2654,3143,-48,82,-918,83,-11,-385,-27,5,60,-1,-14,1,410,-37592,0
5135487,2396,2925,2181,2663,3143,-48,82,-918,83,-11,-385,-27,6,39,1,-18,-1,410,-37592,0
5135505,2393,2921,2176,2656,3143,-48,82,-918,83,-11,-385,-27,6,39,1,-18,-1,410,-37592,0
5135517,2396,2925,2175,2655,3143,-48,82,-918,82,-11,-386,-10,9,-23,7,-6,1,410,-37592,0
5135537,2396,2925,2176,2656,3143,-48,82,-918,82,-11,-386,-11,2,-11,9,3,3,410,-37592,0
5135556,2389,2916,2175,2655,3143,-48,82,-918,82,-11,-386,-11,2,-11,9,3,3,410,-37592,0
5135568,2387,2914,2176,2656,3143,-48,81,-918,82,-11,-386,-10,-6,-4,6,2,6,410,-37592,0
5135588,2388,2915,2177,2658,3143,-48,81,-918,82,-11,-386,-8,-4,2,1,-1,5,410,-37592,0
5135607,2399,2929,2168,2647,3143,-48,81,-918,82,-11,-386,-8,-4,2,1,-1,5,410,-37592,0
5135619,2392,2920,2177,2658,3143,-48,81,-918,82,-11,-386,-6,-8,-19,0,7,0,410,-37592,0
5135638,2409,2941,2170,2649,3143,-48,81,-918,82,-11,-386,-6,-8,-19,0,7,0,410,-37592,0
5135650,2397,2926,2175,2655,3143,-48,81,-918,82,-11,-386,-6,-6,-4,-4,11,-5,410,-37592,0
5135669,2399,2929,2170,2649,3143,-48,81,-918,82,-11,-386,-6,-6,-4,-4,11,-5,410,-37592,0
5135681,2396,2925,2172,2652,3143,-48,81,-918,82,-11,-385,-6,-2,-6,-6,12,-6,410,-37592,0
5135700,2407,2938,2169,2648,3143,-48,81,-918,82,-11,-385,-6,-2,-6,-6,12,-6,410,-37592,0
5135712,2396,2925,2175,2655,3143,-48,82,-918,83,-11,-385,-3,2,1,-9,6,-3,410,-37592,0
5135731,2396,2925,2172,2652,3143,-48,82,-918,83,-11,-385,-3,2,1,-9,6,-3,410,-37592,0
5135742,2391,2919,2181,2663,3143,-49,82,-918,83,-12,-385,-4,7,0,-5,4,-3,410,-37592,0
5135761,2395,2924,2175,2655,3143,-49,82,-918,83,-12,-385,-4,7,0,-5,4,-3,410,-37592,0
5135773,2384,2910,2176,2656,3144,-49,82,-918,83,-11,-385,-4,11,2,3,-5,-4,410,-37592,0
5135792,2399,2929,2173,2653,3144,-49,82,-918,83,-11,-385,-4,11,2,3,-5,-4,410,-37592,0
5135803,2396,2925,2171,2650,3143,-48,82,-918,83,-11,-385,-1,4,-14,3,-7,7,410,-37592,0
5135822,2403,2934,2169,2648,3143,-48,82,-918,83,-11,-385,-1,4,-14,3,-7,7,410,-37592,0
5135834,2392,2920,2175,2655,3143,-48,82,-918,83,-11,-386,-8,-8,-2,1,-8,13,410,-37592,0
5135851,2396,2925,2174,2654,3143,-48,82,-918,83,-11,-386,-8,-8,-2,1,-8,13,410,-37592,0
5135863,2388,2915,2175,2655,3143,-48,82,-918,83,-11,-386,-24,-11,20,0,-4,-5,410,-37592,0
5135882,2402,2932,2170,2649,3143,-48,82,-918,83,-11,-386,-24,-11,20,0,-4,-5,410,-37592,0
5135895,2395,2924,2180,2661,3143,-48,82,-918,82,-11,-386,-12,0,-11,0,-8,-9,410,-37592,0
5135914,2391,2919,2172,2652,3143,-48,82,-918,82,-11,-386,-12,0,-11,0,-8,-9,410,-37592,0
5135926,2385,2912,2173,2653,3143,-48,82,-918,82,-11,-386,-12,3,-25,-2,3,0,410,-37592,0
5135947,2392,2920,2173,2653,3143,-48,82,-918,82,-11,-386,-11,7,-11,-2,6,10,410,-37592,0
5135968,2397,2926,2168,2647,3143,-48,82,-918,83,-11,-386,-9,6,-7,0,7,11,410,-37592,0
5135988,2390,2918,2177,2658,3143,-48,82,-918,83,-11,-386,-12,2,0,2,10,8,410,-37592,0
5136005,2399,2929,2176,2656,3143,-48,82,-918,83,-11,-386,-12,2,0,2,10,8,410,-37592,0
5136017,2393,2921,2175,2655,3143,-49,82,-918,83,-12,-386,-14,-4,4,7,16,-6,410,-37592,0
5136037,2397,2926,2176,2656,3143,-49,82,-918,83,-12,-386,-9,-4,-18,6,15,-6,410,-37592,0
5136055,2399,2929,2172,2652,3143,-49,82,-918,83,-12,-386,-9,-4,-18,6,15,-6,410,-37592,0
5136067,2399,2929,2177,2658,3143,-50,82,-918,83,-12,-386,-11,-2,18,0,15,1,410,-37592,0
5136087,2402,2932,2177,2658,3143,-50,82,-918,83,-13,-386,-14,-5,20,-1,13,9,410,-37592,0
5136105,2400,2930,2176,2656,3143,-50,82,-918,83,-13,-386,-14,-5,20,-1,13,9,410,-37592,0
5136117,2400,2930,2178,2659,3143,-50,82,-918,83,1986,-386,-5,-1,-9,-1,6,5,410,-37592,0
5136138,2398,2927,2168,2647,3143,-50,82,-918,83,-13,-386,-2,1,-21,-1,0,-1,410,-37592,0
5136157,2409,2941,2179,2660,3143,-50,82,-918,83,-13,-386,-2,1,-21,-1,0,-1,410,-37592,0
5136169,2400,2930,2176,2656,3143,-50,82,-918,83,-13,-386,-2,4,-21,-2,1,0,410,-37592,0
5136189,2409,2941,2178,2659,3143,-50,82,-918,83,-13,-386,-3,1,-10,-1,5,2,410,-37592,0
5136208,2412,2945,2177,2658,3143,-50,82,-918,83,-13,-386,-3,1,-10,-1,5,2,410,-37592,0
5136220,2400,2930,2180,2661,3143,-51,82,1081,83,-13,-386,-10,-3,2,0,13,4,410,-37592,0
5136240,2399,2929,2185,2667,3143,-51,82,-918,83,-13,-386,-7,0,-1,1,11,4,410,-37592,0
5136258,2399,2929,2179,2660,3143,-51,82,-918,83,-13,-386,-7,0,-1,1,11,4,410,-37592,0
5136270,2400,2930,2178,2659,3143,-51,82,-918,83,-13,-386,-14,-3,-9,0,6,-1,410,-37592,0
5136290,2399,2929,2181,2663,3143,-51,82,-918,83,-14,-386,-19,-4,4,0,10,-1,410,-37592,0
5136309,2396,2925,2177,2658,3143,-51,82,-918,83,-14,-386,-19,-4,4,0,10,-1,410,-37592,0
5136321,2400,2930,2179,2660,3143,-51,82,-918,83,-14,-386,-20,0,-1,0,21,6,410,-37592,0
5136341,2400,2930,2178,2659,3143,-52,82,-918,84,-14,-386,-15,1,-3,1,23,10,410,-37592,0
5136358,2400,2930,2187,2670,3143,-52,82,-918,84,-14,-386,-15,1,-3,1,23,10,410,-37592,0
5136370,2395,2924,2176,2656,3143,-53,82,-918,84,1984,-386,-10,0,-22,-1,26,11,410,-37592,0
5136391,2402,2932,2177,2658,3143,-53,82,-918,84,-15,-386,-8,-8,-33,-6,21,9,410,-37592,0
5136408,2401,2931,2183,2665,3143,-53,82,-918,84,-15,-386,-8,-8,-33,-6,21,9,410,-37592,0
5136420,2394,2923,2179,2660,3143,-53,82,-918,84,-15,-386,-8,0,-11,-2,0,-1,410,-37592,0
5136441,2395,2924,2179,2660,3143,-53,82,-918,84,-15,-386,-5,8,-11,-2,5,1,410,-37592,0
5136460,2398,2927,2177,2658,3143,-53,82,-918,84,-15,-386,-5,8,-11,-2,5,1,410,-37592,0
5136471,2401,2931,2165,2643,3142,-54,82,-918,84,-16,-386,-4,0,-26,-4,20,12,410,-37592,0
5136491,2404,2935,2168,2647,3142,-55,82,-918,84,-16,-386,0,-5,-21,-5,21,15,410,-37592,0
5136509,2400,2930,2175,2655,3142,-55,82,-918,84,-16,-386,0,-5,-21,-5,21,15,410,-37592,0
5136521,2394,2923,2172,2652,3142,-135,82,-917,85,-17,-387,-2,-10,-6,0,29,0,410,-37592,0
5136541,2400,2930,2179,2660,3142,-56,82,-917,85,-17,-387,-8,-6,6,0,34,-6,410,-37592,0
5136559,2401,2931,2172,2652,3142,-56,82,-917,85,-17,-387,-8,-6,6,0,34,-6,410,-37592,0
5136571,2400,2930,2181,2663,3142,-57,82,-918,85,-18,-386,-6,-1,13,-10,28,-8,410,-37592,0
5136591,2400,2930,2176,2656,3143,-57,82,-918,86,-18,-386,-9,3,7,-10,24,-4,410,-37592,0
5136609,2396,2925,2171,2650,3143,-57,82,-918,86,-18,-386,-9,3,7,-10,24,-4,410,-37592,0
5136621,2411,2943,2164,2642,3143,-58,83,-917,86,-19,-386,-2,9,-2,-8,25,8,410,-37592,0
5136641,2400,2930,2175,2655,3142,20421,83,-917,86,-19,-386,-4,7,-7,-10,22,8,410,-37592,0
5136659,2400,2930,2168,2647,3142,20421,83,-917,86,-19,-386,-4,7,-7,-10,22,8,410,-37592,0
5136671,2400,2930,2169,2648,3143,-59,83,-917,87,-19,-386,-11,0,11,5,19,-14,410,-37592,0
5136691,2400,2930,2175,2655,3143,-60,83,-918,87,-20,-386,-10,-3,8,6,25,-20,410,-37592,0
5136709,2403,2934,2170,2649,3143,-60,83,-918,87,-20,-386,-10,-3,8,6,25,-20,410,-37592,0
5136721,2400,2930,2169,2648,3143,-60,83,-918,87,-20,-385,-3,-2,-21,2,33,-11,410,-37592,0
5136742,2403,2934,2166,2644,3143,-61,83,-918,87,-21,-385,1,-3,-27,1,31,-6,410,-37592,0
5136759,2396,2925,2170,2649,3143,-61,83,-918,87,-21,-385,1,-3,-27,1,31,-6,410,-37592,0
5136771,2407,2938,2167,2645,3144,-61,83,1081,88,-22,-385,-9,0,4,-6,11,0,410,-37592,0
5136791,2401,2931,2169,2648,3144,-61,83,-918,88,-22,-385,-8,4,-131,-7,5,0,410,-37592,0
5136810,2401,2931,2173,2653,3144,-61,83,-918,88,-22,-385,-8,4,-131,-7,5,0,410,-37592,0
5136822,2394,2923,2168,2647,3144,-61,83,-918,88,-22,-385,-9,7,-12,2,0,-5,410,-37592,0
5136842,2404,2935,2172,2652,3144,-61,83,-918,88,-22,-385,-11,4,-10,5,-1,3,410,-37592,0
5136861,2395,2924,2169,2648,3144,-61,83,-918,88,-22,-385,-11,4,-10,5,-1,3,410,-37592,0
5136873,2403,2934,2165,2643,3143,-61,83,-918,88,-22,-385,-13,0,4,-1,-10,15,410,-37592,0
5136892,2407,2938,2186,2669,3143,-61,83,-918,88,-22,-385,-13,0,4,-1,-10,15,410,-37592,0
5136905,2399,2929,2166,2644,3143,-61,83,-918,88,-21,-385,-11,-3,-5,1,-15,11,410,-37592,0
5136923,2402,2932,2170,2649,3143,-61,83,-918,88,-21,-385,-11,-3,-5,1,-15,11,410,-37592,0
5136935,2400,2930,2169,2648,3143,-61,83,-917,87,-21,-386,-8,-2,-2,0,-16,1,410,-37592,0
5136954,2400,2930,2172,2652,3143,-61,83,-917,87,-21,-386,-8,-2,-2,0,-16,1,410,-37592,0
5136966,2393,2921,2173,2653,3143,-60,83,-917,87,-20,-386,-7,3,0,-1,-18,7,410,-37592,0
5136985,2400,2930,2171,2650,3143,-60,83,-917,87,-20,-386,-7,3,0,-1,-18,7,410,-37592,0
5136996,2392,2920,2168,2647,3143,-60,83,-917,87,-20,-386,-8,1,-1,1,-18,8,410,-37592,0
5137014,2404,2935,2172,2652,3143,-60,83,-917,87,-20,-386,-8,1,-1,1,-18,8,410,-37592,0
5137026,2403,2934,2168,2647,3143,-60,83,-917,87,-20,-386,-6,-1,-5,3,-16,1,410,-37592,0
5137045,2402,2932,2170,2649,3143,-60,83,-917,87,-20,-386,-6,-1,-5,3,-16,1,410,-37592,0
5137057,2403,2934,2173,2653,3143,-59,83,-917,87,-19,-386,0,-1,-18,4,-13,-2,410,-37592,0
5137076,2396,2925,2174,2654,3143,-59,83,-917,87,-19,-386,0,-1,-18,4,-13,-2,410,-37592,0
5137088,2412,2945,2165,2643,3142,-58,83,-917,87,-19,-386,-9,-1,-7,0,-10,-1,410,-37592,0
5137105,2408,2940,2175,2655,3142,-58,83,-917,87,-19,-386,-9,-1,-7,0,-10,-1,410,-37592,0
5137118,2403,2934,2172,2652,3143,-58,83,-917,86,-19,-386,-12,-5,-1,1,-6,-10,410,-37592,0
5137136,2403,2934,2174,2654,3143,-58,83,-917,86,-19,-386,-12,-5,-1,1,-6,-10,410,-37592,0
5137149,2400,2930,2175,2655,3143,-58,83,-918,86,-19,-386,-5,-1,-12,2,4,-17,410,-37592,0
5137166,2400,2930,2173,2653,3143,-58,83,-918,86,-19,-386,-5,-1,-12,2,4,-17,410,-37592,0
5137178,2411,2943,2170,2649,3143,-58,83,-918,86,-19,-385,1,0,-3,-3,0,-12,410,-37592,0
5137197,2413,2946,2164,2642,3143,-58,83,-918,86,-19,-385,1,0,-3,-3,0,-12,410,-37592,0
5137209,2394,2923,2172,2652,3144,-58,83,-918,86,-18,-385,0,1,3,-5,-17,-10,410,-37592,0
5137228,2396,2925,2173,2653,3144,-58,83,-918,86,-18,-385,0,1,3,-5,-17,-10,410,-37592,0
5137240,2401,2931,2167,2645,3144,-57,83,-918,86,-18,-385,-10,10,14,-1,-31,-11,410,-37592,0
5137258,2396,2925,2176,2656,3144,-57,83,-918,86,-18,-385,-10,10,14,-1,-31,-11,410,-37592,0
5137270,2394,2923,2172,2652,3144,-56,83,-918,86,-17,-385,-14,11,-6,1,-36,-5,410,-37592,0
5137291,2402,2932,2174,2654,3144,-55,83,-918,85,-16,-385,-17,2,0,6,-36,-3,410,-37592,0
5137308,2406,2937,2187,2670,3144,-55,83,-918,85,-16,-385,-17,2,0,6,-36,-3,410,-37592,0
5137320,2404,2935,2199,2684,3144,-54,83,-918,85,-16,-385,-21,-1,-5,7,-28,0,410,-37592,0
5137340,2397,2926,2184,2666,3144,-54,83,-918,85,-15,-385,-25,-4,-7,8,-28,-1,410,-37592,0
5137358,2401,2931,2188,2671,3144,-54,83,-918,85,-15,-385,-25,-4,-7,8,-28,-1,410,-37592,0
5137370,2399,2929,2185,2667,3144,-53,83,-918,85,-15,-385,-25,-1,-26,6,-107,-7,410,-37592,0
5137390,2399,2929,2184,2666,3144,-53,83,-918,85,-15,-385,-26,-1,-23,5,-21,-10,410,-37592,0
5137408,2400,2930,2180,2661,3144,-53,83,-918,85,-15,-385,-26,-1,-23,5,-21,-10,410,-37592,0
5137420,2396,2925,2180,2661,3145,-53,83,-918,84,-15,-385,-24,0,-144,6,-7,-9,410,-37592,0
5137440,2431,2968,2176,2656,3145,-53,83,-918,85,-15,-385,-23,5,-17,0,1,-1,410,-37592,0
5137458,2403,2934,2190,2673,3145,-53,83,-918,85,-15,-385,-23,5,-17,0,1,-1,410,-37592,0
5137470,2396,2925,2180,2661,3144,-54,83,-918,85,-16,-385,-15,3,-25,-1,13,6,410,-37592,0
5137488,2400,2930,2172,2652,3144,-54,83,-918,85,-16,-385,-15,3,-25,-1,13,6,410,-37592,0
5137500,2397,2926,2189,2672,3144,-55,83,-918,85,-16,-385,-16,-1,-16,-1,23,3,410,-37592,0
5137518,2400,2930,2183,2665,3144,-55,83,-918,85,-16,-385,-16,-1,-16,-1,23,3,410,-37592,0
5137530,2399,2929,2179,2660,3144,-56,83,-918,85,-17,-385,-16,0,-7,-4,29,-1,410,-37592,0
5137550,2392,2920,2178,2659,3145,-57,83,-918,86,-18,-385,-17,0,6,-3,33,-5,410,-37592,0
5137567,2396,2925,2178,2659,3145,-57,83,-918,86,-18,-385,-17,0,6,-3,33,-5,410,-37592,0
5137579,2397,2926,2171,2650,3145,-58,83,-918,86,-19,-385,-11,6,-12,-3,36,1,410,-37592,0
5137597,2392,2920,2172,2652,3145,-58,83,-918,86,-19,-385,-11,6,-12,-3,36,1,410,-37592,0
5137609,2411,2943,2176,2656,3144,-60,83,-918,87,-20,-385,-17,0,-2,0,75,15,410,-37592,0
5137627,2407,2938,2165,2643,3144,-60,83,-918,87,-20,-385,-17,0,-2,0,75,15,410,-37592,0
5137639,2402,2932,2171,2650,3144,-61,83,-918,88,-22,-385,-12,-6,9,-2,74,6,410,-37592,0
5137657,2392,2920,2168,2647,3144,-61,83,-918,88,-22,-385,-12,-6,9,-2,74,6,410,-37592,0
5137669,2399,2929,2168,2647,3145,-64,83,-918,88,-24,-384,-9,-1,0,-1,61,-15,410,-37592,0
5137687,2398,2927,2171,2650,3145,-64,83,-918,88,-24,-384,-9,-1,0,-1,61,-15,410,-37592,0
5137699,2399,2929,2167,2645,3145,-65,83,-918,89,-25,-384,-9,5,-4,-3,40,-9,410,-37592,0
5137717,2403,2934,2160,2637,3145,-65,83,-918,89,-25,-384,-9,5,-4,-3,40,-9,410,-37592,0
5137729,2399,2929,2174,2654,3145,-66,83,-918,89,-26,-384,-11,5,-6,-3,17,8,410,-37592,0
5137747,2407,2938,2171,2650,3145,-66,83,-918,89,-26,-384,-11,5,-6,-3,17,8,410,-37592,0
5137759,2401,2931,2174,2654,3145,-66,83,-918,89,-26,-384,-9,-1,-12,0,18,15,410,-37592,0
5137777,2399,2929,2166,2644,3145,-66,83,-918,89,-26,-384,-9,-1,-12,0,18,15,410,-37592,0
5137789,2403,2934,2171,2650,3145,-68,83,-918,90,-27,-384,-6,-2,-11,2,23,7,410,-37592,0
5137807,2399,2929,2170,2649,3145,-68,83,-918,90,-27,-384,-6,-2,-11,2,23,7,410,-37592,0
5137819,2404,2935,2171,2650,3145,-68,83,-918,90,-27,-384,-2,-3,0,3,27,4,410,-37592,0
5137837,2399,2929,2168,2647,3145,-68,83,-918,90,-27,-384,-2,-3,0,3,27,4,410,-37592,0
5137849,2407,2938,2172,2652,3144,-69,83,-917,90,-28,-385,-1,-4,5,-3,21,15,410,-37592,0
5137867,2415,2948,2172,2652,3144,-69,83,-917,90,-28,-385,-1,-4,5,-3,21,15,410,-37592,0
5137879,2412,2945,2165,2643,3144,-70,83,-917,90,-28,-385,0,-3,2,-10,1,23,410,-37592,0
5137897,2405,2936,2167,2645,3144,-70,83,-917,90,-28,-385,0,-3,2,-10,1,23,410,-37592,0
5137909,2415,2948,2170,2649,3143,-70,83,-917,90,-28,-386,-3,1,15,-3,0,15,410,-37592,0
5137927,2411,2943,2168,2647,3143,-70,83,-917,90,-28,-386,-3,1,15,-3,0,15,410,-37592,0
5137939,2408,2940,2170,2649,3143,20410,83,-917,90,-28,-386,8,8,-6,5,-13,5,410,-37592,0
5137957,2402,2932,2169,2648,3143,20410,83,-917,90,-28,-386,8,8,-6,5,-13,5,410,-37592,0
5137969,2411,2943,2160,2637,3143,-69,83,-917,90,-27,-386,7,2,-23,3,-13,10,410,-37592,0
5137988,2406,2937,2175,2655,3143,-69,83,-917,90,-27,-386,7,2,-23,3,-13,10,410,-37592,0
5138000,2404,2935,2171,2650,3142,-69,83,-917,90,-27,-386,7,-1,-12,3,-9,6,410,-37592,0
5138018,2415,2948,2166,2644,3142,-69,83,-917,90,-27,-386,7,-1,-12,3,-9,6,410,-37592,0
5138030,2411,2943,2165,2643,3142,-68,83,-917,90,-27,-386,6,-2,-9,4,-3,0,410,-37592,0
5138048,2412,2945,2164,2642,3142,-68,83,-917,90,-27,-386,6,-2,-9,4,-3,0,410,-37592,0
5138060,2407,2938,2167,2645,3142,-68,83,-917,90,-27,-386,-2,-7,1,3,-1,0,410,-37592,0
5138078,2416,2949,2167,2645,3142,-68,83,-917,90,-27,-386,-2,-7,1,3,-1,0,410,-37592,0
5138090,2409,2941,2171,2650,3142,-68,83,-917,90,-27,-386,0,-3,-2,0,-18,-9,410,-37592,0
5138108,2404,2935,2169,2648,3142,-68,83,-917,90,-27,-386,0,-3,-2,0,-18,-9,410,-37592,0
5138120,2407,2938,2168,2647,3143,-68,83,-917,90,-26,-386,-2,0,-1,-1,-30,-10,410,-37592,0
5138138,2400,2930,2169,2648,3143,-68,83,-917,90,-26,-386,-2,0,-1,-1,-30,-10,410,-37592,0
5138150,2403,2934,2168,2647,3143,-66,83,-917,89,-25,-386,-7,5,2,-1,-37,-3,410,-37592,0
5138168,2404,2935,2170,2649,3143,-66,83,-917,89,-25,-386,-7,5,2,-1,-37,-3,410,-37592,0
5138180,2404,2935,2172,2652,3143,-65,83,-917,89,-24,-386,-6,1,-5,0,-31,0,410,-37592,0
5138199,2415,2948,2175,2655,3143,-65,83,-917,89,-24,-386,-6,1,-5,0,-31,0,410,-37592,0
5138211,2405,2936,2181,2663,3143,-65,83,-917,89,-24,-386,-7,-1,-2,3,-20,-6,410,-37592,0
5138228,2402,2932,2168,2647,3143,-65,83,-917,89,-24,-386,-7,-1,-2,3,-20,-6,410,-37592,0
5138240,2401,2931,2176,2656,3143,-64,83,-917,88,-23,-386,-12,0,9,7,-33,-16,410,-37592,0
5138259,2406,2937,2166,2644,3143,-64,83,-917,88,-23,-386,-12,0,9,7,-33,-16,410,-37592,0
5138271,2403,2934,2175,2655,3143,-63,83,-918,88,-22,-385,-10,1,-4,8,-45,-13,410,-37592,0
5138289,2403,2934,2176,2656,3143,-63,83,-918,88,-22,-385,-10,1,-4,8,-45,-13,410,-37592,0
5138302,2396,2925,2176,2656,3143,-61,83,-918,87,-21,-385,-8,1,-13,6,-45,-6,410,-37592,0
5138319,2388,2915,2174,2654,3143,-61,83,-918,87,-21,-385,-8,1,-13,6,-45,-6,410,-37592,0
5138331,2401,2931,2184,2666,3143,-60,83,-918,87,-21,-385,-8,1,-15,5,-38,-1,410,-37592,0
5138350,2399,2929,2180,2661,3143,-60,83,-918,87,-21,-385,-8,1,-15,5,-38,-1,410,-37592,0
5138362,2395,2924,2178,2659,3143,-59,82,-918,86,-20,-385,-12,4,-8,8,-35,-7,410,-37592,0
5138380,2399,2929,2177,2658,3143,-59,82,-918,86,-20,-385,-12,4,-8,8,-35,-7,410,-37592,0
5138392,2394,2923,2181,2663,3144,-58,82,-918,86,-19,-385,-14,7,0,12,-28,-15,410,-37592,0
5138410,2397,2926,2182,2664,3144,-58,82,-918,86,-19,-385,-14,7,0,12,-28,-15,410,-37592,0
5138422,2403,2934,2179,2660,3144,-58,81,-918,85,-19,-385,-13,3,-2,14,-26,-8,410,-37592,0
5138441,2399,2929,2176,2656,3144,-58,81,-918,85,-19,-385,-13,3,-2,14,-26,-8,410,-37591,0
5138453,2394,2923,2178,2659,3144,-57,81,-918,84,-18,-385,-13,0,-7,10,-26,1,410,-37590,0
5138470,2404,2935,2178,2659,3144,-57,81,-918,84,-18,-385,-13,0,-7,10,-26,1,410,-37589,0
5138483,2401,2931,2179,2660,3144,-56,81,-918,84,-18,-385,-11,5,-9,-3,-19,-4,410,-37587,0
5138502,2393,2921,2180,2661,3144,-56,81,-918,84,-18,-385,-11,5,-9,-3,-19,-4,410,-37587,75
5138514,2411,2943,2181,2663,3144,-56,81,-918,84,-18,-385,-11,0,-14,-1,-18,-8,410,-37586,75
5138535,2399,2929,2175,2655,3144,-55,81,-918,84,-17,-385,-15,-2,-5,10,-8,-4,410,-37585,75
5138556,2387,2914,2171,2650,3144,20344,81,-918,84,-17,-385,-15,-7,-5,5,4,0,410,-37585,75
5138577,2400,2930,2184,2666,3144,-135,81,-918,84,-17,-385,-15,-6,-6,0,5,-3,410,-37583,75
5138597,2404,2935,2178,2659,3145,-55,81,-918,84,-17,-385,-21,5,3,-4,0,-6,410,-37582,75
5138616,2399,2929,2176,2656,3145,-55,81,-918,84,-17,-385,-21,5,3,-4,0,-6,410,-37581,87
5138628,2401,2931,2178,2659,3145,-55,81,-918,84,-17,-385,-15,20,-8,-5,3,0,410,-37579,87
5138648,2400,2930,2177,2658,3145,-55,81,-918,84,-17,-385,-13,15,-14,-12,8,9,410,-37577,87
5138667,2398,2927,2179,2660,3145,-55,81,-918,84,-17,-385,-13,15,-14,-12,8,9,410,-37577,87
5138679,2397,2926,2179,2660,3144,-136,81,-918,84,-18,-385,-14,-7,0,0,14,12,410,-37576,87
5138699,2407,2938,2176,2656,3144,-56,81,-918,84,-18,-385,-12,-5,-2,10,15,5,410,-37575,87
5138716,2397,2926,2178,2659,3144,-56,81,-918,84,-18,-385,-12,-5,-2,10,15,5,410,-37575,100
5138729,2396,2925,2181,2663,3144,-57,81,-918,84,-19,-385,-11,-8,-5,11,10,-3,410,-37575,100
5138749,2403,2934,2176,2656,3144,-57,81,-918,84,-19,-385,-10,-8,-6,13,6,-2,410,-37575,100
5138767,2400,2930,2178,2659,3144,-57,81,-918,84,-19,-385,-10,-8,-6,13,6,-2,410,-37575,100
5138779,2405,2936,2172,2652,3144,-57,80,-918,84,-19,-385,-13,-5,0,8,5,10,410,-37575,100
5138799,2403,2934,2179,2660,3144,-58,80,-918,84,-19,-385,-9,-9,-6,4,9,11,410,-37575,100
5138817,2402,2932,2183,2665,3144,-58,80,-918,84,-19,-385,-9,-9,-6,4,9,11,410,-37575,0
5138829,2392,2920,2177,2658,3143,-58,80,-918,84,-19,-385,-6,-7,-22,0,20,-1,410,-37575,0
5138849,2411,2943,2176,2656,3143,-58,80,-918,84,-20,-385,-6,-7,-15,1,26,-2,410,-37575,0
5138867,2417,2951,2176,2656,3143,-58,80,-918,84,-20,-385,-6,-7,-15,1,26,-2,410,-37575,0
5138879,2402,2932,2179,2660,3144,-60,80,-918,85,-21,-385,-5,2,-3,-3,26,-5,410,-37575,0
5138899,2401,2931,2188,2671,3144,-60,80,-918,85,-21,-385,0,3,-3,-4,21,-5,410,-37575,0
5138916,2403,2934,2176,2656,3144,-60,80,-918,85,-21,-385,0,3,-3,-4,21,-5,410,-37575,0
5138928,2400,2930,2175,2655,3144,-60,80,-918,85,-21,-385,1,6,9,-3,10,11,410,-37575,0
5138948,2400,2930,2172,2652,3143,-60,80,-918,85,-21,-385,4,4,14,-2,13,12,410,-37575,0
5138966,2400,2930,2174,2654,3143,-60,80,-918,85,-21,-385,4,4,14,-2,13,12,410,-37575,0
5138978,2406,2937,2170,2649,3143,-61,80,-918,85,-22,-386,6,-2,0,-1,9,8,410,-37575,0
5138998,2415,2948,2177,2658,3143,-61,80,-918,85,-22,-386,3,-5,6,0,5,4,410,-37575,0
5139016,2400,2930,2177,2658,3143,-61,80,-918,85,-22,-386,3,-5,6,0,5,4,410,-37575,0
5139027,2410,2942,2172,2652,3143,-61,80,-918,85,-22,-386,5,-6,-4,-2,-4,-2,410,-37575,0
5139047,2403,2934,2176,2656,3143,-61,80,-918,85,-22,-386,0,-4,9,-3,-11,-3,410,-37575,0
5139065,2407,2938,2173,2653,3143,-61,80,-918,85,-22,-386,0,-4,9,-3,-11,-3,410,-37575,0
5139077,2420,2954,2174,2654,3143,-60,80,-918,85,-21,-386,5,-2,-9,-9,-16,3,410,-37575,0
5139097,2401,2931,2167,2645,3143,-60,81,-918,85,-21,-386,11,-5,-27,-11,-11,8,410,-37575,0
5139115,2403,2934,2174,2654,3143,-60,81,-918,85,-21,-386,11,-5,-27,-11,-11,8,410,-37575,0
5139127,2399,2929,2171,2650,3143,-60,81,-918,85,-21,-386,3,-9,-13,-15,-6,2,410,-37575,0
5139148,2399,2929,2175,2655,3143,-60,81,-918,86,-20,-386,1,-4,-1,-16,-13,-6,410,-37575,0
5139166,2399,2929,2174,2654,3143,-60,81,-918,86,-20,-386,1,-4,-1,-16,-13,-6,410,-37575,0
5139178,2400,2930,2174,2654,3143,-59,82,1081,86,-20,-386,-2,4,-2,-18,-13,-18,410,-37575,0
5139198,2406,2937,2176,2656,3143,-58,82,-918,86,-19,-385,-9,5,13,-12,-17,-15,410,-37575,0
5139216,2401,2931,2173,2653,3143,-58,82,-918,86,-19,-385,-9,5,13,-12,-17,-15,410,-37575,0
5139228,2400,2930,2174,2654,3143,-58,83,-918,86,-27,-385,-7,10,-4,-8,-21,1,410,-37575,0
5139248,2396,2925,2174,2654,3143,-58,83,-918,86,-18,-385,-13,13,3,-6,-14,0,410,-37575,0
5139266,2397,2926,2173,2653,3143,-58,83,-918,86,-18,-385,-13,13,3,-6,-14,0,410,-37575,0
5139278,2399,2929,2184,2666,3143,-57,82,-918,86,-18,-385,-17,13,1,13,-18,-20,410,-37574,0
5139298,2399,2929,2176,2656,3144,-57,82,-918,85,-18,-385,-17,14,5,16,-16,-21,410,-37573,0
5139316,2400,2930,2176,2656,3144,-57,82,-918,85,-18,-385,-17,14,5,16,-16,-21,410,-37572,0
5139329,2403,2934,2176,2656,3145,-56,81,-918,85,-18,-385,-11,17,-7,7,-25,-2,410,-37570,0
5139349,2392,2920,2178,2659,3145,-56,81,-918,85,-18,-385,-2,11,-23,5,-23,2,410,-37567,132
5139367,2401,2931,2181,2663,3145,-56,81,-918,85,-18,-385,-2,11,-23,5,-23,2,410,-37565,132
5139380,2400,2930,2181,2663,3144,-56,81,-918,84,-17,-385,-9,0,-18,-8,-26,12,410,-37562,132
5139400,2402,2932,2177,2658,3144,-55,81,-918,84,-17,-385,-15,-1,7,-4,-31,7,410,-37559,132
5139418,2402,2932,2180,2661,3144,-55,81,-918,84,-17,-385,-15,-1,7,-4,-31,7,410,-37556,132
5139430,2399,2929,2176,2656,3144,20345,81,-918,84,-16,-385,-5,10,-8,2,-27,-6,410,-37553,132
5139451,2400,2930,2195,2680,3144,-53,81,-918,84,-16,-385,-16,14,-6,3,-20,-2,410,-37548,294
5139469,2399,2929,2176,2656,3144,-53,81,-918,84,-16,-385,-16,14,-6,3,-20,-2,410,-37545,294
5139482,2397,2926,2181,2663,3144,20426,81,-918,83,-15,-385,-21,27,13,-7,-21,-2,410,-37538,294
5139502,2395,2924,2188,2671,3143,-53,81,-918,83,-15,-385,-22,28,15,-23,-10,1,410,-37531,294
5139520,2400,2930,2181,2663,3143,-53,81,-918,83,-15,-385,-22,28,15,-23,-10,1,410,-37526,294
5139533,2395,2924,2185,2667,3143,-53,81,-918,83,-16,-385,-28,36,24,4,1,-6,410,-37520,294
5139552,2400,2930,2187,2670,3143,-53,81,-918,83,-16,-385,-28,36,24,4,1,-6,410,-37516,544
5139564,2392,2920,2176,2656,3143,-54,80,-918,82,-17,-385,-15,47,-8,44,8,6,410,-37508,544
5139583,2398,2927,2191,2675,3143,-54,80,-918,82,-17,-385,-15,47,-8,44,8,6,410,-37502,544
5139595,2399,2929,2187,2670,3143,-55,78,-918,82,-17,-386,-9,27,-37,14,19,27,410,-37492,544
5139614,2394,2923,2181,2663,3143,-55,78,-918,82,-17,-386,-9,27,-37,14,19,27,410,-37485,544
5139626,2400,2930,2189,2672,3143,-55,78,-918,82,-18,-386,-5,-2,-18,-2,20,12,410,-37474,544
5139646,2397,2926,2182,2664,3143,-56,78,-918,82,-18,-386,-4,12,2,2,23,2,410,-37464,544
5139664,2389,2916,2173,2653,3143,-56,78,-918,82,-18,-386,-4,12,2,2,23,2,410,-37458,863
5139676,2408,2940,2191,2675,3143,-56,78,-918,82,-19,-386,8,-10,-25,1,21,3,410,-37448,863
5139695,2388,2915,2167,2645,3143,-56,78,-918,82,-19,-386,8,-10,-25,1,21,3,410,-37441,863
5139707,2408,2940,2190,2673,3142,-56,78,-918,82,-19,-386,8,-21,-42,-3,9,5,410,-37430,863
5139727,2400,2930,2180,2661,3142,-57,78,-918,82,-19,-386,0,-10,-3,5,13,10,410,-37419,863
5139747,2394,2923,2178,2659,3142,-57,78,-918,82,-20,-387,-8,-1,29,18,23,9,410,-37411,863
5139765,2398,2927,2177,2658,3142,-57,78,-918,82,-20,-387,-8,-1,29,18,23,9,410,-37404,874
5139778,2400,2930,2188,2671,3142,-58,77,-918,82,-20,-387,-17,6,41,31,11,-1,410,-37394,874
5139798,2393,2921,2176,2656,3142,-58,76,-918,81,-21,-386,-8,7,-5,30,11,-4,410,-37385,874
5139816,2398,2927,2193,2677,3142,-58,76,-918,81,-21,-386,-8,7,-5,30,11,-4,410,-37378,874
5139828,2398,2927,2181,2663,3142,-58,76,-918,81,-21,-386,-12,17,-24,21,21,1,410,-37366,874
5139849,2390,2918,2179,2660,3142,-59,76,-918,81,-22,-387,-9,-2,-14,7,25,10,410,-37356,874
5139867,2406,2937,2176,2656,3142,-59,76,-918,81,-22,-387,-9,-2,-14,7,25,10,410,-37349,898
5139880,2407,2938,2178,2659,3141,-60,75,-918,81,-23,-387,-18,-13,21,21,31,14,410,-37339,898
5139901,2423,2958,2181,2663,3141,-61,75,-917,81,-23,-387,-10,-13,0,25,31,10,410,-37330,898
5139919,2404,2935,2190,2673,3141,-61,75,-917,81,-23,-387,-10,-13,0,25,31,10,410,-37324,898
5139932,2401,2931,2180,2661,3141,-61,74,-917,80,-25,1612,12,-5,-45,39,41,3,410,-37314,898
5139952,2407,2938,2178,2659,3141,-63,73,-918,80,-25,-387,11,-14,-40,34,38,5,410,-37305,898
5139970,2406,2937,2180,2661,3141,-63,73,-918,80,-25,-387,11,-14,-40,34,38,5,410,-37297,841
5139983,2407,2938,2176,2656,3141,-63,73,-917,80,-26,-387,7,-11,-6,-1,13,11,410,-37286,841
5140003,2404,2935,2179,2660,3141,-63,73,-917,80,-26,-387,10,-24,-5,-16,20,11,410,-37275,841
5140021,2418,2952,2178,2659,3141,-63,73,-917,80,-26,-387,10,-24,-5,-16,20,11,410,-37268,841
5140033,2400,2930,2171,2650,3141,-64,73,-917,81,-27,-387,3,-6,-25,-19,22,-3,410,-37257,841
5140053,2392,2920,2176,2656,3141,-65,74,-917,81,-27,-387,4,-13,-20,-13,15,-15,410,-37247,841
5140072,2407,2938,2174,2654,3141,-65,74,-917,81,-27,-387,4,-13,-20,-13,15,-15,410,-37240,931
5140085,2401,2931,2174,2654,3141,-65,75,-917,82,-27,-387,-6,0,5,-2,28,-15,410,-37230,931
5140104,2405,2936,2175,2655,3141,-65,75,-917,82,-27,-387,-6,0,5,-2,28,-15,410,-37224,931
5140116,2415,2948,2170,2649,3142,-66,75,-917,82,-28,-387,-15,-7,37,-1,33,-1,410,-37214,931
5140136,2412,2945,2174,2654,3142,-66,75,-917,83,-29,-387,-6,-20,-7,3,34,0,410,-37205,931
5140156,2407,2938,2170,2649,3142,-67,75,-917,83,-29,-386,-11,-11,0,11,33,0,410,-37196,931
5140174,2394,2923,2170,2649,3142,-67,75,-917,83,-29,-386,-11,-11,0,11,33,0,410,-37191,816
5140186,2400,2930,2175,2655,3142,-68,74,-917,83,-30,-386,-11,-10,2,10,16,-13,410,-37182,816
5140205,2391,2919,2175,2655,3142,-68,74,-917,83,-30,-386,-11,-10,2,10,16,-13,410,-37176,816
5140218,2401,2931,2179,2660,3143,-68,74,-918,83,-30,-386,-11,-11,16,0,3,-13,410,-37167,816
5140236,2402,2932,2183,2665,3143,-68,74,-918,83,-30,-386,-11,-11,16,0,3,-13,410,-37161,816
5140248,2405,2936,2181,2663,3143,-68,74,-918,83,-30,-386,-8,-6,-27,-5,8,2,410,-37153,816
5140266,2390,2918,2181,2663,3143,-68,74,-918,83,-30,-386,-8,-6,-27,-5,8,2,410,-37147,816
5140278,2400,2930,2175,2655,3143,-69,74,-918,83,-30,-386,-13,-12,-33,-3,8,5,410,-37139,833
5140299,2398,2927,2176,2656,3143,-69,74,-918,83,-31,-386,-16,-13,-17,4,20,-3,410,-37132,833
5140317,2400,2930,2172,2652,3143,-69,74,-918,83,-31,-386,-16,-13,-17,4,20,-3,410,-37126,833
5140329,2402,2932,2178,2659,3143,-70,75,-918,84,-32,-386,-19,-10,-3,0,46,-12,410,-37117,833
5140349,2400,2930,2179,2660,3143,-71,75,-918,84,-32,-385,-21,-7,-8,-11,48,-11,410,-37108,833
5140367,2401,2931,2176,2656,3143,-71,75,-918,84,-32,-385,-21,-7,-8,-11,48,-11,410,-37102,833
5140380,2402,2932,2178,2659,3144,-73,75,-918,85,-33,-385,-12,0,-32,-20,37,-10,410,-37092,767
5140401,2406,2937,2180,2661,3144,-74,76,-918,86,-34,-385,-11,3,-27,-20,46,0,410,-37083,767
5140419,2396,2925,2177,2658,3144,-74,76,-918,86,-34,-385,-11,3,-27,-20,46,0,410,-37077,767
5140431,2396,2925,2172,2652,3143,-75,76,-917,87,-35,-385,-9,-3,-14,-15,54,10,410,-37068,767
5140452,2405,2936,2176,2656,3143,-77,76,-917,87,-36,-385,-10,-4,-1,-10,64,0,410,-37058,767
5140470,2396,2925,2175,2655,3143,-77,76,-917,87,-36,-385,-10,-4,-1,-10,64,0,410,-37051,767
5140482,2393,2921,2168,2647,3144,-79,77,-917,88,-38,-385,-3,7,-19,-28,92,-21,410,-37037,882
5140503,2408,2940,2175,2655,3145,-81,78,-917,89,-39,-384,-3,19,-11,-33,92,-20,410,-37024,882
5140522,2408,2940,2184,2666,3145,-81,78,-917,89,-39,-384,-3,19,-11,-33,92,-20,410,-37015,882
5140534,2383,2909,2159,2636,3145,-83,79,-917,92,-41,-384,0,35,-18,-58,82,4,410,-37000,882
5140554,2399,2929,2167,2645,3145,-85,80,-917,93,-41,-384,1,8,-23,-71,81,10,410,-36988,882
5140572,2404,2935,2176,2656,3145,-85,80,-917,93,-41,-384,1,8,-23,-71,81,10,410,-36980,882
5140585,2392,2920,2160,2637,3144,-88,82,-916,95,-43,-384,-12,8,0,-45,75,42,410,-36968,1116
5140605,2403,2934,2163,2641,3143,-89,83,-916,96,-44,-385,-9,-12,-5,-38,64,32,410,-36959,1116
5140623,2401,2931,2157,2633,3143,-89,83,-916,96,-44,-385,-9,-12,-5,-38,64,32,410,-36954,1116
5140636,2400,2930,2165,2643,3143,-91,83,-916,98,-46,-385,-3,-42,-20,4,67,-5,410,-36946,1116
5140655,2405,2936,2168,2647,3143,-91,83,-916,98,-46,-385,-3,-42,-20,4,67,-5,410,-36943,1116
5140668,2413,2946,2175,2655,3143,-93,83,-916,98,-48,-385,-5,-30,-15,29,79,-18,410,-36938,1116
5140686,2395,2924,2156,2632,3143,-93,83,-916,98,-48,-385,-5,-30,-15,29,79,-18,410,-36936,544
5140699,2401,2931,2165,2643,3144,-96,83,-916,99,-50,-384,-2,-28,-11,44,89,-3,410,-36936,544
5140717,2403,2934,2164,2642,3144,-96,83,-916,99,-50,-384,-2,-28,-11,44,89,-3,410,-36936,544
5140730,2411,2943,2160,2637,3144,-99,82,-916,99,-52,-384,1,-20,9,90,92,38,410,-36936,544
5140748,2411,2943,2148,2622,3144,-99,82,-916,99,-52,-384,1,-20,9,90,92,38,410,-36936,544
5140761,2413,2946,2157,2633,3143,-101,81,-915,99,-54,-385,5,-83,27,31,56,65,410,-36936,544
5140779,2414,2947,2149,2623,3143,-101,81,-915,99,-54,-385,5,-83,27,31,56,65,410,-36936,544
5140791,2415,2948,2152,2627,3141,-103,80,-914,99,-55,-387,8,32689,4,-20,26,57,410,-36936,0
5140812,2411,2943,2157,2633,3140,-103,81,-914,100,-55,-387,11,-37,-12,-30,25,12,410,-36936,0
5140830,2411,2943,2159,2636,3140,-103,81,-914,100,-55,-387,11,-37,-12,-30,25,12,410,-36936,0
5140843,2423,2958,2152,2627,3141,-104,83,-914,101,-56,-386,15,-3,-21,-48,54,-27,410,-36936,0
5140864,2400,2930,2155,2631,3141,-105,84,-914,103,-56,-386,11,6,-6,-53,54,-10,410,-36936,0
5140882,2408,2940,2149,2623,3141,-105,84,-914,103,-56,-386,11,6,-6,-53,54,-10,410,-36936,0
5140895,2410,2942,2144,2617,3140,-106,86,-914,104,-57,-386,5,0,-4,-73,35,63,410,-36936,0
5140915,2419,2953,2149,2623,3139,-107,87,-913,106,-57,-388,5,0,0,-78,29,66,410,-36936,0
5140933,2412,2945,2150,2625,3139,-107,87,-913,106,-57,-388,5,0,0,-78,29,66,410,-36936,0
5140945,2403,2934,2153,2628,3138,-108,88,-913,107,-57,-388,0,54,-24,-26,-1,-34,410,-36936,0
5140965,2408,2940,2158,2634,3139,-108,89,-913,107,-57,-388,-2,64,-4,14,11,-60,410,-36936,0
5140984,2397,2926,2152,2627,3139,-108,89,-913,107,-57,-388,-2,64,-4,14,11,-60,410,-36936,0
5140996,2400,2930,2151,2626,3140,-108,88,-914,107,-57,-387,7,30,-4,24,20,15,410,-36936,0
5141016,2408,2940,2147,2621,3140,-108,88,-913,107,-57,-387,2,15,19,15,25,80,410,-36936,0
5141034,2418,2952,2144,2617,3140,-108,88,-913,107,-57,-387,2,15,19,15,25,80,410,-36936,0
5141046,2420,2954,2142,2615,3137,-109,87,-912,106,-58,-389,13,-28,-27,13,-9,73,410,-36936,0
5141066,2408,2940,2150,2625,3136,-109,86,-912,106,-58,-390,9,-33,-9,16,-21,9,410,-36936,0
5141085,2408,2940,2153,2628,3136,-109,86,-912,106,-58,-390,9,-33,-9,16,-21,9,410,-36936,0
5141097,2405,2936,2154,2630,3136,-108,86,-912,106,-58,-390,14,-2,-5,12,-23,-38,410,-36936,0
5141117,2407,2938,2152,2627,3137,-108,86,-913,105,-57,-389,19,4,-11,7,-18,-16,410,-36936,0
5141135,2409,2941,2147,2621,3137,-108,86,-913,105,-57,-389,19,4,-11,7,-18,-16,410,-36936,0
5141147,2416,2949,2144,2617,3137,-107,86,-913,105,-57,-389,6,-2,-9,-14,-23,28,410,-36936,0
5141167,2408,2940,2146,2620,3136,-106,86,-912,105,-56,-390,14,-2,-11,-12,-23,28,410,-36936,0
5141185,2411,2943,2148,2622,3136,-106,86,-912,105,-56,-390,14,-2,-11,-12,-23,28,410,-36936,0
5141198,2401,2931,2149,2623,3136,-106,86,-912,105,-56,-390,3,-5,9,-1,7,-19,410,-36936,0
5141217,2411,2943,2147,2621,3136,-106,86,-912,105,-56,-390,3,-5,9,-1,7,-19,410,-36936,0
5141229,2406,2937,2155,2631,3137,-106,86,-913,105,-56,-389,3,12,7,2,-11,-37,410,-36936,0
5141248,2411,2943,2149,2623,3137,-106,86,-913,105,-56,-389,3,12,7,2,-11,-37,410,-36936,0
5141260,2409,2941,2152,2627,3138,-105,86,-913,105,-55,-389,0,16,-1,-4,-38,-1,410,-36936,0
5141278,2410,2942,2152,2627,3138,-105,86,-913,105,-55,-389,0,16,-1,-4,-38,-1,410,-36936,0
5141290,2400,2930,2149,2623,3137,-104,86,-913,104,-54,-389,-12,5,40,-1,-51,24,410,-36936,0
5141310,2414,2947,2154,2630,3136,-103,86,-913,104,-53,-390,0,3,26,8,-60,17,410,-36936,0
5141328,2412,2945,2154,2630,3136,-103,86,-913,104,-53,-390,0,3,26,8,-60,17,410,-36936,0
5141340,2409,2941,2154,2630,3136,-101,86,-913,103,-52,-390,9,2,-20,22,-30,-13,410,-36936,0
5141359,2406,2937,2155,2631,3136,-101,86,-913,103,-52,-390,9,2,-20,22,-30,-13,410,-36936,0
5141371,2410,2942,2152,2627,3137,-100,85,-913,102,-52,-389,7,2,-52,21,-58,-22,410,-36936,0
5141391,2405,2936,2158,2634,3137,-98,85,-913,101,-50,-389,6,9,-15,20,-130,-4,410,-36936,0
5141410,2411,2943,2175,2655,3137,-98,85,-913,101,-50,-389,6,9,-15,20,-130,-4,410,-36936,0
5141422,2404,2935,2154,2630,3136,-93,84,-913,99,-47,-390,-6,2,16,10,-154,28,410,-36936,0
5141442,2404,2935,2153,2628,3136,-91,84,-913,98,-44,-391,-1,-5,-32,8,20340,15,410,-36936,0
5141462,2413,2946,2171,2650,3136,-88,83,-914,97,-43,-391,1,0,-34,17,-117,-11,410,-36936,0
5141479,2404,2935,2156,2632,3136,-88,83,-914,97,-43,-391,1,0,-34,17,-117,-11,410,-36936,0
5141492,2403,2934,2155,2631,3136,-86,83,-914,96,-41,-390,-1,0,9,19,-81,-38,410,-36936,0
515141948,2392,2920,2174,2654,3141,-51,80,-917,82,-14,-387,-14,0,28,6,-69,-21,410,-36936,0
5141968,2395,2924,2173,2653,3141,-50,80,-918,81,-13,-387,-6,4,13,6,-66,-16,410,-36936,0
5141986,2383,2909,2177,2658,3141,-50,80,-918,81,-13,-387,-6,4,13,6,-66,-16,410,-36936,0
5141998,2387,2914,2175,2655,3141,-48,80,-918,81,-11,-387,-8,1,-19,3,-53,-1,410,-36936,0
5142018,2396,2925,2176,2656,3141,-46,80,-918,81,-10,-387,-12,1,-12,1,-55,-1,410,-36936,0
5142037,2385,2912,2183,2665,3141,-46,80,-918,81,-10,-387,-12,1,-12,1,-55,-1,410,-36936,0
5142049,2394,2923,2176,2656,3141,-45,80,-918,80,-9,-387,-12,2,-12,-1,-60,-1,410,-36936,0
5142069,2388,2915,2181,2663,3141,-44,80,-918,80,-8,-387,-16,2,-8,-2,-61,0,410,-36936,0
5142086,2391,2919,2179,2660,3141,-44,80,-918,80,-8,-387,-16,2,-8,-2,-61,0,410,-36936,0
5142098,2391,2919,2179,2660,3141,-43,80,-918,79,-7,-388,-11,1,-18,-6,-50,3,410,-36936,0
5142119,2384,2910,2179,2660,3141,-41,80,-918,79,-6,-388,-10,-1,-19,-5,-41,2,410,-36936,0
5142137,2390,2918,2189,2672,3141,-41,80,-918,79,-6,-388,-10,-1,-19,-5,-41,2,410,-36936,0
5142149,2391,2919,2178,2659,3141,-41,80,-918,79,1993,-388,-16,2,9,-3,-18,-8,410,-36936,0
5142169,2386,2913,2176,2656,3141,-41,80,-918,79,-5,-388,-17,3,3,-4,-14,-7,410,-36936,0
5142187,2387,2914,2173,2653,3141,-41,80,-918,79,-5,-388,-17,3,3,-4,-14,-7,410,-36936,0
5142199,2389,2916,2182,2664,3141,-40,80,1081,78,-5,-388,-10,5,-3,-4,-11,2,410,-36936,0
5142219,2395,2924,2176,2656,3141,-40,80,-918,78,1994,-388,-12,3,-12,-6,-2,8,410,-36936,0
5142239,2380,2905,2180,2661,3141,20439,80,-918,79,-5,-388,-12,1,-15,-6,6,10,410,-36936,0
5142259,2384,2910,2177,2658,3141,-41,80,-918,79,-5,-388,-13,1,-11,-5,10,7,410,-36936,0
5142277,2389,2916,2180,2661,3141,-41,80,-918,79,-5,-388,-13,1,-11,-5,10,7,410,-36936,0
5142289,2395,2924,2187,2670,3141,-41,80,-918,79,-6,-388,-9,3,-13,0,28,-4,410,-36936,0
5142309,2387,2914,2176,2656,3141,-42,80,-918,79,-6,-388,-8,2,-6,0,28,-5,410,-36936,0
5142326,2391,2919,2176,2656,3141,-42,80,-918,79,-6,-388,-8,2,-6,0,28,-5,410,-36936,0
5142338,2392,2920,2189,2672,3141,-43,80,-918,79,-15,-388,-6,5,-5,-3,25,6,410,-36936,0
5142358,2395,2924,2180,2661,3141,-43,80,-918,80,-8,-388,-4,3,-3,-1,27,8,410,-36936,0
5142375,2393,2921,2179,2660,3141,-43,80,-918,80,-8,-388,-4,3,-3,-1,27,8,410,-36936,0
5142387,2388,2915,2181,2663,3140,-45,80,-917,80,-8,-388,-4,0,-4,-3,30,13,410,-36936,0
5142407,2389,2916,2177,2658,3140,-45,80,-917,80,-9,-388,-2,0,-3,-1,31,10,410,-36936,0
5142424,2399,2929,2183,2665,3140,-45,80,-917,80,-9,-388,-2,0,-3,-1,31,10,410,-36936,0
5142436,2392,2920,2177,2658,3140,-46,80,-917,80,-10,-388,2,0,-10,0,30,4,410,-36936,0
5142456,2393,2921,2180,2661,3140,-46,80,-917,81,-10,-388,5,-1,-12,-2,28,8,410,-36936,0
5142474,2396,2925,2179,2660,3140,-46,80,-917,81,-10,-388,5,-1,-12,-2,28,8,410,-36936,0
5142486,2394,2923,2173,2653,3140,-48,80,-917,81,-11,-388,7,0,-13,-5,30,13,410,-36936,0
5142505,2399,2929,2171,2650,3140,-48,80,-917,81,-11,-388,7,0,-13,-5,30,13,410,-36936,0
5142517,2397,2926,2171,2650,3140,-48,81,-917,81,-11,-389,8,0,-2,-9,28,9,410,-36936,0
5142534,2394,2923,2173,2653,3140,-48,81,-917,81,-11,-389,8,0,-2,-9,28,9,410,-36936,0
5142546,2389,2916,2170,2649,3140,-49,81,-917,82,-12,-389,7,1,-12,-5,30,3,410,-36936,0
5142565,2415,2948,2162,2639,3140,-49,81,-917,82,-12,-389,7,1,-12,-5,30,3,410,-36936,0
5142577,2396,2925,2171,2650,3140,-50,81,-917,82,-13,-388,6,1,0,-6,33,0,410,-36936,0
5142597,2396,2925,2164,2642,3140,-51,81,-917,83,-13,-388,6,1,5,-7,34,3,410,-36936,0
5142618,2382,2908,2164,2642,3140,-51,81,-917,83,-14,-388,6,2,-3,-7,24,3,410,-36936,0
5142635,2402,2932,2171,2650,3140,-51,81,-917,83,-14,-388,6,2,-3,-7,24,3,410,-36936,0
5142647,2396,2925,2171,2650,3140,-52,81,-917,83,-14,-388,1,0,29,-6,23,3,410,-36936,0
5142667,2395,2924,2170,2649,3140,-52,81,-917,83,-14,-388,4,3,19,-4,15,2,410,-36936,0
5142685,2392,2920,2170,2649,3140,-52,81,-917,83,-14,-388,4,3,19,-4,15,2,410,-36936,0
5142696,2396,2925,2180,2661,3140,-53,81,-917,83,-15,-388,8,4,-16,-2,14,2,410,-36936,0
5142717,2392,2920,2170,2649,3140,-53,81,-917,84,-15,-388,8,1,3,-1,15,-1,410,-36936,0
5142734,2399,2929,2168,2647,3140,-53,81,-917,84,-15,-388,8,1,3,-1,15,-1,410,-36936,0
5142746,2396,2925,2170,2649,3140,-53,81,-917,84,-15,-388,11,0,4,-1,0,3,410,-36936,0
5142765,2396,2925,2170,2649,3140,-53,81,-917,84,-15,-388,11,0,4,-1,0,3,410,-36936,0
5142776,2410,2942,2172,2652,3140,-53,81,-917,83,-15,-388,11,7,-18,0,-17,6,410,-36936,0
5142796,2394,2923,2168,2647,3140,-53,81,-917,83,-15,-388,6,3,-18,1,-18,4,410,-36936,0
5142815,2397,2926,2176,2656,3140,-53,81,-917,83,-15,-388,6,3,-18,1,-18,4,410,-36936,0
5142827,2396,2925,2173,2653,3140,-52,81,-917,83,-14,-388,0,2,18,3,-8,3,410,-36936,0
5142847,2399,2929,2168,2647,3140,-52,81,-917,83,-14,-388,10,-129,-3,3,-1,3,410,-36936,0
5142866,2396,2925,2175,2655,3140,-52,81,-917,83,-14,-388,10,-129,-3,3,-1,3,410,-36936,0
5142878,2396,2925,2172,2652,3140,-52,81,-917,83,-14,-388,11,-3,-7,3,-7,0,410,-36936,0
5142899,2392,2920,2174,2654,3140,-51,81,-917,83,-14,-389,10,-1,-6,4,-24,-1,410,-36936,0
5142919,2398,2927,2160,2637,3140,-51,81,-917,83,-13,-389,9,2,-5,0,-26,-1,410,-36936,0
5142937,2393,2921,2178,2659,3140,-51,81,-917,83,-13,-389,9,2,-5,0,-26,-1,410,-36936,0
5142948,2391,2919,2169,2648,3140,-50,81,-917,83,-13,1610,7,3,-135,0,-29,0,410,-36936,0
5142969,2389,2916,2176,2656,3140,-50,81,-917,82,-12,-389,6,2,-5,1,-29,0,410,-36936,0
5142987,2396,2925,2187,2670,3140,-50,81,-917,82,-12,-389,6,2,-5,1,-29,0,410,-36936,0
5142998,2399,2929,2174,2654,3140,-49,81,-917,82,-12,-389,3,4,-9,3,-22,-3,410,-36936,0
5143019,2396,2925,2176,2656,3140,-49,81,-917,82,-12,-389,1,3,-12,6,-13,-6,410,-36936,0
5143036,2396,2925,2174,2654,3140,-49,81,-917,82,-12,-389,1,3,-12,6,-13,-6,410,-36936,0
5143048,2390,2918,2176,2656,3140,-48,81,-917,82,-11,-388,-3,0,1,5,-16,-8,410,-36936,0
5143069,2384,2910,2181,2663,3140,-48,81,-917,82,-11,-388,-4,0,6,1,-21,-6,410,-36936,0
5143086,2392,2920,2181,2663,3140,-48,81,-917,82,-11,-388,-4,0,6,1,-21,-6,410,-36936,0
5143098,2395,2924,2178,2659,3140,-47,81,-917,81,-10,-388,-2,0,-5,1,-105,-1,410,-36936,0
5143118,2389,2916,2176,2656,3140,-47,81,-917,81,-10,-388,-2,2,-15,2,-21,-1,410,-36936,0
5143136,2392,2920,2179,2660,3140,-47,81,-917,81,-10,-388,-2,2,-15,2,-21,-1,410,-36936,0
5143148,2392,2920,2176,2656,3140,-46,81,-917,81,-9,-389,-4,3,-5,4,-98,-5,410,-36936,0
5143168,2402,2932,2195,2680,3140,-46,81,-917,81,-9,-389,-4,3,-8,4,-13,-4,410,-36936,0
5143185,2396,2925,2178,2659,3140,-46,81,-917,81,-9,-389,-4,3,-8,4,-13,-4,410,-36936,0
5143197,2392,2920,2181,2663,3140,-46,81,-917,81,-9,-389,-3,1,-13,2,-10,0,410,-36936,0
5143216,2394,2923,2179,2660,3140,-46,81,-917,81,-9,-389,-3,1,-13,2,-10,0,410,-36936,0
5143228,2391,2919,2180,2661,3140,-45,81,-917,81,-9,-389,-6,2,-3,0,-10,0,410,-36936,0
5143247,2392,2920,2183,2665,3140,-45,81,-917,81,-9,-389,-6,2,-3,0,-10,0,410,-36936,0
5143259,2392,2920,2184,2666,3140,-45,81,-917,81,-9,-389,-7,2,-8,1,-4,-1,410,-36936,0
5143276,2396,2925,2181,2663,3140,-45,81,-917,81,-9,-389,-7,2,-8,1,-4,-1,410,-36936,0
5143288,2390,2918,2181,2663,3140,-45,81,-917,81,-9,-389,-8,0,-8,0,4,-3,410,-36936,0
5143307,2399,2929,2184,2666,3140,-45,81,-917,81,-9,-389,-8,0,-8,0,4,-3,410,-36936,0
5143319,2389,2916,2181,2663,3140,-45,81,-917,81,-9,-389,-7,3,-3,0,7,0,410,-36936,0
5143338,2395,2924,2187,2670,3140,-45,81,-917,81,-9,-389,-7,3,-3,0,7,0,410,-36936,0
5143350,2384,2910,2176,2656,3140,-45,81,-917,81,-9,-389,-11,1,-3,-3,6,6,410,-36936,0
5143371,2401,2931,2178,2659,3140,-45,81,-917,81,-9,-389,-11,3,-9,-3,2,5,410,-36936,0
5143391,2390,2918,2176,2656,3140,-45,81,-917,81,-9,-389,-16,4,-10,-3,8,3,410,-36936,0
5143411,2394,2923,2170,2649,3140,-46,81,-917,81,-9,-389,-13,3,-20,-3,15,1,410,-36936,0
5143429,2389,2916,2184,2666,3140,-46,81,-917,81,-9,-389,-13,3,-20,-3,15,1,410,-36936,0
5143441,2389,2916,2176,2656,3140,-46,81,-917,81,-10,-388,-11,3,-17,0,19,-8,410,-36936,0
5143461,2399,2929,2179,2660,3140,-47,81,-917,81,-10,-388,-12,6,-9,1,33,-11,410,-36936,0
5143479,2387,2914,2191,2675,3140,-47,81,-917,81,-10,-388,-12,6,-9,1,33,-11,410,-36936,0
5143491,2387,2914,2178,2659,3141,-48,81,-917,82,-11,-388,-16,9,15,5,48,-10,410,-36936,0
5143511,2389,2916,2176,2656,3141,-49,81,-917,82,-12,-388,-15,8,30,3,58,-3,410,-36936,0
5143529,2385,2912,2175,2655,3141,-49,81,-917,82,-12,-388,-15,8,30,3,58,-3,410,-36936,0
5143541,2394,2923,2187,2670,3140,-51,81,-917,83,-13,1611,-19,6,22,3,45,23,410,-36936,0
5143561,2392,2920,2174,2654,3140,-51,81,-917,83,-14,-388,-4,4,10,5,20,33,410,-36936,0
5143579,2399,2929,2171,2650,3140,-51,81,-917,83,-14,-388,-4,4,10,5,20,33,410,-36936,0
5143591,2391,2919,2174,2654,3139,-51,81,-917,83,-14,-389,6,0,-11,8,9,30,410,-36936,0
5143611,2396,2925,2183,2665,3138,-52,81,-916,83,-14,-389,6,4,-12,10,18,17,410,-36936,0
5143628,2395,2924,2179,2660,3138,-52,81,-916,83,-14,-389,6,4,-12,10,18,17,410,-36936,0
5143640,2395,2924,2176,2656,3138,-53,80,-916,83,-15,-390,5,8,-13,14,26,10,410,-36936,0
5143661,2400,2930,2176,2656,3138,-53,80,-916,83,-16,-390,9,7,-22,13,33,14,410,-36936,0
5143678,2399,2929,2175,2655,3138,-53,80,-916,83,-16,-390,9,7,-22,13,33,14,410,-36936,0
5143690,2399,2929,2173,2653,3138,-55,80,-916,83,-17,-390,7,1,-157,11,53,17,410,-36936,0
5143710,2407,2938,2176,2656,3138,-56,80,-916,83,-18,-390,6,3,-17,14,53,11,410,-36936,0
5143728,2415,2948,2172,2652,3138,-56,80,-916,83,-18,-390,6,3,-17,14,53,11,410,-36936,0
5143740,2399,2929,2180,2661,3138,-57,79,-916,83,-19,-390,8,4,-3,15,40,0,410,-36936,0
5143760,2408,2940,2168,2647,3138,-58,79,-916,83,-20,-390,10,3,-3,15,40,0,410,-36936,0
5143778,2404,2935,2176,2656,3138,-58,79,-916,83,-20,-390,10,3,-3,15,40,0,410,-36936,0
5143789,2392,2920,2172,2652,3138,-60,78,-916,83,-21,-390,8,2,-9,15,40,9,410,-36936,0
5143808,2400,2930,2170,2649,3138,-60,78,-916,83,-21,-390,8,2,-9,15,40,9,410,-36936,0
5143820,2404,2935,2174,2654,3138,-61,78,-916,83,-22,-390,6,-4,-1,13,39,6,410,-36936,0
5143838,2406,2937,2173,2653,3138,-61,78,-916,83,-22,-390,6,-4,-1,13,39,6,410,-36936,0
5143850,2399,2929,2172,2652,3138,-61,78,-916,83,-23,-390,6,-7,5,9,35,-3,410,-36936,0
5143868,2403,2934,2173,2653,3138,-61,78,-916,83,-23,-390,6,-7,5,9,35,-3,410,-36936,0
5143880,2407,2938,2166,2644,3138,-62,78,-916,84,-24,-390,7,-2,-3,5,18,-3,410,-36936,0
5143900,2403,2934,2171,2650,3138,-63,78,-916,84,-24,-390,8,-2,-8,0,8,4,410,-36936,0
5143919,2400,2930,2167,2645,3138,-63,78,-916,84,-24,-390,8,-2,-8,0,8,4,410,-36936,0
5143930,2415,2948,2165,2643,3138,-63,78,-916,84,-24,-390,2,-1,2,-6,1,10,410,-36936,0
5143950,2402,2932,2170,2649,3138,-63,78,-916,84,-24,-390,2,-2,4,-6,0,5,410,-36936,0
5143969,2402,2932,2174,2654,3138,-63,78,-916,84,-24,-390,2,-2,4,-6,0,5,410,-36936,0
5143980,2397,2926,2166,2644,3138,-63,78,-916,84,-24,-390,2,6,3,-5,3,-3,410,-36936,0
5143999,2400,2930,2175,2655,3138,-63,78,-916,84,-24,-390,2,6,3,-5,3,-3,410,-36936,0
5144011,2400,2930,2161,2638,3138,-63,78,-916,84,-24,-390,6,11,-6,-3,-4,-4,410,-36935,0
5144029,2401,2931,2164,2642,3138,-63,78,-916,84,-24,-390,6,11,-6,-3,-4,-4,410,-36934,0
5144041,2398,2927,2167,2645,3138,-62,78,-916,84,-23,-390,1,22,2,-10,-9,4,410,-36931,75
5144060,2399,2929,2173,2653,3138,-62,78,-916,84,-23,-390,1,22,2,-10,-9,4,410,-36928,75
5144072,2399,2929,2162,2639,3138,-62,78,-916,84,-23,-390,1,30,3,-33,-1,0,410,-36923,75
5144090,2398,2927,2160,2637,3138,-62,78,-916,84,-23,-390,1,30,3,-33,-1,0,410,-36920,75
5144102,2399,2929,2167,2645,3138,-62,79,-916,85,-23,-390,4,24,-3,-35,-1,-7,410,-36916,75
