Timestamp_ms,ADC1_Raw,ADC1_V_milli,ADC2_Raw,ADC2_V_milli,Heading_deci,Roll_deci,Pitch_deci,Quat_W_milli,Quat_X_milli,Quat_Y_milli,Quat_Z_milli,LinAccel_X_centi,LinAccel_Y_centi,LinAccel_Z_centi,AngVel_X_deci,AngVel_Y_deci,AngVel_Z_deci,Temp_C_deci,Encoder_Count,Encoder_RPM_deci
3773230,2392,2920,2198,2683,25,13,66,-997,58,10,22,-13,-2,-4,3,6,-2,430,-37130,-16
3773248,2376,2901,2221,2711,25,13,66,-997,58,10,22,-13,-2,-4,3,6,-2,430,-37130,-62
3773260,2398,2927,2215,2704,25,13,66,-997,58,10,22,-13,-2,-6,-6,2,-3,430,-37130,-62
3773278,2395,2924,2200,2686,25,13,66,-997,58,10,22,-13,-2,-6,-6,2,-3,430,-37130,-62
3773290,2380,2905,2201,2687,25,13,66,-997,58,10,22,-15,0,7,-10,-6,-3,430,-37131,-62
3773308,2385,2912,2204,2691,25,13,66,-997,58,10,22,-15,0,7,-10,-6,-3,430,-37131,-62
3773319,2387,2914,2194,2678,25,13,66,-997,58,10,22,-13,0,-5,-2,-1,0,430,-37133,-62
3773337,2391,2919,2197,2682,25,13,66,-997,58,10,22,-13,0,-5,-2,-1,0,430,-37133,-62
3773349,2384,2910,2197,2682,25,13,66,-997,58,10,22,-13,-2,-7,5,-5,0,430,-37135,-82
3773368,2383,2909,2207,2694,25,13,66,-997,58,10,22,-13,-2,-7,5,-5,0,430,-37136,-82
3773379,2391,2919,2196,2681,25,13,66,-997,58,10,22,-12,-3,0,6,-12,0,430,-37137,-82
3773398,2384,2910,2213,2702,25,13,66,-997,58,10,22,-12,-3,0,6,-12,0,430,-37138,-82
3773409,2370,2893,2200,2686,25,13,66,-997,58,10,22,-14,-1,-4,6,-16,1,430,-37140,-82
3773427,2384,2910,2200,2686,25,13,66,-997,58,10,22,-14,-1,-4,6,-16,1,430,-37141,-82
3773439,2387,2914,2199,2684,25,13,66,-997,58,11,22,-10,-3,-13,0,-15,7,430,-37142,-82
3773457,2380,2905,2199,2684,25,13,66,-997,58,11,22,-10,-3,-13,0,-15,7,430,-37142,-108
3773469,2383,2909,2211,2699,25,14,66,-997,58,11,22,-14,-5,-12,-6,-11,1,430,-37143,-108
3773488,2383,2909,2207,2694,25,14,66,-997,58,11,22,-14,-5,-12,-6,-11,1,430,-37144,-108
3773500,2384,2910,2199,2684,25,14,66,-997,58,11,22,-13,-5,-11,-8,-3,-8,430,-37145,-108
3773519,2380,2905,2198,2683,25,14,66,-997,58,11,22,-13,-5,-11,-8,-3,-8,430,-37146,-108
3773531,2383,2909,2192,2676,25,14,66,-997,58,11,22,-13,-5,-9,-2,-1,-12,430,-37148,-108
3773549,2388,2915,2201,2687,25,14,66,-997,58,11,22,-13,-5,-9,-2,-1,-12,430,-37150,-108
3773561,2387,2914,2208,2695,25,14,66,-997,58,11,22,-14,-4,0,8,-1,-5,430,-37152,-160
3773580,2383,2909,2204,2691,25,14,66,-997,58,11,22,-14,-4,0,8,-1,-5,430,-37153,-160
3773592,2384,2910,2200,2686,25,15,66,-997,58,11,22,-14,-5,3,2,-9,1,430,-37154,-160
3773609,2382,2908,2207,2694,25,15,66,-997,58,11,22,-14,-5,3,2,-9,1,430,-37155,-160
3773620,2387,2914,2194,2678,25,15,66,-997,58,12,22,-12,-5,-8,-6,-9,-2,430,-37156,-160
3773639,2387,2914,2197,2682,25,15,66,-997,58,12,22,-12,-5,-8,-6,-9,-2,430,-37157,-160
3773651,2384,2910,2198,2683,25,15,66,-997,58,12,22,-14,-5,-6,-8,-10,-7,430,-37159,-160
3773670,2379,2904,2201,2687,25,15,66,-997,58,12,22,-14,-5,-6,-8,-10,-7,430,-37160,-122
3773682,2381,2907,2200,2686,26,15,66,-997,58,12,22,-15,0,-1,5,-12,-7,430,-37163,-122
3773700,2384,2910,2199,2684,26,15,66,-997,58,12,22,-15,0,-1,5,-12,-7,430,-37164,-122
3773712,2391,2919,2198,2683,26,16,66,-997,58,13,22,-16,2,2,4,-17,-2,430,-37166,-122
3773730,2382,2908,2205,2692,26,16,66,-997,58,13,22,-16,2,2,4,-17,-2,430,-37168,-122
3773742,2387,2914,2200,2686,26,16,66,-997,58,13,22,-15,-2,4,9,-15,0,430,-37170,-122
3773759,2382,2908,2205,2692,26,16,66,-997,58,13,22,-15,-2,4,9,-15,0,430,-37171,-122
3773771,2380,2905,2204,2691,26,16,66,-997,58,14,22,-14,-3,-18,8,-12,1,430,-37173,-214
3773790,2385,2912,2201,2687,26,16,66,-997,58,14,22,-14,-3,-18,8,-12,1,430,-37174,-214
3773802,2383,2909,2202,2688,26,17,66,-997,58,14,22,-15,0,-16,3,-11,-7,430,-37175,-214
3773820,2383,2909,2206,2693,26,17,66,-997,58,14,22,-15,0,-16,3,-11,-7,430,-37176,-214
3773832,2376,2901,2201,2687,26,18,66,-997,58,14,23,-14,8,-15,-11,-20,-13,430,-37176,-214
3773850,2383,2909,2200,2686,26,18,66,-997,58,14,23,-14,8,-15,-11,-20,-13,430,-37176,-214
3773863,2381,2907,2205,2692,26,18,66,-997,59,15,23,-19,8,-1,-18,-14,-5,430,-37176,-214
3773881,2381,2907,2198,2683,26,18,66,-997,59,15,23,-19,8,-1,-18,-14,-5,430,-37176,-45
3773894,2380,2905,2204,2691,26,19,67,-997,59,15,23,-20,7,-8,-13,-16,2,430,-37176,-45
3773911,2374,2898,2201,2687,26,19,67,-997,59,15,23,-20,7,-8,-13,-16,2,430,-37176,-45
3773923,2383,2909,2203,2689,26,19,67,-997,59,15,23,-24,10,4,-4,-26,1,430,-37177,-45
3773941,2383,2909,2196,2681,26,19,67,-997,59,15,23,-24,10,4,-4,-26,1,430,-37178,-45
3773953,2383,2909,2201,2687,26,20,67,-997,59,16,23,-19,8,3,8,-11,-5,430,-37178,-45
3773970,2381,2907,2205,2692,26,20,67,-997,59,16,23,-19,8,3,8,-11,-5,430,-37179,-45
3773982,2383,2909,2207,2694,26,19,66,-997,59,16,23,-21,6,-3,10,-5,-1,430,-37179,-49
3774000,2381,2907,2204,2691,26,19,66,-997,59,16,23,-21,6,-3,10,-5,-1,430,-37179,-49
3774012,2381,2907,2193,2677,26,19,66,-997,58,16,23,-16,3,-14,6,-12,1,430,-37179,-49
3774030,2380,2905,2214,2703,26,19,66,-997,58,16,23,-16,3,-14,6,-12,1,430,-37179,-49
3774042,2382,2908,2196,2681,26,20,66,-997,58,16,23,-22,0,9,5,-17,5,430,-37179,-49
3774060,2378,2903,2202,2688,26,20,66,-997,58,16,23,-22,0,9,5,-17,5,430,-37179,-49
3774071,2383,2909,2205,2692,26,20,66,-997,58,16,23,-17,-2,-6,6,-16,2,430,-37179,-49
3774089,2393,2921,2202,2688,26,20,66,-997,58,16,23,-17,-2,-6,6,-16,2,430,-37179,0
3774101,2383,2909,2203,2689,26,20,66,-997,58,16,23,-12,-5,-21,6,-1,3,430,-37179,0
3774119,2384,2910,2202,2688,26,20,66,-997,58,16,23,-12,-5,-21,6,-1,3,430,-37179,0
3774131,2383,2909,2204,2691,26,20,66,-997,58,16,23,-17,-6,-10,3,5,-3,430,-37179,0
3774149,2395,2924,2203,2689,26,20,66,-997,58,16,23,-17,-6,-10,3,5,-3,430,-37179,0
3774160,2372,2896,2206,2693,26,20,66,-997,58,16,23,-18,-2,1,0,0,-8,430,-37179,0
3774179,2384,2910,2200,2686,26,20,66,-997,58,16,23,-18,-2,1,0,0,-8,430,-37179,0
3774190,2383,2909,2205,2692,26,20,66,-997,58,16,23,-13,-4,-11,-1,5,-3,430,-37179,0
3774209,2382,2908,2201,2687,26,20,66,-997,58,16,23,-13,-4,-11,-1,5,-3,430,-37179,0
3774221,2382,2908,2217,2706,26,19,66,-997,58,15,23,-18,-5,-8,-6,11,-2,430,-37179,0
3774239,2381,2907,2205,2692,26,19,66,-997,58,15,23,-18,-5,-8,-6,11,-2,430,-37179,0
3774251,2379,2904,2212,2700,26,19,66,-997,59,15,23,-18,0,12,-5,-6,-7,430,-37179,0
3774269,2379,2904,2204,2691,26,19,66,-997,59,15,23,-18,0,12,-5,-6,-7,430,-37179,0
3774280,2380,2905,2204,2691,26,19,66,-997,59,15,23,-15,3,5,-3,-8,0,430,-37179,0
3774299,2383,2909,2201,2687,26,19,66,-997,59,15,23,-15,3,5,-3,-8,0,430,-37179,0
3774310,2381,2907,2200,2686,26,19,66,-997,59,15,23,-13,1,-26,-5,3,8,430,-37179,0
3774329,2384,2910,2208,2695,26,19,66,-997,59,15,23,-13,1,-26,-5,3,8,430,-37179,0
3774340,2384,2910,2193,2677,26,19,66,-997,59,15,23,-20,0,-19,-2,0,6,430,-37179,0
3774359,2391,2919,2195,2680,26,19,66,-997,59,15,23,-20,0,-19,-2,0,6,430,-37179,0
3774371,2375,2899,2199,2684,26,19,66,-997,59,15,23,-17,1,-13,-3,2,-4,430,-37179,0
3774389,2379,2904,2197,2682,26,19,66,-997,59,15,23,-17,1,-13,-3,2,-4,430,-37179,0
3774401,2376,2901,2198,2683,26,18,66,-997,59,15,23,-18,0,-2,0,16,-5,430,-37179,0
3774418,2374,2898,2201,2687,26,18,66,-997,59,15,23,-18,0,-2,0,16,-5,430,-37179,0
3774429,2379,2904,2197,2682,26,18,66,-997,59,14,23,-18,1,1,0,11,0,430,-37179,0
3774449,2383,2909,2193,2677,26,18,66,-997,59,14,23,-14,0,-3,0,10,1,430,-37179,0
3774466,2389,2916,2198,2683,26,18,66,-997,59,14,23,-14,0,-3,0,10,1,430,-37179,0
3774478,2376,2901,2196,2681,26,17,66,-997,59,14,23,-16,-3,-7,0,15,1,430,-37179,0
3774497,2383,2909,2197,2682,26,17,66,-997,59,14,23,-16,-3,-7,0,15,1,430,-37179,0
3774509,2384,2910,2199,2684,26,16,66,-997,59,13,23,-17,-3,0,1,7,-3,430,-37179,0
3774528,2388,2915,2197,2682,26,16,66,-997,59,13,23,-17,-3,0,1,7,-3,430,-37179,0
3774540,2376,2901,2199,2684,26,16,66,-997,59,13,23,-13,-2,-7,0,16,-1,430,-37179,0
3774559,2379,2904,2195,2680,26,16,66,-997,59,13,23,-13,-2,-7,0,16,-1,430,-37179,0
3774570,2382,2908,2193,2677,26,15,66,-997,59,12,23,-14,-3,-4,0,21,0,430,-37179,0
3774589,2399,2929,2196,2681,26,15,66,-997,59,12,23,-14,-3,-4,0,21,0,430,-37179,0
3774601,2379,2904,2195,2680,26,15,66,-997,59,12,23,-18,-2,4,-2,16,-2,430,-37179,0
3774618,2378,2903,2197,2682,26,15,66,-997,59,12,23,-18,-2,4,-2,16,-2,430,-37179,0
3774630,2389,2916,2195,2680,26,14,66,-997,59,11,23,-11,0,-4,-1,6,-2,430,-37179,0
3774649,2378,2903,2199,2684,26,14,66,-997,59,11,23,-11,0,-4,-1,6,-2,430,-37179,0
3774660,2379,2904,2192,2676,26,14,66,-997,59,11,23,-14,-2,-8,-1,5,4,430,-37179,0
3774680,2375,2899,2198,2683,26,14,66,-997,59,11,23,-13,0,-11,-3,-1,4,430,-37179,0
3774699,2383,2909,2195,2680,26,14,66,-997,59,11,23,-13,0,-11,-3,-1,4,430,-37179,0
3774710,2379,2904,2195,2680,26,14,66,-997,59,11,23,-15,0,-13,-1,0,8,430,-37179,0
3774730,2381,2907,2195,2680,26,13,66,-997,59,11,22,-15,0,-10,0,3,6,430,-37179,0
3774749,2382,2908,2196,2681,26,13,66,-997,59,11,22,-15,0,-10,0,3,6,430,-37179,0
3774760,2380,2905,2198,2683,26,13,66,1002,59,11,22,-13,-1,-8,4,7,0,430,-37179,0
3774780,2384,2910,2198,2683,26,13,66,-997,59,10,22,-15,-2,-8,1,11,0,430,-37179,0
3774799,2391,2919,2196,2681,26,13,66,-997,59,10,22,-15,-2,-8,1,11,0,430,-37179,0
3774811,2387,2914,2205,2692,26,13,66,-997,59,10,22,-15,-3,-4,1,9,3,430,-37179,0
3774830,2379,2904,2187,2670,26,13,66,-997,59,10,22,-15,-3,-4,1,9,3,430,-37179,0
3774841,2387,2914,2194,2678,26,13,66,-997,59,10,22,-14,-2,0,1,12,6,430,-37179,0
3774860,2372,2896,2192,2676,26,13,66,-997,59,10,22,-14,-2,0,1,12,6,430,-37179,0
3774872,2383,2909,2198,2683,26,12,66,-997,59,9,22,-14,-5,-9,1,15,0,430,-37179,0
3774890,2380,2905,2194,2678,26,12,66,-997,59,9,22,-14,-5,-9,1,15,0,430,-37179,0
3774902,2381,2907,2199,2684,26,11,67,-997,59,9,22,-11,-3,-9,1,11,-7,430,-37179,0
3774920,2383,2909,2188,2671,26,11,67,-997,59,9,22,-11,-3,-9,1,11,-7,430,-37179,0
3774931,2375,2899,2196,2681,26,11,67,-997,59,8,23,-16,0,6,0,9,-6,430,-37179,0
3774950,2380,2905,2198,2683,26,11,67,-997,59,8,23,-16,0,6,0,9,-6,430,-37179,0
3774961,2378,2903,2186,2669,26,11,67,-997,59,8,23,-13,-3,0,0,8,0,430,-37179,0
3774980,2381,2907,2195,2680,26,11,67,-997,59,8,23,-13,-3,0,0,8,0,430,-37179,0
3774991,2382,2908,2194,2678,26,11,67,-997,59,8,23,-12,-2,-11,0,1,2,430,-37179,0
3775011,2376,2901,2193,2677,26,10,67,-997,59,8,23,-14,-5,-6,-2,1,3,430,-37179,0
3775030,2368,2891,2199,2684,26,10,67,-997,59,8,23,-14,-5,-6,-2,1,3,430,-37179,0
3775041,2383,2909,2192,2676,26,10,67,-997,59,8,23,-16,-1,-2,-1,0,-4,430,-37179,0
3775061,2395,2924,2207,2694,26,10,67,-997,59,8,23,-13,0,-8,-1,-5,-3,430,-37179,0
3775080,2378,2903,2194,2678,26,10,67,-997,59,8,23,-13,0,-8,-1,-5,-3,430,-37179,0
3775092,2381,2907,2202,2688,26,10,67,-997,59,8,23,-14,0,-9,-1,0,2,430,-37179,0
3775111,2378,2903,2192,2676,26,10,67,-997,59,8,23,-14,0,-9,-1,0,2,430,-37179,0
3775122,2377,2902,2193,2677,26,10,67,-997,59,8,23,-15,-4,-5,-2,-5,5,430,-37179,0
3775141,2381,2907,2195,2680,26,10,67,-997,59,8,23,-15,-4,-5,-2,-5,5,430,-37179,0
3775153,2378,2903,2186,2669,26,10,67,-997,59,8,23,-15,1,-3,0,-6,1,430,-37179,0
3775171,2378,2903,2193,2677,26,10,67,-997,59,8,23,-15,1,-3,0,-6,1,430,-37179,0
3775182,2381,2907,2192,2676,26,10,67,-997,59,8,23,-14,1,-9,1,-3,0,430,-37179,0
3775201,2379,2904,2193,2677,26,10,67,-997,59,8,23,-14,1,-9,1,-3,0,430,-37179,0
3775212,2388,2915,2194,2678,26,10,67,-997,59,7,23,-13,0,-13,1,1,-1,430,-37179,0
3775231,2379,2904,2192,2676,26,10,67,-997,59,7,23,-13,0,-13,1,1,-1,430,-37179,0
3775243,2377,2902,2191,2675,26,10,67,-997,59,7,23,-14,-1,-9,0,4,1,430,-37179,0
3775262,2374,2898,2197,2682,26,10,67,-997,59,7,23,-14,-1,-9,0,4,1,430,-37179,0
3775273,2383,2909,2191,2675,26,10,67,-997,59,7,23,-16,-3,-12,0,8,-1,430,-37179,0
3775292,2376,2901,2194,2678,26,10,67,-997,59,7,23,-16,-3,-12,0,8,-1,430,-37179,0
3775303,2380,2905,2195,2680,26,9,67,-997,59,7,23,-15,-3,-11,0,13,-1,430,-37179,0
3775320,2391,2919,2188,2671,26,9,67,-997,59,7,23,-15,-3,-11,0,13,-1,430,-37179,0
3775332,2379,2904,2196,2681,26,9,67,-997,59,6,23,-19,-2,-12,0,14,-1,430,-37179,0
3775351,2381,2907,2189,2672,26,9,67,-997,59,6,23,-19,-2,-12,0,14,-1,430,-37179,0
3775363,2382,2908,2191,2675,26,8,67,-997,59,6,23,-18,-5,-12,-4,14,-2,430,-37179,0
3775380,2374,2898,2195,2680,26,8,67,-997,59,6,23,-18,-5,-12,-4,14,-2,430,-37179,0
3775391,2383,2909,2190,2673,26,8,67,-997,59,6,23,-19,-3,-7,-4,18,-3,430,-37179,0
3775411,2380,2905,2191,2675,26,7,67,-997,59,5,23,-20,0,-2,-5,16,-5,430,-37179,0
3775428,2391,2919,2190,2673,26,7,67,-997,59,5,23,-20,0,-2,-5,16,-5,430,-37179,0
3775439,2385,2912,2186,2669,26,6,67,-997,59,5,23,-13,0,-9,-5,16,0,430,-37179,0
3775459,2379,2904,2186,2669,26,6,67,-997,59,4,23,-15,-1,-1,-7,18,5,430,-37179,0
3775476,2378,2903,2189,2672,26,6,67,-997,59,4,23,-15,-1,-1,-7,18,5,430,-37179,0
3775487,2377,2902,2190,2673,26,6,67,-997,59,4,23,-15,-3,-1,-2,15,0,430,-37179,0
3775505,2377,2902,2190,2673,26,6,67,-997,59,4,23,-15,-3,-1,-2,15,0,430,-37179,0
3775516,2380,2905,2190,2673,26,5,67,-997,59,3,23,-11,-2,-1,0,14,-6,430,-37179,0
3775533,2377,2902,2192,2676,26,5,67,-997,59,3,23,-11,-2,-1,0,14,-6,430,-37179,0
3775544,2381,2907,2200,2686,26,5,67,-997,59,3,23,-10,3,-4,-1,9,-1,430,-37179,0
3775563,2379,2904,2193,2677,26,5,67,-997,59,3,23,-10,3,-4,-1,9,-1,430,-37179,0
3775574,2386,2913,2187,2670,26,5,67,-997,59,3,23,-14,0,-3,-1,6,6,430,-37179,0
3775593,2379,2904,2176,2656,26,5,67,-997,59,3,23,-14,0,-3,-1,6,6,430,-37179,0
3775604,2377,2902,2191,2675,26,5,67,-997,59,2,23,-15,-3,-1,-1,6,6,430,-37179,0
3775621,2383,2909,2195,2680,26,5,67,-997,59,2,23,-15,-3,-1,-1,6,6,430,-37179,0
3775633,2370,2893,2191,2675,26,4,67,-997,59,2,23,-17,-2,-3,1,0,-3,430,-37179,0
3775652,2379,2904,2186,2669,26,4,67,-997,59,2,23,-17,-2,-3,1,0,-3,430,-37179,0
3775663,2377,2902,2189,2672,26,4,67,-997,59,2,23,-9,-1,-26,3,3,-5,430,-37179,0
3775682,2374,2898,2189,2672,26,4,67,-997,59,2,23,-9,-1,-26,3,3,-5,430,-37179,0
3775694,2376,2901,2189,2672,26,3,67,-997,59,2,23,-17,-4,-5,0,20,3,430,-37179,0
3775713,2380,2905,2188,2671,26,3,67,-997,59,2,23,-17,-4,-5,0,20,3,430,-37179,0
3775724,2382,2908,2180,2661,26,3,67,-997,59,1,23,-18,-5,-17,-1,13,2,430,-37179,0
3775743,2383,2909,2190,2673,26,3,67,-997,59,1,23,-18,-5,-17,-1,13,2,430,-37179,0
3775754,2380,2905,2186,2669,26,2,68,-997,59,1,23,-20,-6,0,-3,17,0,430,-37179,0
3775771,2379,2904,2184,2666,26,2,68,-997,59,1,23,-20,-6,0,-3,17,0,430,-37179,0
3775783,2374,2898,2187,2670,26,1,68,-997,59,0,23,-20,-6,-8,-5,15,0,430,-37179,0
3775802,2382,2908,2182,2664,26,1,68,-997,59,0,23,-20,-6,-8,-5,15,0,430,-37179,0
3775814,2381,2907,2182,2664,26,1,68,-997,59,0,23,-19,-4,0,-6,18,0,430,-37179,0
3775830,2380,2905,2188,2671,26,1,68,-997,59,0,23,-19,-4,0,-6,18,0,430,-37179,0
3775842,2377,2902,2188,2671,26,0,68,-997,59,0,23,-19,-4,-3,-6,17,3,430,-37179,0
3775861,2383,2909,2182,2664,26,0,68,-997,59,0,23,-19,-4,-3,-6,17,3,430,-37179,0
3775873,2377,2902,2179,2660,26,0,68,-997,60,-1,23,-15,-1,0,-8,28,-1,430,-37179,0
3775893,2383,2909,2183,2665,26,0,68,-997,60,-1,23,-17,3,2,-5,25,-6,430,-37179,0
3775912,2379,2904,2181,2663,26,0,68,-997,60,-1,23,-17,3,2,-5,25,-6,430,-37179,0
3775923,2394,2923,2180,2661,26,-1,68,-997,60,-2,23,-9,2,-7,-3,22,1,430,-37179,0
3775943,2375,2899,2180,2661,26,-1,68,-997,60,-2,23,-13,2,-10,-4,20,7,430,-37179,0
3775962,2376,2901,2186,2669,26,-1,68,-997,60,-2,23,-13,2,-10,-4,20,7,430,-37179,0
3775974,2376,2901,2180,2661,26,-1,68,-997,59,-3,23,-10,0,-9,-1,15,12,430,-37179,0
3775993,2379,2904,2191,2675,26,-1,68,-997,59,-3,23,-10,0,-9,-1,15,12,430,-37179,0
3776005,2372,2896,2183,2665,26,-2,68,-997,59,-4,22,-8,0,-4,3,14,8,430,-37179,0
3776022,2375,2899,2181,2663,26,-2,68,-997,59,-4,22,-8,0,-4,3,14,8,430,-37179,0
3776033,2379,2904,2182,2664,26,-3,68,-997,59,-4,22,-12,2,-7,6,10,3,430,-37179,0
3776053,2375,2899,2182,2664,26,-3,68,-997,59,-4,22,-12,-1,-6,6,10,3,430,-37179,0
3776071,2386,2913,2176,2656,26,-3,68,-997,59,-4,22,-12,-1,-6,6,10,3,430,-37179,0
3776082,2373,2897,2183,2665,25,-3,68,-997,59,-4,22,-7,-4,-10,3,7,11,430,-37179,0
3776102,2379,2904,2180,2661,25,-3,68,-997,59,-5,22,-9,-3,-7,3,15,9,430,-37179,0
3776119,2379,2904,2177,2658,25,-3,68,-997,59,-5,22,-9,-3,-7,3,15,9,430,-37179,0
3776130,2380,2905,2181,2663,25,-4,68,-997,59,-5,22,-7,-4,-6,5,16,-3,430,-37179,0
3776148,2379,2904,2179,2660,25,-4,68,-997,59,-5,22,-7,-4,-6,5,16,-3,430,-37179,0
3776159,2380,2905,2170,2649,25,-5,68,-997,59,-5,22,-10,-3,-6,7,14,-7,430,-37179,0
3776176,2372,2896,2180,2661,25,-5,68,-997,59,-5,22,-10,-3,-6,7,14,-7,430,-37179,0
3776188,2378,2903,2179,2660,25,-5,68,-997,59,-6,22,-6,-3,-12,1,15,-2,430,-37179,0
3776206,2377,2902,2180,2661,25,-5,68,-997,59,-6,22,-6,-3,-12,1,15,-2,430,-37179,0
3776218,2375,2899,2182,2664,25,-5,68,-997,59,-6,22,-12,-6,4,-1,7,3,430,-37179,0
3776235,2378,2903,2176,2656,25,-5,68,-997,59,-6,22,-12,-6,4,-1,7,3,430,-37179,0
3776247,2379,2904,2179,2660,25,-5,68,-997,59,-6,22,-12,-7,3,3,-1,-1,430,-37179,0
3776265,2380,2905,2177,2658,25,-5,68,-997,59,-6,22,-12,-7,3,3,-1,-1,430,-37179,0
3776277,2380,2905,2176,2656,25,-5,68,-997,59,-6,22,-12,-4,-11,-1,-1,-4,430,-37179,0
3776295,2383,2909,2180,2661,25,-5,68,-997,59,-6,22,-12,-4,-11,-1,-1,-4,430,-37179,0
3776307,2381,2907,2180,2661,25,-6,68,1002,59,-6,22,-9,-3,-11,-6,0,-1,430,-37179,0
3776325,2379,2904,2187,2670,25,-6,68,1002,59,-6,22,-9,-3,-11,-6,0,-1,430,-37179,0
3776337,2378,2903,2182,2664,25,-6,68,-997,60,-6,22,-12,0,-2,-5,0,-1,430,-37179,0
3776355,2380,2905,2178,2659,25,-6,68,-997,60,-6,22,-12,0,-2,-5,0,-1,430,-37179,0
3776367,2377,2902,2185,2667,25,-6,68,-997,60,-6,22,-6,1,-4,-5,-1,-7,430,-37179,0
3776385,2379,2904,2175,2655,25,-6,68,-997,60,-6,22,-6,1,-4,-5,-1,-7,430,-37179,0
3776397,2376,2901,2176,2656,26,-6,68,-997,60,-6,23,-3,3,-13,-2,-6,-7,430,-37179,0
3776416,2380,2905,2181,2663,26,-6,68,-997,60,-6,23,-3,3,-13,-2,-6,-7,430,-37179,0
3776427,2377,2902,2179,2660,26,-5,68,-997,60,-6,23,-3,3,-7,1,-26,0,430,-37179,0
3776446,2384,2910,2176,2656,26,-5,68,-997,60,-6,23,-3,3,-7,1,-26,0,430,-37179,0
3776457,2372,2896,2177,2658,26,-5,68,-997,60,-5,23,-10,3,14,1,-43,8,430,-37179,0
3776474,2377,2902,2183,2665,26,-5,68,-997,60,-5,23,-10,3,14,1,-43,8,430,-37179,0
3776485,2379,2904,2176,2656,25,-3,68,-997,60,-4,22,-3,-7,-17,0,-25,14,430,-37179,0
3776505,2379,2904,2185,2667,25,-3,68,-997,60,-4,22,-7,-10,-24,-1,-19,8,430,-37179,0
3776522,2378,2903,2182,2664,25,-3,68,-997,60,-4,22,-7,-10,-24,-1,-19,8,430,-37179,0
3776534,2383,2909,2178,2659,25,-2,68,-997,60,-4,22,-10,-9,-17,2,-17,-20,430,-37179,0
3776554,2399,2929,2182,2664,26,-2,68,-997,60,-3,22,-10,-2,7,3,-14,-23,430,-37179,0
3776571,2382,2908,2184,2666,26,-2,68,-997,60,-3,22,-10,-2,7,3,-14,-23,430,-37180,0
3776583,2378,2903,2185,2667,26,-1,68,-997,60,-3,23,-1,2,-7,4,-21,-12,430,-37180,0
3776602,2380,2905,2184,2666,26,-1,68,-997,60,-3,23,-1,2,-7,4,-21,-12,430,-37180,0
3776614,2378,2903,2196,2681,26,-1,68,-997,60,-2,23,-6,3,7,1,-25,8,430,-37180,-15
3776631,2379,2904,2176,2656,26,-1,68,-997,60,-2,23,-6,3,7,1,-25,8,430,-37179,-15
3776642,2399,2929,2186,2669,26,0,68,-997,60,-2,22,2,3,-9,0,-111,14,430,-37179,-15
3776661,2407,2938,2189,2672,26,0,68,-997,60,-2,22,2,3,-9,0,-111,14,430,-37180,-15
3776673,2392,2920,2181,2663,26,0,68,-997,60,-1,22,-2,0,6,8,-16,-6,430,-37180,-15
3776692,2379,2904,2189,2672,26,0,68,-997,60,-1,22,-2,0,6,8,-16,-6,430,-37180,-15
3776703,2372,2896,2188,2671,26,0,68,-997,59,0,23,-19,0,24,15,-25,-23,430,-37180,-15
3776720,2378,2903,2191,2675,26,0,68,-997,59,0,23,-19,0,24,15,-25,-23,430,-37180,0
3776732,2375,2899,2194,2678,27,1,68,-997,59,0,23,-8,-2,-11,15,-53,-29,430,-37179,0
3776750,2379,2904,2191,2675,27,1,68,-997,59,0,23,-8,-2,-11,15,-53,-29,430,-37179,0
3776761,2383,2909,2192,2676,27,2,67,-997,59,1,24,-11,0,-17,10,-68,-15,430,-37179,0
3776779,2381,2907,2193,2677,27,2,67,-997,59,1,24,-11,0,-17,10,-68,-15,430,-37179,0
3776790,2378,2903,2196,2681,27,4,67,-997,59,3,24,-8,-6,-35,1,-79,3,430,-37179,0
3776808,2383,2909,2191,2675,27,4,67,-997,59,3,24,-8,-6,-35,1,-79,3,430,-37179,0
3776820,2379,2904,2191,2675,27,6,67,-997,59,4,24,-9,-10,-40,-2,-68,1,430,-37179,16
3776837,2400,2930,2193,2677,27,6,67,-997,59,4,24,-9,-10,-40,-2,-68,1,430,-37179,16
3776849,2381,2907,2204,2691,27,8,68,-997,59,6,24,-18,-12,-5,-2,-46,-23,430,-37179,16
3776868,2379,2904,2195,2680,27,8,68,-997,59,6,24,-18,-12,-5,-2,-46,-23,430,-37179,16
3776879,2374,2898,2198,2683,28,10,68,-997,59,7,25,-20,-5,1,-5,-50,-38,430,-37179,16
3776898,2370,2893,2199,2684,28,10,68,-997,59,7,25,-20,-5,1,-5,-50,-38,430,-37179,16
3776910,2374,2898,2195,2680,29,11,68,-997,59,8,25,-16,1,4,-8,-61,-12,430,-37179,16
3776927,2376,2901,2194,2678,29,11,68,-997,59,8,25,-16,1,4,-8,-61,-12,430,-37179,0
3776939,2379,2904,2195,2680,29,13,68,-997,60,10,25,-21,-3,13,-15,-75,9,430,-37179,0
3776958,2379,2904,2192,2676,29,13,68,-997,60,10,25,-21,-3,13,-15,-75,9,430,-37179,0
3776969,2378,2903,2195,2680,28,15,68,-997,60,12,25,-13,-4,4,-10,-78,-1,430,-37179,0
3776986,2388,2915,2196,2681,28,15,68,-997,60,12,25,-13,-4,4,-10,-78,-1,430,-37179,0
3776998,2375,2899,2198,2683,28,17,68,-997,60,13,25,-12,5,0,-5,-62,-21,430,-37179,0
3777017,2379,2904,2197,2682,28,17,68,-997,60,13,25,-12,5,0,-5,-62,-21,430,-37179,0
3777029,2372,2896,2199,2684,29,18,68,-997,60,15,26,-13,9,-5,1,-48,-25,430,-37178,16
3777048,2371,2894,2197,2682,29,18,68,-997,60,15,26,-13,9,-5,1,-48,-25,430,-37178,16
3777060,2378,2903,2203,2689,30,20,68,-997,60,16,26,-14,10,-7,3,-50,-15,430,-37179,16
3777077,2380,2905,2204,2691,30,20,68,-997,60,16,26,-14,10,-7,3,-50,-15,430,-37179,16
3777089,2368,2891,2202,2688,30,21,68,-997,60,17,26,-16,10,0,11,-56,-7,430,-37179,16
3777108,2384,2910,2205,2692,30,21,68,-997,60,17,26,-16,10,0,11,-56,-7,430,-37179,16
3777120,2378,2903,2205,2692,30,23,68,-997,60,19,26,-18,8,-5,17,-78,-3,430,-37179,16
3777137,2388,2915,2209,2697,30,23,68,-997,60,19,26,-18,8,-5,17,-78,-3,430,-37179,-15
3777149,2379,2904,2207,2694,30,25,67,-997,59,21,26,-16,5,-18,20,-93,0,430,-37179,-15
3777168,2373,2897,2207,2694,30,25,67,-997,59,21,26,-16,5,-18,20,-93,0,430,-37179,-15
3777180,2377,2902,2215,2704,30,28,66,-997,59,23,26,-23,0,-21,20,-80,3,430,-37178,-15
3777199,2379,2904,2208,2695,30,28,66,-997,59,23,26,-23,0,-21,20,-80,3,430,-37178,-15
3777210,2383,2909,2219,2709,30,30,66,-997,58,24,26,-22,-6,-25,16,-71,0,430,-37177,-15
3777228,2382,2908,2200,2686,30,30,66,-997,58,24,26,-22,-6,-25,16,-71,0,430,-37177,-15
3777240,2376,2901,2211,2699,29,31,66,-997,58,26,26,-26,-2,-4,7,-61,-5,430,-37176,48
3777259,2379,2904,2215,2704,29,31,66,-997,58,26,26,-26,-2,-4,7,-61,-5,430,-37175,48
3777270,2378,2903,2210,2698,29,33,65,-997,58,27,26,-23,-6,-14,6,-55,-5,430,-37175,48
3777288,2379,2904,2208,2695,29,33,65,-997,58,27,26,-23,-6,-14,6,-55,-5,430,-37175,48
3777300,2378,2903,2214,2703,29,34,65,-997,58,28,25,-20,-5,-6,14,-50,4,430,-37175,48
3777319,2379,2904,2211,2699,29,34,65,-997,58,28,25,-20,-5,-6,14,-50,4,430,-37175,48
3777330,2384,2910,2215,2704,29,35,65,-997,57,30,25,-19,-2,3,13,-46,6,430,-37175,48
3777349,2377,2902,2206,2693,29,35,65,-997,57,30,25,-19,-2,3,13,-46,6,430,-37175,15
3777361,2375,2899,2215,2704,29,36,65,-997,57,30,25,-18,-9,10,13,-35,0,430,-37175,15
3777378,2380,2905,2219,2709,29,36,65,-997,57,30,25,-18,-9,10,13,-35,0,430,-37175,15
3777390,2375,2899,2214,2703,28,37,64,-997,57,31,25,-18,-14,15,8,-34,-4,430,-37175,15
3777409,2376,2901,2218,2708,28,37,64,-997,57,31,25,-18,-14,15,8,-34,-4,430,-37175,15
3777421,2380,2905,2218,2708,28,38,64,-997,57,32,25,-14,-11,-5,4,-28,0,430,-37175,15
3777438,2377,2902,2218,2708,28,38,64,-997,57,32,25,-14,-11,-5,4,-28,0,430,-37175,15
3777450,2386,2913,2220,2710,28,38,64,-997,57,32,25,-13,-7,-15,1,-20,-8,430,-37175,0
3777469,2382,2908,2229,2721,28,38,64,-997,57,32,25,-13,-7,-15,1,-20,-8,430,-37175,0
3777481,2379,2904,2219,2709,29,39,64,-997,57,33,25,-23,0,1,3,-26,-20,430,-37175,0
3777499,2379,2904,2231,2724,29,39,64,-997,57,33,25,-23,0,1,3,-26,-20,430,-37175,0
3777511,2378,2903,2226,2717,30,40,64,-997,57,33,26,-27,-2,12,1,-22,-12,430,-37175,0
3777528,2377,2902,2231,2724,30,40,64,-997,57,33,26,-27,-2,12,1,-22,-12,430,-37175,0
3777540,2387,2914,2216,2705,30,40,64,-997,57,33,26,-30,-1,-26,-7,-8,4,430,-37175,0
3777559,2380,2905,2228,2720,30,40,64,-997,57,33,26,-30,-1,-26,-7,-8,4,430,-37174,0
3777571,2386,2913,2220,2710,29,40,65,-997,57,33,26,-30,-3,-38,-11,1,10,430,-37174,0
3777590,2380,2905,2224,2715,29,40,65,-997,57,33,26,-30,-3,-38,-11,1,10,430,-37174,0
3777601,2380,2905,2230,2722,29,40,65,-997,58,33,25,-27,1,-22,-9,10,-3,430,-37175,0
3777620,2376,2901,2224,2715,29,40,65,-997,58,33,25,-27,1,-22,-9,10,-3,430,-37175,0
3777632,2379,2904,2231,2724,30,39,65,-997,58,32,26,-18,11,-19,-3,21,-13,430,-37175,0
3777650,2377,2902,2222,2713,30,39,65,-997,58,32,26,-18,11,-19,-3,21,-13,430,-37175,0
3777662,2376,2901,2221,2711,30,38,65,-997,58,32,26,-13,9,-23,0,30,-1,430,-37174,16
3777679,2374,2898,2214,2703,30,38,65,-997,58,32,26,-13,9,-23,0,30,-1,430,-37174,16
3777691,2380,2905,2224,2715,30,37,65,-997,57,31,26,-10,3,-19,-1,24,15,430,-37174,16
3777710,2381,2907,2212,2700,30,37,65,-997,57,31,26,-10,3,-19,-1,24,15,430,-37174,16
3777722,2376,2901,2216,2705,29,36,65,-997,57,30,26,-15,-3,-5,0,26,8,430,-37175,16
3777739,2375,2899,2215,2704,29,36,65,-997,57,30,26,-15,-3,-5,0,26,8,430,-37175,16
3777750,2377,2902,2212,2700,29,35,65,-997,57,29,26,-19,-5,7,4,28,-6,430,-37175,16
3777770,2376,2901,2208,2695,30,35,65,-997,57,29,26,-18,-5,9,3,30,-7,430,-37175,-15
3777787,2383,2909,2210,2698,30,35,65,-997,57,29,26,-18,-5,9,3,30,-7,430,-37175,-15
3777799,2378,2903,2208,2695,30,33,65,-997,57,28,26,-8,-4,3,0,36,10,430,-37175,-15
3777819,2383,2909,2213,2702,29,33,65,-997,57,27,26,-9,-3,12,-1,41,15,430,-37174,-15
3777836,2379,2904,2208,2695,29,33,65,-997,57,27,26,-9,-3,12,-1,41,15,430,-37174,-15
3777848,2379,2904,2208,2695,29,31,65,-997,57,26,25,-12,-5,12,-5,38,6,430,-37174,-15
3777868,2379,2904,2211,2699,29,31,65,-997,57,25,25,-6,0,1,-5,34,-1,430,-37173,-15
3777885,2382,2908,2208,2695,29,31,65,-997,57,25,25,-6,0,1,-5,34,-1,430,-37173,28
3777897,2379,2904,2210,2698,29,30,65,-997,57,25,25,-7,0,-1,-3,32,-88,430,-37173,28
3777917,2377,2902,2211,2699,29,29,65,-997,57,24,26,-5,6,0,2,30,1,430,-37173,28
3777933,2369,2892,2200,2686,29,29,65,-997,57,24,26,-5,6,0,2,30,1,430,-37173,28
3777945,2378,2903,2204,2691,29,28,65,-997,57,23,25,-5,1,-10,5,20,17,430,-37173,28
3777962,2380,2905,2208,2695,29,28,65,-997,57,23,25,-5,1,-10,5,20,17,430,-37173,28
3777974,2380,2905,2208,2695,28,28,65,-997,57,23,25,-6,-1,-16,1,23,14,430,-37172,28
3777991,2415,2948,2206,2693,28,28,65,-997,57,23,25,-6,-1,-16,1,23,14,430,-37172,15
3778003,2381,2907,2209,2697,28,27,65,-997,57,22,25,-6,-6,-13,6,20,-5,430,-37172,15
3778021,2373,2897,2208,2695,28,27,65,-997,57,22,25,-6,-6,-13,6,20,-5,430,-37172,15
3778033,2380,2905,2208,2695,28,26,65,-997,57,22,25,-6,1,-4,6,13,-7,430,-37172,15
3778051,2379,2904,2207,2694,28,26,65,-997,57,22,25,-6,1,-4,6,13,-7,430,-37172,15
3778062,2385,2912,2202,2688,28,26,65,-997,57,21,25,-9,-1,1,1,10,7,430,-37171,15
3778081,2382,2908,2208,2695,28,26,65,-997,57,21,25,-9,-1,1,1,10,7,430,-37171,15
3778092,2380,2905,2207,2694,28,26,65,-997,57,21,25,-10,-3,-4,-5,8,12,430,-37170,33
3778111,2378,2903,2213,2702,28,26,65,-997,57,21,25,-10,-3,-4,-5,8,12,430,-37169,33
3778123,2391,2919,2204,2691,28,25,65,-997,57,21,25,-7,-4,-8,-4,8,-3,430,-37169,33
3778141,2380,2905,2216,2705,28,25,65,-997,57,21,25,-7,-4,-8,-4,8,-3,430,-37169,33
3778153,2385,2912,2198,2683,28,25,65,-997,57,21,25,-9,-1,1,-2,14,-13,430,-37168,33
3778171,2388,2915,2210,2698,28,25,65,-997,57,21,25,-9,-1,1,-2,14,-13,430,-37168,33
3778183,2376,2901,2208,2695,28,25,65,-997,57,20,25,-10,0,2,0,10,-5,430,-37168,33
3778201,2378,2903,2208,2695,28,25,65,-997,57,20,25,-10,0,2,0,10,-5,430,-37167,45
3778213,2383,2909,2209,2697,28,25,65,-997,57,20,25,-9,-3,-7,-2,5,8,430,-37167,45
3778231,2392,2920,2193,2677,28,25,65,-997,57,20,25,-9,-3,-7,-2,5,8,430,-37167,45
3778242,2379,2904,2208,2695,28,24,65,-997,57,20,25,-12,-4,-6,-1,5,3,430,-37166,45
3778261,2383,2909,2201,2687,28,24,65,-997,57,20,25,-12,-4,-6,-1,5,3,430,-37166,45
3778272,2379,2904,2221,2711,28,24,65,-997,57,20,25,-14,0,0,-3,6,-10,430,-37166,45
3778291,2382,2908,2216,2705,28,24,65,-997,57,20,25,-14,0,0,-3,6,-10,430,-37166,45
3778302,2387,2914,2208,2695,29,24,65,1002,57,19,25,-13,0,0,3,6,-6,430,-37166,16
3778321,2372,2896,2210,2698,29,24,65,1002,57,19,25,-13,0,0,3,6,-6,430,-37166,16
3778333,2383,2909,2208,2695,29,23,65,-997,57,19,25,-14,-1,-11,1,15,5,430,-37166,16
3778351,2380,2905,2207,2694,29,23,65,-997,57,19,25,-14,-1,-11,1,15,5,430,-37166,16
3778363,2387,2914,2209,2697,29,23,65,-997,57,19,25,-16,-4,-5,0,11,3,430,-37166,16
3778381,2378,2903,2212,2700,29,23,65,-997,57,19,25,-16,-4,-5,0,11,3,430,-37166,16
3778393,2387,2914,2206,2693,29,22,65,-997,57,18,25,-18,-2,2,4,7,-3,430,-37166,16
3778411,2391,2919,2204,2691,29,22,65,-997,57,18,25,-18,-2,2,4,7,-3,430,-37166,0
3778423,2392,2920,2209,2697,29,22,65,-997,57,18,25,-16,3,5,2,3,4,430,-37166,0
3778441,2372,2896,2212,2700,29,22,65,-997,57,18,25,-16,3,5,2,3,4,430,-37166,0
3778452,2383,2909,2212,2700,28,22,65,-997,57,18,25,-13,-1,-6,2,5,11,430,-37166,0
3778472,2380,2905,2209,2697,28,22,65,-997,57,18,25,-13,-2,-10,1,11,13,430,-37166,0
3778489,2383,2909,2216,2705,28,22,65,-997,57,18,25,-13,-2,-10,1,11,13,430,-37166,0
3778500,2391,2919,2223,2714,28,21,65,-997,57,17,25,-8,-5,-21,3,24,-2,430,-37166,0
3778520,2381,2907,2201,2687,28,21,65,1002,57,17,25,-8,-3,-18,5,25,-8,430,-37166,0
3778538,2384,2910,2209,2697,28,21,65,1002,57,17,25,-8,-3,-18,5,25,-8,430,-37166,0
3778549,2388,2915,2215,2704,28,20,65,-997,57,16,25,-11,0,-134,5,23,-11,430,-37166,0
3778569,2383,2909,2214,2703,29,20,65,-997,57,16,25,-12,5,5,3,18,-4,430,-37166,0
3778586,2387,2914,2208,2695,29,20,65,-997,57,16,25,-12,5,5,3,18,-4,430,-37166,0
3778597,2396,2925,2206,2693,29,19,65,-997,57,15,25,-9,-1,-11,1,8,6,430,-37166,0
3778615,2384,2910,2211,2699,29,19,65,-997,57,15,25,-9,-1,-11,1,8,6,430,-37166,0
3778626,2385,2912,2219,2709,28,19,65,-997,57,15,25,-5,-1,-15,0,-1,8,430,-37166,0
3778644,2368,2891,2207,2694,28,19,65,-997,57,15,25,-5,-1,-15,0,-1,8,430,-37166,0
3778656,2380,2905,2209,2697,28,19,65,-997,57,15,25,-13,0,1,0,-6,6,430,-37166,0
3778673,2376,2901,2210,2698,28,19,65,-997,57,15,25,-13,0,1,0,-6,6,430,-37166,0
3778685,2382,2908,2209,2697,28,19,65,-997,57,15,24,-12,0,-4,3,3,10,430,-37166,0
3778703,2382,2908,2208,2695,28,19,65,-997,57,15,24,-12,0,-4,3,3,10,430,-37166,0
3778714,2384,2910,2212,2700,28,19,65,-997,57,15,24,-8,-5,-11,0,16,5,430,-37166,0
3778731,2385,2912,2206,2693,28,19,65,-997,57,15,24,-8,-5,-11,0,16,5,430,-37166,0
3778742,2378,2903,2210,2698,28,18,65,-997,57,15,24,-18,-7,11,2,22,-10,430,-37166,0
3778762,2389,2916,2208,2695,28,18,65,-997,57,14,25,-17,-6,9,1,17,-14,430,-37166,0
3778779,2387,2914,2215,2704,28,18,65,-997,57,14,25,-17,-6,9,1,17,-14,430,-37166,0
3778791,2383,2909,2220,2710,28,18,65,-997,57,14,25,-14,0,0,-1,6,-11,430,-37166,0
3778810,2378,2903,2205,2692,28,18,65,-997,57,14,25,-14,0,0,-1,6,-11,430,-37166,0
3778822,2392,2920,2206,2693,29,18,65,-997,57,14,25,-17,3,-6,-6,-4,5,430,-37165,0
3778841,2394,2923,2200,2686,29,18,65,-997,57,14,25,-17,3,-6,-6,-4,5,430,-37165,15
3778853,2384,2910,2207,2694,28,18,65,-997,57,14,25,-11,0,-18,-7,-1,12,430,-37165,15
3778873,2376,2901,2208,2695,28,18,65,-997,58,6,25,-16,-1,-23,-6,0,6,430,-37165,15
3778892,2388,2915,2204,2691,28,18,65,-997,58,6,25,-16,-1,-23,-6,0,6,430,-37165,15
3778904,2385,2912,2208,2695,28,18,65,-997,58,14,25,-14,-2,-7,-1,2,-6,430,-37165,15
3778923,2383,2909,2203,2689,28,18,65,-997,58,14,25,-14,-2,-7,-1,2,-6,430,-37165,15
3778935,2385,2912,2200,2686,28,18,65,-997,58,14,25,-12,0,-13,-2,6,-8,430,-37165,15
3778953,2383,2909,2210,2698,28,18,65,-997,58,14,25,-12,0,-13,-2,6,-8,430,-37165,0
3778965,2392,2920,2202,2688,29,18,65,-997,58,14,25,-16,-2,0,-5,2,2,430,-37166,0
3778983,2380,2905,2206,2693,29,18,65,-997,58,14,25,-16,-2,0,-5,2,2,430,-37166,0
3778994,2384,2910,2207,2694,28,18,65,-997,58,14,25,-21,-2,16,-3,8,6,430,-37166,0
3779013,2380,2905,2206,2693,28,18,65,-997,58,14,25,-21,-2,16,-3,8,6,430,-37166,0
3779025,2384,2910,2214,2703,28,17,65,-997,58,14,25,-17,-1,17,0,9,-8,430,-37166,0
3779043,2382,2908,2223,2714,28,17,65,-997,58,14,25,-17,-1,17,0,9,-8,430,-37166,0
3779055,2383,2909,2204,2691,29,16,65,-997,58,13,25,-11,3,-4,2,3,-12,430,-37165,0
3779074,2378,2903,2205,2692,29,16,65,-997,58,13,25,-11,3,-4,2,3,-12,430,-37165,0
3779085,2382,2908,2208,2695,29,16,65,-997,58,13,25,-9,0,-16,0,0,0,430,-37165,0
3779103,2384,2910,2205,2692,29,16,65,-997,58,13,25,-9,0,-16,0,0,0,430,-37165,0
3779115,2382,2908,2208,2695,29,16,65,-997,58,13,25,-15,0,-12,0,-4,7,430,-37165,0
3779132,2370,2893,2210,2698,29,16,65,-997,58,13,25,-15,0,-12,0,-4,7,430,-37165,0
3779144,2368,2891,2205,2692,29,16,65,-997,58,13,25,-15,-3,-13,-1,-10,1,430,-37165,0
3779163,2380,2905,2204,2691,29,16,65,-997,58,13,25,-15,-3,-13,-1,-10,1,430,-37165,0
3779175,2382,2908,2205,2692,29,16,66,-997,58,13,25,-17,-3,-6,0,-3,-3,430,-37165,0
3779194,2380,2905,2208,2695,29,16,66,-997,58,13,25,-17,-3,-6,0,-3,-3,430,-37165,0
3779205,2380,2905,2206,2693,29,16,66,-997,58,13,25,-18,-8,-9,-2,2,-3,430,-37165,0
3779224,2378,2903,2207,2694,29,16,66,-997,58,13,25,-18,-8,-9,-2,2,-3,430,-37165,0
3779236,2383,2909,2208,2695,29,16,66,-997,58,13,25,-26,-8,2,-6,8,-3,430,-37165,0
3779254,2388,2915,2206,2693,29,16,66,-997,58,13,25,-26,-8,2,-6,8,-3,430,-37165,0
3779266,2382,2908,2206,2693,29,15,66,-997,58,12,25,-29,-2,6,-7,10,-6,430,-37165,0
3779284,2376,2901,2207,2694,29,15,66,-997,58,12,25,-29,-2,6,-7,10,-6,430,-37165,0
3779295,2383,2909,2204,2691,29,15,66,-997,58,12,25,-30,2,9,-5,8,0,430,-37165,0
3779314,2381,2907,2200,2686,29,15,66,-997,58,12,25,-30,2,9,-5,8,0,430,-37165,0
3779325,2391,2919,2205,2692,29,14,66,-997,58,11,25,-26,3,-6,-6,14,7,430,-37165,0
3779344,2378,2903,2205,2692,29,14,66,-997,58,11,25,-26,3,-6,-6,14,7,430,-37165,0
3779355,2375,2899,2203,2689,28,13,66,-997,58,10,25,-24,8,-10,-1,26,9,430,-37165,0
3779374,2381,2907,2204,2691,28,13,66,-997,58,10,25,-24,8,-10,-1,26,9,430,-37165,0
3779386,2384,2910,2209,2697,28,12,66,-997,58,9,25,-20,7,-17,5,38,5,430,-37165,0
3779404,2382,2908,2206,2693,28,12,66,-997,58,9,25,-20,7,-17,5,38,5,430,-37165,0
3779416,2385,2912,2204,2691,28,10,66,-997,58,8,25,-20,7,-16,10,46,5,430,-37165,0
3779433,2383,2909,2207,2694,28,10,66,-997,58,8,25,-20,7,-16,10,46,5,430,-37165,0
3779444,2383,2909,2203,2689,28,9,66,-997,58,6,25,-32,-1,-3,10,45,7,430,-37165,0
3779464,2385,2912,2208,2695,28,8,65,-997,57,5,25,-34,6,-2,9,38,7,430,-37165,0
3779480,2386,2913,2202,2688,28,8,65,-997,57,5,25,-34,6,-2,9,38,7,430,-37164,15
3779492,2376,2901,2206,2693,28,5,65,-997,57,3,24,-37,-8,-7,6,63,19,430,-37164,15
3779511,2381,2907,2208,2695,28,5,65,-997,57,3,24,-37,-8,-7,6,63,19,430,-37164,15
3779523,2392,2920,2205,2692,28,3,65,-998,57,1,24,-29,-15,-10,1,77,10,430,-37163,15
3779540,2383,2909,2209,2697,28,3,65,-998,57,1,24,-29,-15,-10,1,77,10,430,-37162,15
3779551,2381,2907,2196,2681,28,0,66,-997,57,0,24,-28,-2,-9,-11,84,0,430,-37160,15
3779571,2383,2909,2196,2681,28,-1,66,-997,58,-2,24,-24,10,-1,-16,91,3,430,-37158,15
3779588,2381,2907,2200,2686,28,-1,66,-997,58,-2,24,-24,10,-1,-16,91,3,430,-37156,123
3779600,2382,2908,2199,2684,28,-3,67,-997,58,-5,24,-13,7,-22,-27,95,13,430,-37155,123
3779618,2387,2914,2199,2684,28,-3,67,-997,58,-5,24,-13,7,-22,-27,95,13,430,-37154,123
3779630,2380,2905,2196,2681,27,-6,67,-997,59,-7,24,-3,1,-27,-6,97,19,430,-37154,123
3779648,2384,2910,2199,2684,27,-6,67,-997,59,-7,24,-3,1,-27,-6,97,19,430,-37154,123
3779659,2383,2909,2187,2670,27,-9,67,-997,58,-10,23,-25,-3,16,12,113,21,430,-37154,123
3779677,2378,2903,2190,2673,27,-9,67,-997,58,-10,23,-25,-3,16,12,113,21,430,-37154,123
3779689,2377,2902,2188,2671,26,-12,66,-997,58,-13,23,-15,-10,9,15,112,10,430,-37154,33
3779708,2389,2916,2190,2673,26,-12,66,-997,58,-13,23,-15,-10,9,15,112,10,430,-37154,33
3779720,2399,2929,2186,2669,26,-16,66,-997,58,-16,23,-12,-17,-3,14,115,4,430,-37154,33
3779737,2387,2914,2188,2671,26,-16,66,-997,58,-16,23,-12,-17,-3,14,115,4,430,-37154,33
3779749,2391,2919,2192,2676,26,-19,66,-997,57,-19,23,-9,-7,-3,13,111,-5,430,-37154,33
3779768,2388,2915,2190,2673,26,-19,66,-997,57,-19,23,-9,-7,-3,13,111,-5,430,-37154,33
3779779,2395,2924,2188,2671,27,-22,65,-997,57,-22,24,-9,2,-1,13,110,0,430,-37154,33
3779797,2394,2923,2187,2670,27,-22,65,-997,57,-22,24,-9,2,-1,13,110,0,430,-37154,0
3779809,2380,2905,2183,2665,27,-25,65,-997,56,-24,24,-7,4,-5,18,109,11,430,-37154,0
3779827,2395,2924,2189,2672,27,-25,65,-997,56,-24,24,-7,4,-5,18,109,11,430,-37154,0
3779839,2384,2910,2187,2670,27,-108,65,-997,55,-27,23,-9,2,-14,23,98,9,430,-37154,0
3779857,2400,2930,2186,2669,27,-108,65,-997,55,-27,23,-9,2,-14,23,98,9,430,-37154,0
3779868,2391,2919,2188,2671,26,-31,64,-997,55,-29,23,-9,1,-3,21,83,9,430,-37154,0
3779886,2395,2924,2180,2661,26,-31,64,-997,55,-29,23,-9,1,-3,21,83,9,430,-37154,0
3779897,2389,2916,2187,2670,26,-33,63,-997,54,-31,23,-8,0,-3,22,77,15,430,-37154,0
3779916,2393,2921,2180,2661,26,-33,63,-997,54,-31,23,-8,0,-3,22,77,15,430,-37154,0
3779928,2395,2924,2183,2665,26,-36,63,-997,54,-33,23,-7,-5,1,21,80,20,430,-37154,0
3779945,2400,2930,2176,2656,26,-36,63,-997,54,-33,23,-7,-5,1,21,80,20,430,-37154,0
3779957,2396,2925,2180,2661,26,-38,62,1002,53,-35,23,0,0,-13,23,86,21,430,-37154,0
3779976,2401,2931,2192,2676,26,-38,62,1002,53,-35,23,0,0,-13,23,86,21,430,-37154,0
3779988,2396,2925,2184,2666,25,-121,61,-997,53,-37,22,12,1,-13,21,93,15,430,-37154,0
3780006,2404,2935,2187,2670,25,-121,61,-997,53,-37,22,12,1,-13,21,93,15,430,-37154,0
3780018,2406,2937,2177,2658,25,-43,60,-997,52,-39,22,16,1,0,23,78,13,430,-37154,0
3780036,2400,2930,2176,2656,25,-43,60,-997,52,-39,22,16,1,0,23,78,13,430,-37154,0
3780047,2405,2936,2177,2658,25,-46,60,-997,51,-41,22,16,-3,2,22,51,16,430,-37154,0
3780066,2406,2937,2180,2661,25,-46,60,-997,51,-41,22,16,-3,2,22,51,16,430,-37154,0
3780078,2400,2930,2176,2656,25,-46,59,-997,51,-42,21,17,-8,-3,21,31,22,430,-37154,0
3780095,2408,2940,2178,2659,25,-46,59,-997,51,-42,21,17,-8,-3,21,31,22,430,-37154,0
3780107,2408,2940,2178,2659,24,-47,59,-997,50,-43,21,12,-18,6,13,16,17,430,-37154,0
3780127,2410,2942,2179,2660,23,-48,58,-997,50,-43,21,12,-19,8,9,13,10,430,-37154,0
3780144,2404,2935,2176,2656,23,-48,58,-997,50,-43,21,12,-19,8,9,13,10,430,-37154,0
3780156,2405,2936,2188,2671,24,-48,59,-997,50,-43,21,11,-16,13,4,3,-21,430,-37154,0
3780176,2400,2930,2177,2658,24,-48,59,-997,51,-43,21,12,-11,7,0,1,-26,430,-37154,0
3780193,2400,2930,2176,2656,24,-48,59,-997,51,-43,21,12,-11,7,0,1,-26,430,-37154,0
3780205,2401,2931,2177,2658,25,-47,59,-997,51,-42,22,11,2,-8,-5,-20,-24,430,-37154,0
3780225,2402,2932,2179,2660,25,-46,60,-997,51,-42,22,10,7,-4,-3,-35,-16,430,-37154,0
3780242,2399,2929,2177,2658,25,-46,60,-997,51,-42,22,10,7,-4,-3,-35,-16,430,-37154,0
3780254,2400,2930,2179,2660,25,-45,59,-997,51,-40,22,6,10,0,-1,-53,-1,430,-37154,0
3780274,2404,2935,2176,2656,25,-44,59,-997,51,-39,22,4,5,-5,1,-58,1,430,-37154,0
3780291,2399,2929,2180,2661,25,-44,59,-997,51,-39,22,4,5,-5,1,-58,1,430,-37154,0
3780302,2400,2930,2184,2666,25,-42,59,-997,51,-38,22,-2,-4,-7,5,-61,-1,430,-37154,0
3780320,2399,2929,2176,2656,25,-42,59,-997,51,-38,22,-2,-4,-7,5,-61,-1,430,-37154,0
3780332,2392,2920,2181,2663,25,-41,59,-997,51,-36,22,-5,-9,-3,3,-66,-10,430,-37154,0
3780349,2395,2924,2183,2665,25,-41,59,-997,51,-36,22,-5,-9,-3,3,-66,-10,430,-37154,0
3780361,2396,2925,2186,2669,25,-39,59,-997,51,-35,22,-7,-10,0,-1,-71,-8,430,-37154,0
3780379,2399,2929,2182,2664,25,-39,59,-997,51,-35,22,-7,-10,0,-1,-71,-8,430,-37154,0
3780391,2397,2926,2184,2666,26,-36,60,-997,51,-33,22,-10,-13,1,-10,-77,-6,430,-37154,0
3780409,2396,2925,2180,2661,26,-36,60,-997,51,-33,22,-10,-13,1,-10,-77,-6,430,-37154,0
3780421,2394,2923,2184,2666,26,-35,60,-997,52,-31,23,-11,-13,0,-16,-81,-11,430,-37154,0
3780439,2395,2924,2185,2667,26,-35,60,-997,52,-31,23,-11,-13,0,-16,-81,-11,430,-37154,0
3780451,2394,2923,2189,2672,26,-32,61,-997,52,-29,23,-12,-5,-4,-20,-80,-21,430,-37154,0
3780469,2411,2943,2188,2671,26,-32,61,-997,52,-29,23,-12,-5,-4,-20,-80,-21,430,-37154,0
3780481,2393,2921,2190,2673,26,-30,61,-997,53,-27,23,-16,5,-4,-19,-75,-28,430,-37154,0
3780499,2392,2920,2190,2673,26,-30,61,-997,53,-27,23,-16,5,-4,-19,-75,-28,430,-37154,0
3780511,2394,2923,2190,2673,27,-28,62,-997,54,-25,24,-19,11,-2,-17,-73,-21,430,-37154,0
3780530,2396,2925,2190,2673,27,-28,62,-997,54,-25,24,-19,11,-2,-17,-73,-21,430,-37154,0
3780542,2392,2920,2190,2673,28,-26,62,-997,54,-23,24,-19,11,-13,-11,-76,-7,430,-37154,0
3780560,2392,2920,2190,2673,28,-26,62,-997,54,-23,24,-19,11,-13,-11,-76,-7,430,-37154,0
3780572,2399,2929,2191,2675,28,-24,62,-997,54,-22,24,-21,6,-12,-8,-69,-1,430,-37154,0
3780590,2394,2923,2186,2669,28,-24,62,-997,54,-22,24,-21,6,-12,-8,-69,-1,430,-37154,0
3780602,2384,2910,2195,2680,27,-22,62,-997,54,-20,24,-20,3,-12,-1,-64,-8,430,-37154,0
3780620,2399,2929,2197,2682,27,-22,62,-997,54,-20,24,-20,3,-12,-1,-64,-8,430,-37154,0
3780632,2395,2924,2189,2672,28,-21,62,-998,54,-19,24,-18,-1,-21,3,-55,-15,430,-37154,0
3780649,2388,2915,2196,2681,28,-21,62,-998,54,-19,24,-18,-1,-21,3,-55,-15,430,-37154,0
3780661,2390,2918,2194,2678,28,-20,62,-998,54,-18,24,-19,-4,-14,3,-47,-15,430,-37153,0
3780680,2392,2920,2197,2682,28,-20,62,-998,54,-18,24,-19,-4,-14,3,-47,-15,430,-37153,0
3780692,2394,2923,2195,2680,28,-18,62,-998,54,-17,25,-20,-2,-2,2,-47,-16,430,-37153,0
3780710,2387,2914,2194,2678,28,-18,62,-998,54,-17,25,-20,-2,-2,2,-47,-16,430,-37153,0
3780722,2403,2934,2198,2683,28,-17,63,-998,54,-16,25,-16,-3,-7,0,-48,-13,430,-37153,0
3780739,2388,2915,2196,2681,28,-17,63,-998,54,-16,25,-16,-3,-7,0,-48,-13,430,-37153,0
3780751,2387,2914,2197,2682,29,-96,63,-998,54,-15,25,-21,-1,-2,-3,-47,-16,430,-37153,16
3780770,2391,2919,2198,2683,29,-96,63,-998,54,-15,25,-21,-1,-2,-3,-47,-16,430,-37153,16
3780782,2387,2914,2195,2680,29,-15,63,-998,54,-14,26,-20,-1,-3,1,-50,-15,430,-37153,16
3780800,2386,2913,2193,2677,29,-15,63,-998,54,-14,26,-20,-1,-3,1,-50,-15,430,-37153,16
3780812,2393,2921,2192,2676,30,-93,63,-998,54,-13,26,-18,2,-5,-1,-42,-11,430,-37153,16
3780830,2387,2914,2196,2681,30,-93,63,-998,54,-13,26,-18,2,-5,-1,-42,-11,430,-37153,16
3780842,2388,2915,2200,2686,30,-12,63,-998,54,-12,26,-20,1,-7,-1,-44,-6,430,-37153,16
3780860,2391,2919,2199,2684,30,-12,63,-998,54,-12,26,-20,1,-7,-1,-44,-6,430,-37153,0
3780872,2400,2930,2204,2691,30,-11,63,-998,54,-11,26,-16,0,-7,1,-50,-5,430,-37153,0
3780889,2385,2912,2194,2678,30,-11,63,-998,54,-11,26,-16,0,-7,1,-50,-5,430,-37153,0
3780901,2389,2916,2192,2676,30,-10,63,-998,54,-10,26,-16,3,-19,0,-50,-6,430,-37153,0
3780920,2387,2914,2202,2688,30,-10,63,-998,54,-10,26,-16,3,-19,0,-50,-6,430,-37153,0
3780931,2384,2910,2200,2686,30,-8,63,-998,54,-9,26,-19,3,-8,0,-49,-2,430,-37153,0
3780949,2399,2929,2198,2683,30,-8,63,-998,54,-9,26,-19,3,-8,0,-49,-2,430,-37153,0
3780960,2387,2914,2198,2683,30,-7,63,-998,54,-8,26,-20,0,-3,0,-41,1,430,-37152,16
3780979,2388,2915,2202,2688,30,-7,63,-998,54,-8,26,-20,0,-3,0,-41,1,430,-37152,16
3780991,2388,2915,2203,2689,30,-6,63,-998,54,-7,26,-20,-3,6,-1,-31,-3,430,-37152,16
3781010,2389,2916,2207,2694,30,-6,63,-998,54,-7,26,-20,-3,6,-1,-31,-3,430,-37151,16
3781021,2386,2913,2203,2689,30,-6,63,-998,54,-7,26,-17,3,6,1,-26,-12,430,-37151,16
3781038,2399,2929,2196,2681,30,-6,63,-998,54,-7,26,-17,3,6,1,-26,-12,430,-37150,16
3781050,2388,2915,2200,2686,30,-5,63,-998,54,-6,26,-14,7,0,0,-30,-7,430,-37149,16
3781069,2389,2916,2214,2703,30,-5,63,-998,54,-6,26,-14,7,0,0,-30,-7,430,-37149,45
3781081,2384,2910,2202,2688,30,-4,63,-998,54,-5,26,-11,8,0,0,-26,0,430,-37147,45
3781098,2390,2918,2200,2686,30,-4,63,-998,54,-5,26,-11,8,0,0,-26,0,430,-37146,45
3781109,2396,2925,2200,2686,30,-3,62,-998,54,-5,26,-13,3,-5,-2,-21,0,430,-37144,45
3781129,2384,2910,2199,2684,30,-3,62,-998,54,-4,26,-12,2,-8,-1,-19,-4,430,-37143,45
3781146,2399,2929,2204,2691,30,-3,62,-998,54,-4,26,-12,2,-8,-1,-19,-4,430,-37141,45
3781158,2389,2916,2202,2688,30,-3,62,-998,54,-4,26,-11,4,-20,1,-13,-17,430,-37139,45
3781178,2389,2916,2203,2689,31,-3,62,-998,54,-4,27,-15,5,-17,1,-15,-18,430,-37137,183
3781196,2391,2919,2199,2684,31,-3,62,-998,54,-4,27,-15,5,-17,1,-15,-18,430,-37136,183
3781208,2399,2929,2200,2686,31,-2,62,-998,54,-4,27,-15,3,-21,3,-18,-12,430,-37134,183
3781228,2384,2910,2203,2689,31,-1,62,-998,54,-3,27,-13,2,-26,0,-21,-1,430,-37131,183
3781245,2399,2929,2197,2682,31,-1,62,-998,54,-3,27,-13,2,-26,0,-21,-1,430,-37129,183
3781257,2389,2916,2203,2689,31,-1,63,-998,54,-3,27,-14,1,-13,-10,-24,3,430,-37126,183
3781277,2389,2916,2207,2694,31,-1,63,-998,55,-2,27,-12,3,-10,-10,-17,2,430,-37123,183
3781294,2384,2910,2205,2692,31,-1,63,-998,55,-2,27,-12,3,-10,-10,-17,2,430,-37121,229
3781306,2392,2920,2201,2687,31,-1,63,-998,55,-2,27,-14,4,-10,-9,0,-7,430,-37118,229
3781326,2387,2914,2200,2686,31,-1,63,-998,55,-3,27,-17,10,9,-2,11,-11,430,-37115,229
3781345,2377,2902,2203,2689,31,-1,63,-998,55,-3,27,-17,10,9,-2,11,-11,430,-37113,229
3781357,2383,2909,2197,2682,31,-1,63,-998,55,-3,28,-21,8,27,6,18,-90,430,-37109,229
3781376,2383,2909,2200,2686,31,-1,63,-998,55,-3,28,-21,8,27,6,18,-90,430,-37107,229
3781388,2378,2903,2202,2688,31,-2,63,-998,55,1995,28,-16,0,11,3,10,5,430,-37104,229
3781408,2383,2909,2199,2684,31,-3,63,-998,55,-4,28,-14,-1,6,5,0,11,430,-37101,292
3781428,2385,2912,2204,2691,31,-3,63,-998,55,-4,27,-12,-5,0,3,-6,12,430,-37098,292
3781448,2385,2912,2207,2694,31,-2,62,-998,54,-4,27,-14,1,3,13,-11,9,430,-37095,292
3781468,2391,2919,2216,2705,31,-2,62,-998,54,-4,27,-12,0,12,16,-14,8,430,-37092,292
3781485,2384,2910,2206,2693,31,-2,62,-998,54,-4,27,-12,0,12,16,-14,8,430,-37090,292
3781497,2391,2919,2205,2692,30,-2,61,-998,54,-4,27,-2,-4,-24,11,3,11,430,-37086,292
3781517,2397,2926,2215,2704,30,-3,61,-998,54,-4,26,-7,-1,-29,6,18,11,430,-37083,275
3781534,2412,2945,2213,2702,30,-3,61,-998,54,-4,26,-7,-1,-29,6,18,11,430,-37080,275
3781546,2399,2929,2201,2687,30,-3,61,-998,54,-4,26,-12,5,-24,0,-3,3,430,-37077,275
3781564,2389,2916,2207,2694,30,-3,61,-998,54,-4,26,-12,5,-24,0,-3,3,430,-37075,275
3781576,2399,2929,2208,2695,30,-2,61,-998,54,-3,26,-4,9,-12,12,-43,11,430,-37072,275
3781593,2396,2925,2212,2700,30,-2,61,-998,54,-3,26,-4,9,-12,12,-43,11,430,-37070,275
3781605,2397,2926,2203,2689,30,-1,61,-998,53,-2,25,-1,-3,-26,0,-33,36,430,-37067,275
3781623,2400,2930,2209,2697,30,-1,61,-998,53,-2,25,-1,-3,-26,0,-33,36,430,-37064,298
3781635,2395,2924,2203,2689,28,-1,61,-998,54,-2,24,-3,-11,-42,-5,-5,24,430,-37060,298
3781653,2393,2921,2207,2694,28,-1,61,-998,54,-2,24,-3,-11,-42,-5,-5,24,430,-37057,298
3781665,2396,2925,2203,2689,28,-1,61,-998,54,-2,25,-3,-15,-43,-10,24,-24,430,-37053,298
3781683,2391,2919,2207,2694,28,-1,61,-998,54,-2,25,-3,-15,-43,-10,24,-24,430,-37050,298
3781695,2386,2913,2203,2689,29,-1,61,-998,54,-3,26,-16,5,5,-8,48,-46,430,-37045,298
3781714,2391,2919,2199,2684,29,-1,61,-998,54,-3,26,-16,5,5,-8,48,-46,430,-37042,298
3781726,2388,2915,2200,2686,30,-3,62,-998,54,-4,27,-23,21,35,-21,25,-25,430,-37038,420
3781744,2383,2909,2195,2680,30,-3,62,-998,54,-4,27,-23,21,35,-21,25,-25,430,-37035,420
3781756,2395,2924,2196,2681,31,-3,63,-998,55,-4,27,-18,10,21,-8,-6,5,430,-37032,420
3781774,2384,2910,2195,2680,31,-3,63,-998,55,-4,27,-18,10,21,-8,-6,5,430,-37030,420
3781786,2391,2919,2207,2694,30,-3,63,-998,54,-4,26,-14,-7,19,6,-15,24,430,-37026,420
3781803,2389,2916,2200,2686,30,-3,63,-998,54,-4,26,-14,-7,19,6,-15,24,430,-37024,420
3781815,2384,2910,2196,2681,30,-3,62,-998,54,-4,26,-15,-14,14,3,-14,15,430,-37020,420
3781833,2387,2914,2192,2676,30,-3,62,-998,54,-4,26,-15,-14,14,3,-14,15,430,-37017,311
3781846,2384,2910,2199,2684,30,-3,62,-998,54,-4,26,-14,-2,12,7,-1,-3,430,-37013,311
3781864,2387,2914,2200,2686,30,-3,62,-998,54,-4,26,-14,-2,12,7,-1,-3,430,-37011,311
3781876,2385,2912,2203,2689,30,-83,62,-998,54,-4,26,-17,9,4,4,4,-11,430,-37007,311
3781894,2387,2914,2213,2702,30,-83,62,-998,54,-4,26,-17,9,4,4,4,-11,430,-37004,311
3781905,2392,2920,2205,2692,30,-3,62,-998,54,-4,26,-9,11,-24,9,-6,1,430,-37000,311
3781924,2390,2918,2207,2694,30,-3,62,-998,54,-4,26,-9,11,-24,9,-6,1,430,-36997,311
3781935,2396,2925,2203,2689,30,-3,62,-998,54,-4,26,-12,6,-25,9,-16,21,430,-36992,424
3781954,2395,2924,2204,2691,30,-3,62,-998,54,-4,26,-12,6,-25,9,-16,21,430,-36989,424
3781966,2394,2923,2203,2689,29,-3,61,-998,54,-4,25,-19,3,-27,-5,-8,18,430,-36983,424
3781984,2387,2914,2207,2694,29,-3,61,-998,54,-4,25,-19,3,-27,-5,-8,18,430,-36979,424
3781996,2390,2918,2201,2687,28,-3,61,-998,54,-4,25,-17,9,-30,1,10,-6,430,-36972,424
3782014,2391,2919,2197,2682,28,-3,61,-998,54,-4,25,-17,9,-30,1,10,-6,430,-36968,424
3782026,2396,2925,2221,2711,29,-3,61,-998,54,-5,25,-22,22,-10,-4,27,-17,430,-36961,424
3782044,2388,2915,2201,2687,29,-3,61,-998,54,-5,25,-22,22,-10,-4,27,-17,430,-36956,550
3782056,2384,2910,2199,2684,30,-5,61,-998,54,-6,26,-22,16,-15,-9,40,-1,430,-36949,550
3782075,2399,2929,2200,2686,30,-5,61,-998,54,-6,26,-22,16,-15,-9,40,-1,430,-36944,550
3782086,2389,2916,2203,2689,29,-6,61,-998,54,-7,26,-16,2,-9,-3,44,10,430,-36937,550
3782104,2391,2919,2206,2693,29,-6,61,-998,54,-7,26,-16,2,-9,-3,44,10,430,-36931,550
3782116,2384,2910,2195,2680,29,-88,61,-998,54,-9,25,-18,-6,8,-4,48,3,430,-36923,550
3782134,2387,2914,2196,2681,29,-88,61,-998,54,-9,25,-18,-6,8,-4,48,3,430,-36918,550
3782146,2381,2907,2199,2684,29,-9,61,-998,54,-10,26,-17,0,5,-8,50,-11,430,-36909,751
3782164,2388,2915,2204,2691,29,-9,61,-998,54,-10,26,-17,0,5,-8,50,-11,430,-36904,751
3782176,2386,2913,2192,2676,30,-11,62,-998,54,-12,26,-19,7,7,-8,53,-16,430,-36895,751
3782194,2384,2910,2193,2677,30,-11,62,-998,54,-12,26,-19,7,7,-8,53,-16,430,-36890,751
3782206,2389,2916,2192,2676,30,-13,62,-998,54,-13,26,-14,2,-1,-4,53,-3,430,-36882,751
3782224,2392,2920,2201,2687,30,-13,62,-998,54,-13,26,-14,2,-1,-4,53,-3,430,-36876,751
3782236,2385,2912,2195,2680,30,-14,62,-998,54,-14,26,-12,6,2,6,42,13,430,-36868,751
3782254,2384,2910,2196,2681,30,-14,62,-998,54,-14,26,-12,6,2,6,42,13,430,-36863,694
3782266,2390,2918,2192,2676,30,-15,62,-998,54,-15,26,-14,-8,-1,8,33,17,430,-36855,694
3782285,2391,2919,2189,2672,30,-15,62,-998,54,-15,26,-14,-8,-1,8,33,17,430,-36850,694
3782297,2392,2920,2197,2682,30,-16,62,-998,54,-16,26,-10,-17,-16,2,28,9,430,-36842,694
3782315,2391,2919,2195,2680,30,-16,62,-998,54,-16,26,-10,-17,-16,2,28,9,430,-36836,694
3782327,2395,2924,2196,2681,29,-17,62,-998,54,-17,26,-8,-9,-12,-3,26,4,430,-36829,694
3782345,2397,2926,2195,2680,29,-17,62,-998,54,-17,26,-8,-9,-12,-3,26,4,430,-36824,694
3782357,2390,2918,2191,2675,29,-18,62,-997,54,-18,25,-13,6,0,0,32,9,430,-36816,760
3782375,2384,2910,2189,2672,29,-18,62,-997,54,-18,25,-13,6,0,0,32,9,430,-36811,760
3782387,2390,2918,2194,2678,29,-20,62,-997,54,-19,25,-15,-7,-4,-4,35,13,430,-36805,760
3782405,2395,2924,2196,2681,29,-20,62,-997,54,-19,25,-15,-7,-4,-4,35,13,430,-36800,760
3782417,2395,2924,2189,2672,28,-20,63,-997,54,-20,25,-19,-7,0,1,36,5,430,-36793,760
3782435,2391,2919,2191,2675,28,-20,63,-997,54,-20,25,-19,-7,0,1,36,5,430,-36789,760
3782447,2392,2920,2189,2672,28,-101,63,-997,54,-21,25,-14,-5,-4,4,38,0,430,-36782,760
3782465,2395,2924,2199,2684,28,-101,63,-997,54,-21,25,-14,-5,-4,4,38,0,430,-36778,586
3782477,2391,2919,2194,2678,29,-23,63,-997,54,-22,25,-14,-14,-7,9,42,3,430,-36772,586
3782495,2399,2929,2204,2691,29,-23,63,-997,54,-22,25,-14,-14,-7,9,42,3,430,-36769,586
3782507,2411,2943,2192,2676,29,-25,62,-997,54,-23,25,-13,-14,-16,21,50,8,430,-36764,586
3782525,2403,2934,2190,2673,29,-25,62,-997,54,-23,25,-13,-14,-16,21,50,8,430,-36762,586
3782538,2398,2927,2187,2670,28,-26,61,-997,53,-25,25,-9,-24,-15,22,58,3,430,-36759,586
3782555,2404,2935,2188,2671,28,-26,61,-997,53,-25,25,-9,-24,-15,22,58,3,430,-36757,586
3782567,2398,2927,2194,2678,29,-28,61,-997,53,-27,25,-12,-25,-10,40,60,-4,430,-36756,359
3782586,2397,2926,2198,2683,29,-28,61,-997,53,-27,25,-12,-25,-10,40,60,-4,430,-36755,359
3782598,2396,2925,2190,2673,29,-31,60,-997,52,-28,25,-7,-22,-13,56,50,-2,430,-36755,359
3782617,2407,2938,2194,2678,29,-31,60,-997,52,-28,25,-7,-22,-13,56,50,-2,430,-36755,359
3782629,2398,2927,2195,2680,29,-31,59,-997,50,-29,25,-6,-16,-1,50,42,5,430,-36755,359
3782646,2400,2930,2195,2680,29,-31,59,-997,50,-29,25,-6,-16,-1,50,42,5,430,-36755,359
3782658,2405,2936,2186,2669,29,-33,58,-997,49,-30,25,-5,-11,3,40,31,14,430,-36755,359
3782676,2400,2930,2196,2681,29,-33,58,-997,49,-30,25,-5,-11,3,40,31,14,430,-36755,15
3782689,2403,2934,2191,2675,28,-34,57,-997,49,-31,25,-2,-16,-5,26,26,17,430,-36755,15
3782706,2400,2930,2199,2684,28,-34,57,-997,49,-31,25,-2,-16,-5,26,26,17,430,-36755,15
3782718,2411,2943,2188,2671,28,-115,56,-997,48,-32,25,1,-17,-5,18,23,10,430,-36755,15
3782736,2402,2932,2187,2670,28,-115,56,-997,48,-32,25,1,-17,-5,18,23,10,430,-36755,15
3782748,2405,2936,2188,2671,28,-35,56,-997,48,-32,25,-3,-21,-4,6,23,0,430,-36755,15
3782766,2399,2929,2191,2675,28,-35,56,-997,48,-32,25,-3,-21,-4,6,23,0,430,-36755,15
3782778,2397,2926,2190,2673,28,-36,56,-997,48,-33,25,-3,-14,-1,-2,10,-6,430,-36755,0
3782797,2403,2934,2191,2675,28,-36,56,-997,48,-33,25,-3,-14,-1,-2,10,-6,430,-36755,0
3782808,2403,2934,2189,2672,28,-36,56,-997,49,-33,25,-4,-8,1,-12,-2,-1,430,-36755,0
3782827,2395,2924,2190,2673,28,-36,56,-997,49,-33,25,-4,-8,1,-12,-2,-1,430,-36755,0
3782838,2401,2931,2191,2675,28,-36,57,-997,49,-33,25,-6,-6,-2,-21,-4,6,430,-36755,0
3782856,2402,2932,2178,2659,28,-36,57,-997,49,-33,25,-6,-6,-2,-21,-4,6,430,-36755,0
3782867,2399,2929,2195,2680,28,-36,58,-997,50,-33,24,-5,-6,-12,-27,-1,7,430,-36755,0
3782886,2400,2930,2185,2667,28,-36,58,-997,50,-33,24,-5,-6,-12,-27,-1,7,430,-36755,0
3782898,2398,2927,2186,2669,28,-36,58,-997,50,-33,24,-5,-5,-17,-29,6,-1,430,-36755,0
3782916,2396,2925,2187,2670,28,-36,58,-997,50,-33,24,-5,-5,-17,-29,6,-1,430,-36755,0
3782928,2399,2929,2195,2680,28,-36,60,-997,51,-33,24,-6,0,-4,-33,6,-5,430,-36755,0
3782945,2394,2923,2186,2669,28,-36,60,-997,51,-33,24,-6,0,-4,-33,6,-5,430,-36755,0
3782957,2403,2934,2182,2664,28,-116,60,-997,52,-33,24,-4,5,-9,-32,-6,-3,430,-36755,0
3782976,2400,2930,2185,2667,28,-116,60,-997,52,-33,24,-4,5,-9,-32,-6,-3,430,-36755,0
3782987,2395,2924,2190,2673,28,-36,61,-997,53,-33,24,-4,25,-9,-15,-11,-9,430,-36755,0
3783005,2393,2921,2184,2666,28,-36,61,-997,53,-33,24,-4,25,-9,-15,-11,-9,430,-36755,0
3783017,2391,2919,2183,2665,28,-36,61,-997,52,-33,25,-5,29,-4,1,-13,-9,430,-36755,0
3783036,2398,2927,2185,2667,28,-36,61,-997,52,-33,25,-5,29,-4,1,-13,-9,430,-36755,0
3783048,2398,2927,2181,2663,28,-36,60,-997,52,-32,25,-5,19,-10,13,-13,7,430,-36755,0
3783066,2395,2924,2189,2672,28,-36,60,-997,52,-32,25,-5,19,-10,13,-13,7,430,-36755,0
3783078,2398,2927,2184,2666,28,-35,60,-997,51,-32,24,-4,-6,-2,20,-10,25,430,-36755,0
3783096,2403,2934,2183,2665,28,-35,60,-997,51,-32,24,-4,-6,-2,20,-10,25,430,-36755,0
3783107,2399,2929,2186,2669,27,-35,59,-997,51,-32,24,-5,-24,-5,13,-15,8,430,-36755,0
3783127,2399,2929,2186,2669,27,-35,59,-997,51,-32,24,-6,-26,-6,11,-18,-17,430,-36755,0
3783144,2407,2938,2182,2664,27,-35,59,-997,51,-32,24,-6,-26,-6,11,-18,-17,430,-36755,0
3783156,2393,2921,2195,2680,28,-114,58,-997,50,-31,24,-6,-12,-10,3,-23,-41,430,-36755,0
3783176,2397,2926,2185,2667,28,-33,59,-997,51,-31,25,-3,-9,-13,0,-23,-33,430,-36755,0
3783194,2394,2923,2186,2669,28,-33,59,-997,51,-31,25,-3,-9,-13,0,-23,-33,430,-36755,0
3783205,2399,2929,2180,2661,29,-33,59,-997,51,-30,25,-10,-2,-1,-16,-25,5,430,-36755,0
3783225,2407,2938,2184,2666,29,-33,60,-997,51,-30,25,-10,-14,0,-23,-25,11,430,-36755,0
3783243,2398,2927,2192,2676,29,-33,60,-997,51,-30,25,-10,-14,0,-23,-25,11,430,-36755,0
3783255,2396,2925,2177,2658,29,-32,60,-997,52,-29,25,-13,0,-7,-12,-24,-24,430,-36755,0
3783275,2407,2938,2197,2682,29,-31,60,-997,52,-29,26,-16,15,-3,-5,-25,-31,430,-36755,0
3783292,2392,2920,2185,2667,29,-31,60,-997,52,-29,26,-16,15,-3,-5,-25,-31,430,-36755,0
3783304,2391,2919,2186,2669,30,-31,60,-997,52,-29,26,-15,21,-14,3,-13,-10,430,-36755,0
3783324,2396,2925,2189,2672,30,-31,60,-997,52,-29,26,-15,9,0,1,-5,0,430,-36755,0
3783342,2397,2926,2189,2672,30,-31,60,-997,52,-29,26,-15,9,0,1,-5,0,430,-36755,0
3783353,2387,2914,2187,2670,30,-31,60,-997,51,-29,26,-15,-8,-29,4,-16,16,430,-36755,0
3783373,2393,2921,2191,2675,30,-30,60,-997,52,-28,26,-14,-15,-46,3,-40,10,430,-36755,0
3783391,2399,2929,2190,2673,30,-30,60,-997,52,-28,26,-14,-15,-46,3,-40,10,430,-36755,0
3783403,2395,2924,2195,2680,30,-29,60,-997,52,-27,26,-14,-16,-37,-14,-55,0,430,-36755,0
3783423,2383,2909,2186,2669,29,-28,60,-997,52,-26,26,-19,-14,-16,-21,-19,3,430,-36755,0
3783440,2387,2914,2184,2666,29,-28,60,-997,52,-26,26,-19,-14,-16,-21,-19,3,430,-36755,0
3783453,2384,2910,2181,2663,30,-28,61,-997,53,-26,26,-23,-12,46,-26,23,-8,430,-36755,0
3783473,2388,2915,2178,2659,30,-29,61,-997,53,-27,26,-18,-2,24,-18,44,-25,430,-36755,0
3783490,2389,2916,2178,2659,30,-29,61,-997,53,-27,26,-18,-2,24,-18,44,-25,430,-36755,0
3783502,2380,2905,2179,2660,31,-30,62,-997,54,-28,27,-14,16,21,-10,29,-41,430,-36755,0
3783521,2384,2910,2183,2665,31,-30,62,-997,54,-28,27,-14,16,21,-10,29,-41,430,-36755,0
3783533,2388,2915,2188,2671,31,-30,62,-997,53,-28,28,-11,23,15,-3,-3,-16,430,-36755,0
3783550,2388,2915,2176,2656,31,-30,62,-997,53,-28,28,-11,23,15,-3,-3,-16,430,-36755,0
3783562,2392,2920,2180,2661,31,-30,61,-997,53,-28,27,-7,16,6,-1,-28,25,430,-36755,0
3783581,2389,2916,2178,2659,31,-30,61,-997,53,-28,27,-7,16,6,-1,-28,25,430,-36755,0
3783593,2395,2924,2176,2656,30,-30,61,-997,53,-27,27,-7,-1,0,6,-18,27,430,-36755,0
3783611,2391,2919,2179,2660,30,-30,61,-997,53,-27,27,-7,-1,0,6,-18,27,430,-36755,0
3783623,2388,2915,2181,2663,30,-29,61,-997,52,-27,26,-2,-6,-12,25,-10,-6,430,-36755,0
3783640,2393,2921,2180,2661,30,-29,61,-997,52,-27,26,-2,-6,-12,25,-10,-6,430,-36755,0
3783652,2396,2925,2186,2669,31,-29,60,-997,52,-27,27,4,-10,-34,21,-10,-20,430,-36755,0
3783671,2391,2919,2178,2659,31,-29,60,-997,52,-27,27,4,-10,-34,21,-10,-20,430,-36755,0
3783683,2393,2921,2184,2666,31,-28,60,-997,52,-26,27,3,-6,-19,1,-25,15,430,-36755,0
3783700,2395,2924,2183,2665,31,-28,60,-997,52,-26,27,3,-6,-19,1,-25,15,430,-36755,0
3783712,2416,2949,2193,2677,30,-27,60,-997,52,-25,26,-9,-5,3,-11,-46,33,430,-36755,0
3783730,2397,2926,2176,2656,30,-27,60,-997,52,-25,26,-9,-5,3,-11,-46,33,430,-36755,0
3783742,2390,2918,2184,2666,29,-26,60,-997,52,-24,25,-8,-1,-19,-2,-57,13,430,-36755,0
3783759,2391,2919,2181,2663,29,-26,60,-997,52,-24,25,-8,-1,-19,-2,-57,13,430,-36755,0
3783771,2399,2929,2181,2663,29,-25,60,-997,52,-23,25,-13,-3,-20,3,-45,-8,430,-36755,0
3783789,2386,2913,2183,2665,29,-25,60,-997,52,-23,25,-13,-3,-20,3,-45,-8,430,-36755,0
3783801,2391,2919,2189,2672,29,-24,60,-998,52,-22,26,-20,-4,0,0,-35,-10,430,-36755,0
3783819,2380,2905,2176,2656,29,-24,60,-998,52,-22,26,-20,-4,0,0,-35,-10,430,-36755,0
3783831,2384,2910,2189,2672,30,-23,60,-998,52,-21,26,-23,-5,12,0,-27,-7,430,-36755,0
3783849,2388,2915,2182,2664,30,-23,60,-998,52,-21,26,-23,-5,12,0,-27,-7,430,-36755,0
3783861,2384,2910,2184,2666,30,-22,60,-998,52,-21,26,-20,-3,1,-1,-33,-8,430,-36755,0
3783879,2386,2913,2198,2683,30,-22,60,-998,52,-21,26,-20,-3,1,-1,-33,-8,430,-36755,0
3783891,2391,2919,2181,2663,30,-21,60,-998,52,-20,26,-18,-5,11,-1,-45,-10,430,-36755,0
3783909,2388,2915,2186,2669,30,-21,60,-998,52,-20,26,-18,-5,11,-1,-45,-10,430,-36755,0
3783920,2392,2920,2182,2664,30,-20,61,-998,52,-19,26,-12,-3,10,-1,-50,-11,430,-36755,0
3783939,2383,2909,2184,2666,30,-20,61,-998,52,-19,26,-12,-3,10,-1,-50,-11,430,-36755,0
3783951,2386,2913,2187,2670,30,-19,61,-998,52,-18,26,-10,-5,-2,-2,-45,-14,430,-36755,0
3783970,2389,2916,2186,2669,30,-19,61,-998,52,-18,26,-10,-5,-2,-2,-45,-14,430,-36755,0
3783982,2384,2910,2186,2669,31,-18,61,-998,53,-17,27,-4,2,-14,1,-40,-28,430,-36755,0
3783999,2383,2909,2189,2672,31,-18,61,-998,53,-17,27,-4,2,-14,1,-40,-28,430,-36755,0
3784011,2393,2921,2191,2675,31,-16,61,-998,53,-15,28,-2,8,-22,-1,-45,-18,430,-36755,0
3784029,2387,2914,2192,2676,31,-16,61,-998,53,-15,28,-2,8,-22,-1,-45,-18,430,-36755,0
3784041,2390,2918,2190,2673,31,-15,61,-998,53,-15,28,-6,5,-7,0,-62,0,430,-36755,0
3784058,2394,2923,2182,2664,31,-15,61,-998,53,-15,28,-6,5,-7,0,-62,0,430,-36755,0
3784070,2385,2912,2191,2675,31,-13,61,-998,53,-13,28,-8,-2,0,1,-69,1,430,-36755,0
3784089,2385,2912,2194,2678,31,-13,61,-998,53,-13,28,-8,-2,0,1,-69,1,430,-36755,0
3784100,2384,2910,2196,2681,31,-11,61,-998,53,-11,27,-6,-2,-19,4,-70,-6,430,-36754,0
3784119,2384,2910,2189,2672,31,-11,61,-998,53,-11,27,-6,-2,-19,4,-70,-6,430,-36754,0
3784131,2399,2929,2190,2673,31,-9,61,-998,53,-9,28,-9,1,-22,-1,-67,-11,430,-36754,0
