Timestamp_ms,ADC1_Raw,ADC1_V_milli,ADC2_Raw,ADC2_V_milli,Heading_deci,Roll_deci,Pitch_deci,Quat_W_milli,Quat_X_milli,Quat_Y_milli,Quat_Z_milli,LinAccel_X_centi,LinAccel_Y_centi,LinAccel_Z_centi,AngVel_X_deci,AngVel_Y_deci,AngVel_Z_deci,Temp_C_deci,Encoder_Count,Encoder_RPM_deci
4581852,2401,2931,2193,2677,3395,-20,87,-981,78,-4,-176,0,12,18,-3,-6,2,420,-35728,0
4581863,2398,2927,2200,2686,3395,-20,87,-981,78,-3,-177,-2,7,5,3,-10,4,420,-35728,0
4581883,2394,2923,2205,2692,3395,-20,87,-981,78,-3,-177,-5,1,-4,1,-12,3,420,-35728,0
4581900,2393,2921,2198,2683,3395,-20,87,-981,78,-3,-177,-5,1,-4,1,-12,3,420,-35728,0
4581912,2403,2934,2207,2694,3395,-19,87,-981,78,-3,-177,-3,0,-11,2,-1,1,420,-35728,0
4581931,2404,2935,2200,2686,3395,-19,87,-981,78,-3,-177,-3,0,-11,2,-1,1,420,-35728,0
4581943,2396,2925,2200,2686,3395,-19,87,-981,78,-3,-177,1,0,-9,1,5,-1,420,-35728,0
4581962,2399,2929,2211,2699,3395,-19,87,-981,78,-3,-177,1,0,-9,1,5,-1,420,-35728,0
4581974,2401,2931,2192,2676,3395,-19,87,-981,78,-3,-176,5,-1,-23,0,-1,-6,420,-35728,0
4581994,2405,2936,2202,2688,3395,-19,87,-981,78,-3,-176,8,0,-21,0,-3,-5,420,-35728,0
4582014,2398,2927,2202,2688,3395,-19,87,-981,78,-3,-176,2,1,-12,-4,-9,-5,420,-35728,0
4582033,2396,2925,2205,2692,3395,-19,87,-981,78,-3,-176,2,1,-12,-4,-9,-5,420,-35728,0
4582045,2400,2930,2202,2688,3395,-18,87,-981,78,-2,-176,0,5,-1,-7,-15,-5,420,-35728,0
4582063,2399,2929,2200,2686,3395,-18,87,-981,78,-2,-176,0,5,-1,-7,-15,-5,420,-35728,0
4582074,2396,2925,2203,2689,3395,-18,87,-981,78,-2,-176,-8,7,2,-4,-11,-6,420,-35728,0
4582095,2394,2923,2198,2683,3395,-18,87,-981,78,-2,-176,-12,1,10,-2,-16,-3,420,-35728,0
4582112,2409,2941,2194,2678,3395,-18,87,-981,78,-2,-176,-12,1,10,-2,-16,-3,420,-35728,0
4582124,2388,2915,2207,2694,3395,-18,87,-981,78,-2,-176,-14,0,12,-3,-15,-3,420,-35728,0
4582145,2386,2913,2200,2686,3395,-17,87,-981,78,-1,-176,-13,1,8,-2,-12,-5,420,-35728,0
4582165,2390,2918,2201,2687,3395,-17,87,-981,78,-1,-176,-15,4,8,0,-6,-8,420,-35728,0
4582185,2393,2921,2209,2697,3395,-17,88,-981,78,-1,-176,-15,7,5,1,-5,-6,420,-35728,0
4582202,2396,2925,2201,2687,3395,-17,88,-981,78,-1,-176,-15,7,5,1,-5,-6,420,-35728,0
4582214,2392,2920,2202,2688,3395,-17,88,-981,78,-1,-176,-11,7,-16,3,-3,0,420,-35728,0
4582234,2396,2925,2202,2688,3395,-17,88,-981,78,-1,-176,-10,3,-19,4,2,5,420,-35728,0
4582251,2397,2926,2199,2684,3395,-17,88,-981,78,-1,-176,-10,3,-19,4,2,5,420,-35728,0
4582263,2390,2918,2215,2704,3395,-17,88,-981,78,-1,-176,-10,-1,-15,2,8,5,420,-35728,0
4582282,2405,2936,2211,2699,3395,-17,88,-981,78,-1,-176,-10,-1,-15,2,8,5,420,-35728,0
4582293,2389,2916,2203,2689,3395,-17,88,-981,78,-2,-176,-6,-2,-16,1,11,1,420,-35728,0
4582312,2387,2914,2203,2689,3395,-17,88,-981,78,-2,-176,-6,-2,-16,1,11,1,420,-35728,0
4582324,2399,2929,2198,2683,3395,-18,88,-981,78,-2,-176,-6,1,-8,-1,9,-2,420,-35728,0
4582343,2393,2921,2198,2683,3395,-18,88,-981,78,-2,-176,-6,1,-8,-1,9,-2,420,-35728,0
4582355,2395,2924,2192,2676,3395,-18,88,-981,78,-2,-176,-5,5,-2,-3,4,-80,420,-35728,0
4582375,2399,2929,2202,2688,3395,-18,88,-981,78,-2,-176,-4,6,-5,-5,0,4,420,-35728,0
4582395,2389,2916,2194,2678,3395,-18,88,-981,78,-2,-176,-4,10,-5,-2,2,4,420,-35728,0
4582415,2392,2920,2199,2684,3395,-18,87,-981,78,-2,-176,-5,4,-6,-1,5,8,420,-35728,0
4582434,2398,2927,2192,2676,3395,-18,87,-981,78,-2,-176,-5,4,-6,-1,5,8,420,-35728,0
4582446,2392,2920,2199,2684,3395,-18,87,-981,78,-2,-176,-6,-1,-2,2,7,4,420,-35728,0
4582466,2390,2918,2198,2683,3395,-18,87,-981,78,-2,-176,-8,-3,-2,0,8,1,420,-35728,0
4582486,2407,2938,2198,2683,3395,-18,88,-981,78,-2,-176,-7,-5,2,0,9,0,420,-35728,0
4582503,2396,2925,2207,2694,3395,-18,88,-981,78,-2,-176,-7,-5,2,0,9,0,420,-35728,0
4582515,2399,2929,2187,2670,3395,-19,88,-981,78,-3,-176,-4,0,-6,-3,7,-4,420,-35728,0
4582533,2400,2930,2196,2681,3395,-19,88,-981,78,-3,-176,-4,0,-6,-3,7,-4,420,-35728,0
4582545,2395,2924,2197,2682,3395,-19,88,-981,78,-3,-176,-3,6,-1,-5,11,-2,420,-35728,0
4582565,2402,2932,2192,2676,3395,-20,88,-981,78,-3,-176,-6,7,0,-1,15,-3,420,-35728,0
4582583,2388,2915,2195,2680,3395,-20,88,-981,78,-3,-176,-6,7,0,-1,15,-3,420,-35728,0
4582595,2391,2919,2204,2691,3395,-20,88,-981,78,-3,-176,-8,6,0,1,8,0,420,-35728,0
4582615,2390,2918,2197,2682,3395,-20,88,-981,78,-4,-176,-7,2,-9,0,6,6,420,-35728,0
4582633,2399,2929,2194,2678,3395,-20,88,-981,78,-4,-176,-7,2,-9,0,6,6,420,-35728,0
4582645,2396,2925,2192,2676,3395,-20,87,-981,78,-4,-176,-16,-3,-1,0,8,6,420,-35728,0
4582663,2388,2915,2194,2678,3395,-20,87,-981,78,-4,-176,-16,-3,-1,0,8,6,420,-35728,0
4582675,2393,2921,2204,2691,3395,-20,87,-981,78,-4,-176,-23,0,-5,-1,6,7,420,-35728,0
4582694,2392,2920,2199,2684,3395,-20,87,-981,78,-4,-176,-23,0,-5,-1,6,7,420,-35728,0
4582706,2394,2923,2198,2683,3395,-21,88,-981,78,-5,-176,-22,2,-18,0,18,3,420,-35728,0
4582724,2390,2918,2198,2683,3395,-21,88,-981,78,-5,-176,-22,2,-18,0,18,3,420,-35728,0
4582736,2399,2929,2193,2677,3395,-22,88,-981,79,-6,-176,-20,1,-18,0,38,2,420,-35728,0
4582754,2392,2920,2192,2676,3395,-22,88,-981,79,-6,-176,-20,1,-18,0,38,2,420,-35728,0
4582765,2394,2923,2193,2677,3395,-24,88,-981,79,-7,-176,-15,2,-19,-1,51,3,420,-35728,0
4582784,2392,2920,2195,2680,3395,-24,88,-981,79,-7,-176,-15,2,-19,-1,51,3,420,-35728,0
4582796,2407,2938,2182,2664,3395,-25,88,-981,79,-8,-176,-10,4,-13,-3,58,5,420,-35728,0
4582814,2393,2921,2180,2661,3395,-25,88,-981,79,-8,-176,-10,4,-13,-3,58,5,420,-35728,0
4582826,2395,2924,2188,2671,3395,-27,88,-980,79,-10,-176,-6,3,-13,-3,60,6,420,-35728,0
4582845,2400,2930,2192,2676,3395,-27,88,-980,79,-10,-176,-6,3,-13,-3,60,6,420,-35728,0
4582857,2395,2924,2190,2673,3395,-29,88,-980,80,-11,-176,-6,1,-2,-4,56,5,420,-35728,0
4582875,2395,2924,2188,2671,3395,-29,88,-980,80,-11,-176,-6,1,-2,-4,56,5,420,-35728,0
4582887,2384,2910,2187,2670,3395,-31,88,-980,80,-13,-176,-6,1,6,-6,51,8,420,-35728,0
4582905,2392,2920,2180,2661,3395,-31,88,-980,80,-13,-176,-6,1,6,-6,51,8,420,-35728,0
4582917,2389,2916,2184,2666,3395,-32,88,-980,80,-14,-176,-6,2,3,-5,46,8,420,-35728,0
4582935,2384,2910,2186,2669,3395,-32,88,-980,80,-14,-176,-6,2,3,-5,46,8,420,-35728,0
4582947,2389,2916,2194,2678,3395,-33,88,-980,80,-15,-177,-2,3,13,-3,41,9,420,-35728,0
4582965,2394,2923,2188,2671,3395,-33,88,-980,80,-15,-177,-2,3,13,-3,41,9,420,-35728,0
4582976,2388,2915,2183,2665,3395,-35,88,-980,81,-16,-177,1,3,10,1,34,12,420,-35728,0
4582995,2399,2929,2191,2675,3395,-35,88,-980,81,-16,-177,1,3,10,1,34,12,420,-35728,0
4583007,2396,2925,2184,2666,3394,-35,88,-980,81,-17,-177,3,1,5,3,30,13,420,-35728,0
4583026,2392,2920,2191,2675,3394,-35,88,-980,81,-17,-177,3,1,5,3,30,13,420,-35728,0
4583038,2404,2935,2178,2659,3394,-36,88,-980,81,-18,-177,2,-2,-7,2,19,13,420,-35728,0
4583055,2395,2924,2178,2659,3394,-36,88,-980,81,-18,-177,2,-2,-7,2,19,13,420,-35728,0
4583067,2389,2916,2186,2669,3393,-36,88,-980,81,-18,-178,8,1,-17,3,14,10,420,-35728,0
4583087,2399,2929,2192,2676,3393,-37,88,-980,81,-18,-178,12,0,-24,1,11,5,420,-35728,0
4583104,2397,2926,2183,2665,3393,-37,88,-980,81,-18,-178,12,0,-24,1,11,5,420,-35728,0
4583116,2392,2920,2180,2661,3393,-37,88,-980,81,-18,-177,17,-4,-19,1,9,0,420,-35728,0
4583134,2396,2925,2183,2665,3393,-37,88,-980,81,-18,-177,17,-4,-19,1,9,0,420,-35728,0
4583146,2396,2925,2179,2660,3393,-37,88,-980,81,-18,-177,11,-6,2,-4,3,3,420,-35728,0
4583164,2398,2927,2186,2669,3393,-37,88,-980,81,-18,-177,11,-6,2,-4,3,3,420,-35728,0
4583176,2404,2935,2176,2656,3393,-37,88,-980,81,-18,-177,8,-2,6,-10,0,5,420,-35728,0
4583194,2396,2925,2174,2654,3393,-37,88,-980,81,-18,-177,8,-2,6,-10,0,5,420,-35728,0
4583206,2398,2927,2179,2660,3393,-37,88,-980,81,-18,-177,5,2,13,-8,-9,-6,420,-35728,0
4583224,2392,2920,2184,2666,3393,-37,88,-980,81,-18,-177,5,2,13,-8,-9,-6,420,-35728,0
4583236,2391,2919,2182,2664,3394,-36,88,-980,81,-18,-177,2,8,21,-2,-15,-14,420,-35728,0
4583254,2395,2924,2180,2661,3394,-36,88,-980,81,-18,-177,2,8,21,-2,-15,-14,420,-35728,0
4583266,2392,2920,2179,2660,3394,-36,88,-980,81,-17,-177,-1,9,11,1,-23,-10,420,-35728,0
4583285,2396,2925,2191,2675,3394,-36,88,-980,81,-17,-177,-1,9,11,1,-23,-10,420,-35728,0
4583297,2406,2937,2191,2675,3394,-35,88,-980,81,-17,-177,-2,1,-5,5,-24,3,420,-35728,0
4583314,2407,2938,2183,2665,3394,-35,88,-980,81,-17,-177,-2,1,-5,5,-24,3,420,-35728,0
4583326,2393,2921,2176,2656,3394,-35,88,-980,81,-16,-177,-5,-7,-8,7,-21,0,420,-35728,0
4583344,2395,2924,2184,2666,3394,-35,88,-980,81,-16,-177,-5,-7,-8,7,-21,0,420,-35728,0
4583356,2394,2923,2188,2671,3394,-34,88,-980,80,-16,-177,-7,-6,-10,6,-26,-11,420,-35728,0
4583374,2391,2919,2188,2671,3394,-34,88,-980,80,-16,-177,-7,-6,-10,6,-26,-11,420,-35728,0
4583386,2391,2919,2183,2665,3395,-33,88,-980,80,-15,-177,-8,-6,-17,1,-32,-12,420,-35728,0
4583405,2403,2934,2188,2671,3395,-33,88,-980,80,-15,-177,-8,-6,-17,1,-32,-12,420,-35728,0
4583417,2396,2925,2184,2666,3395,-32,88,-980,80,-14,-177,-8,1,-16,-6,-38,-1,420,-35728,0
4583435,2394,2923,2186,2669,3395,-32,88,-980,80,-14,-177,-8,1,-16,-6,-38,-1,420,-35728,0
4583448,2390,2918,2185,2667,3395,-31,88,-980,80,-13,-177,-10,4,-7,-8,-41,-3,420,-35728,0
4583465,2410,2942,2193,2677,3395,-31,88,-980,80,-13,-177,-10,4,-7,-8,-41,-3,420,-35728,0
4583477,2387,2914,2187,2670,3395,-30,88,-980,80,-12,-176,-12,7,7,-1,-43,-11,420,-35728,0
4583496,2384,2910,2190,2673,3395,-30,88,-980,80,-12,-176,-12,7,7,-1,-43,-11,420,-35728,0
4583508,2389,2916,2181,2663,3395,-28,88,-980,80,-11,-176,-15,7,10,1,-43,-1,420,-35728,0
4583525,2386,2913,2184,2666,3395,-28,88,-980,80,-11,-176,-15,7,10,1,-43,-1,420,-35728,0
4583537,2393,2921,2197,2682,3395,-27,88,-980,80,-10,-177,-16,7,7,2,-45,15,420,-35728,0
4583555,2390,2918,2189,2672,3395,-27,88,-980,80,-10,-177,-16,7,7,2,-45,15,420,-35728,0
4583567,2387,2914,2194,2678,3394,-26,88,-980,79,-9,-177,-12,2,-5,10,-35,8,420,-35728,0
4583585,2391,2919,2188,2671,3394,-26,88,-980,79,-9,-177,-12,2,-5,10,-35,8,420,-35728,0
4583597,2388,2915,2192,2676,3394,-26,87,-980,79,-9,-177,-13,-2,-11,14,-17,-5,420,-35728,0
4583615,2388,2915,2195,2680,3394,-26,87,-980,79,-9,-177,-13,-2,-11,14,-17,-5,420,-35728,0
4583627,2391,2919,2192,2676,3394,-25,87,-980,79,-8,-177,-8,-3,-26,12,-16,-5,420,-35728,0
4583646,2392,2920,2196,2681,3394,-25,87,-980,79,-8,-177,-8,-3,-26,12,-16,-5,420,-35728,0
4583658,2391,2919,2193,2677,3394,-25,86,-980,79,-8,-177,-7,-7,-17,6,-11,-1,420,-35728,0
4583677,2392,2920,2191,2675,3394,-25,86,-980,79,-8,-177,-7,-7,-17,6,-11,-1,420,-35728,0
4583689,2392,2920,2190,2673,3394,-25,87,-980,79,-8,-177,-8,-6,-14,1,-10,-1,420,-35728,0
4583707,2391,2919,2193,2677,3394,-25,87,-980,79,-8,-177,-8,-6,-14,1,-10,-1,420,-35728,0
4583719,2392,2920,2193,2677,3394,-25,87,-980,79,-8,-177,-9,-5,-7,-3,1,-8,420,-35728,0
4583737,2390,2918,2200,2686,3394,-25,87,-980,79,-8,-177,-9,-5,-7,-3,1,-8,420,-35728,0
4583749,2383,2909,2194,2678,3395,-25,87,-980,79,-8,-177,-12,-1,2,-5,13,-9,420,-35728,0
4583767,2384,2910,2194,2678,3395,-25,87,-980,79,-8,-177,-12,-1,2,-5,13,-9,420,-35728,0
4583779,2402,2932,2192,2676,3395,-25,87,-980,79,-8,-177,-10,4,8,-9,6,3,420,-35728,0
4583798,2394,2923,2190,2673,3395,-25,87,-980,79,-8,-177,-10,4,8,-9,6,3,420,-35728,0
4583809,2385,2912,2188,2671,3394,-25,87,-980,79,-8,-177,-7,7,-2,-4,-8,8,420,-35728,0
4583828,2390,2918,2191,2675,3394,-25,87,-980,79,-8,-177,-7,7,-2,-4,-8,8,420,-35728,0
4583840,2384,2910,2190,2673,3394,-25,87,-980,79,-8,-177,-7,7,-5,0,-17,0,420,-35728,0
4583858,2394,2923,2188,2671,3394,-25,87,-980,79,-8,-177,-7,7,-5,0,-17,0,420,-35728,0
4583870,2393,2921,2191,2675,3394,-25,87,-980,79,-7,-177,-2,3,-7,6,-18,-1,420,-35728,0
4583888,2388,2915,2188,2671,3394,-25,87,-980,79,-7,-177,-2,3,-7,6,-18,-1,420,-35728,0
4583900,2392,2920,2190,2673,3394,-24,87,-980,79,-7,-177,-1,-1,1,0,-21,4,420,-35728,0
4583918,2397,2926,2189,2672,3394,-24,87,-980,79,-7,-177,-1,-1,1,0,-21,4,420,-35728,0
4583929,2399,2929,2188,2671,3394,-23,87,-980,79,-6,-177,4,-4,3,-1,-30,-3,420,-35728,0
4583949,2395,2924,2190,2673,3394,-23,87,-980,78,-6,-177,10,0,1,-1,-35,-8,420,-35728,0
4583966,2395,2924,2188,2671,3394,-23,87,-980,78,-6,-177,10,0,1,-1,-35,-8,420,-35728,0
4583978,2392,2920,2189,2672,3395,-21,87,-980,78,-5,-177,7,2,4,-3,-45,-8,420,-35728,0
4583997,2384,2910,2191,2675,3395,-21,87,-980,78,-5,-177,7,2,4,-3,-45,-8,420,-35728,0
4584009,2393,2921,2189,2672,3394,-20,87,-980,78,-3,-177,5,3,0,-2,-51,-4,420,-35728,0
4584026,2396,2925,2195,2680,3394,-20,87,-980,78,-3,-177,5,3,0,-2,-51,-4,420,-35728,0
4584038,2397,2926,2191,2675,3394,-19,87,-981,78,-2,-177,4,5,-1,1,-58,-6,420,-35728,0
4584056,2394,2923,2195,2680,3394,-19,87,-981,78,-2,-177,4,5,-1,1,-58,-6,420,-35728,0
4584068,2389,2916,2195,2680,3394,-17,87,-981,78,0,-177,7,0,-8,3,-63,-7,420,-35728,0
4584086,2394,2923,2199,2684,3394,-17,87,-981,78,0,-177,7,0,-8,3,-63,-7,420,-35728,0
4584098,2388,2915,2194,2678,3395,-15,87,-981,77,0,-177,3,-1,-4,-1,-59,-6,420,-35728,0
4584115,2404,2935,2192,2676,3395,-15,87,-981,77,0,-177,3,-1,-4,-1,-59,-6,420,-35728,0
4584127,2393,2921,2199,2684,3395,-13,87,-981,77,1,-177,9,0,-12,-3,-41,-11,420,-35728,0
4584146,2398,2927,2201,2687,3395,-13,87,-981,77,1,-177,9,0,-12,-3,-41,-11,420,-35728,0
4584158,2391,2919,2194,2678,3395,-12,87,-981,77,2,-176,7,0,-7,-3,-30,-17,420,-35728,0
4584176,2388,2915,2198,2683,3395,-12,87,-981,77,2,-176,7,0,-7,-3,-30,-17,420,-35728,0
4584188,2405,2936,2194,2678,3395,-11,87,-981,77,3,-176,5,-1,-14,-6,-30,-23,420,-35728,0
4584207,2403,2934,2195,2680,3395,-11,87,-981,77,3,-176,5,-1,-14,-6,-30,-23,420,-35728,0
4584219,2395,2924,2196,2681,3396,-10,87,-981,77,4,-175,5,2,-7,-6,-36,-24,420,-35728,0
4584237,2392,2920,2196,2681,3396,-10,87,-981,77,4,-175,5,2,-7,-6,-36,-24,420,-35728,0
4584249,2386,2913,2200,2686,3396,-9,88,-981,77,5,-175,6,13,-10,-7,-43,-23,420,-35728,0
4584267,2388,2915,2198,2683,3396,-9,88,-981,77,5,-175,6,13,-10,-7,-43,-23,420,-35728,0
4584279,2391,2919,2195,2680,3397,-8,88,-981,77,6,-174,6,11,-5,-1,-41,-22,420,-35728,0
4584298,2391,2919,2196,2681,3397,-8,88,-981,77,6,-174,6,11,-5,-1,-41,-22,420,-35728,0
4584309,2384,2910,2198,2683,3398,-6,88,-981,76,7,-174,2,-1,10,1,-48,-20,420,-35728,0
4584327,2379,2904,2195,2680,3398,-6,88,-981,76,7,-174,2,-1,10,1,-48,-20,420,-35728,0
4584339,2390,2918,2200,2686,3398,-5,88,-981,76,8,-174,-8,-5,17,-1,-46,-13,420,-35728,0
4584357,2389,2916,2200,2686,3398,-5,88,-981,76,8,-174,-8,-5,17,-1,-46,-13,420,-35728,0
4584369,2384,2910,2198,2683,3398,-3,88,-981,76,10,-173,-7,-2,-4,-1,-56,-22,420,-35728,0
4584388,2384,2910,2200,2686,3398,-3,88,-981,76,10,-173,-7,-2,-4,-1,-56,-22,420,-35728,0
4584400,2389,2916,2202,2688,3399,-1,88,-981,76,11,-173,-10,4,3,1,-56,-25,420,-35728,0
4584418,2387,2914,2211,2699,3399,-1,88,-981,76,11,-173,-10,4,3,1,-56,-25,420,-35728,0
4584430,2382,2908,2202,2688,3400,0,88,-981,75,13,-172,-11,8,3,1,-53,-11,420,-35728,0
4584448,2378,2903,2203,2689,3400,0,88,-981,75,13,-172,-11,8,3,1,-53,-11,420,-35728,0
4584460,2384,2910,2207,2694,3400,0,88,-981,75,14,-172,-11,1,-8,4,-57,-2,420,-35728,0
4584478,2391,2919,2206,2693,3400,0,88,-981,75,14,-172,-11,1,-8,4,-57,-2,420,-35728,0
4584490,2383,2909,2209,2697,3400,1,88,-981,75,15,-172,-13,-6,-11,2,-47,3,420,-35728,0
4584508,2379,2904,2208,2695,3400,1,88,-981,75,15,-172,-13,-6,-11,2,-47,3,420,-35728,0
4584520,2395,2924,2219,2709,3400,3,88,-981,75,17,-173,-17,-3,-17,2,-46,-4,420,-35728,0
4584538,2380,2905,2208,2695,3400,3,88,-981,75,17,-173,-17,-3,-17,2,-46,-4,420,-35728,0
4584550,2388,2915,2209,2697,3400,5,88,-981,75,18,-172,-16,4,-13,1,-41,-10,420,-35728,0
4584568,2380,2905,2214,2703,3400,5,88,-981,75,18,-172,-16,4,-13,1,-41,-10,420,-35728,0
4584580,2383,2909,2221,2711,3400,6,88,-981,74,19,-173,-20,8,-12,-1,-33,4,420,-35728,0
4584598,2382,2908,2211,2699,3400,6,88,-981,74,19,-173,-20,8,-12,-1,-33,4,420,-35728,0
4584610,2376,2901,2211,2699,3399,6,88,-981,74,19,-173,-17,9,-14,1,-19,11,420,-35728,0
4584628,2384,2910,2208,2695,3399,6,88,-981,74,19,-173,-17,9,-14,1,-19,11,420,-35728,0
4584640,2386,2913,2210,2698,3399,6,88,-981,74,19,-173,-15,1,-6,5,-1,6,420,-35728,0
4584658,2384,2910,2208,2695,3399,6,88,-981,74,19,-173,-15,1,-6,5,-1,6,420,-35728,0
4584669,2386,2913,2203,2689,3399,6,88,-981,74,19,-173,-13,0,3,5,8,6,420,-35728,0
4584687,2382,2908,2211,2699,3399,6,88,-981,74,19,-173,-13,0,3,5,8,6,420,-35728,0
4584699,2391,2919,2211,2699,3398,6,88,-981,74,19,-173,-10,-2,0,1,4,11,420,-35728,0
4584717,2388,2915,2209,2697,3398,6,88,-981,74,19,-173,-10,-2,0,1,4,11,420,-35728,0
4584729,2397,2926,2213,2702,3398,6,88,-981,74,18,-174,-14,1,2,0,6,8,420,-35728,0
4584747,2389,2916,2209,2697,3398,6,88,-981,74,18,-174,-14,1,2,0,6,8,420,-35728,0
4584758,2388,2915,2208,2695,3398,5,88,-981,74,18,-174,-18,8,-10,1,13,11,420,-35728,0
4584776,2388,2915,2216,2705,3398,5,88,-981,74,18,-174,-18,8,-10,1,13,11,420,-35728,0
4584788,2380,2905,2208,2695,3398,5,88,-981,74,18,-174,-15,7,-14,5,15,8,420,-35728,0
4584807,2396,2925,2205,2692,3398,5,88,-981,74,18,-174,-15,7,-14,5,15,8,420,-35728,0
4584819,2387,2914,2214,2703,3397,4,87,-981,74,17,-174,-17,11,-10,6,24,18,420,-35728,0
4584838,2384,2910,2215,2704,3397,4,87,-981,74,17,-174,-17,11,-10,6,24,18,420,-35728,0
4584850,2389,2916,2208,2695,3396,3,87,-981,74,16,-175,-16,2,-18,8,37,25,420,-35728,0
4584867,2390,2918,2206,2693,3396,3,87,-981,74,16,-175,-16,2,-18,8,37,25,420,-35728,0
4584879,2382,2908,2205,2692,3396,1,87,-981,74,15,-175,-9,-5,-19,4,45,21,420,-35728,0
4584898,2389,2916,2207,2694,3396,1,87,-981,74,15,-175,-9,-5,-19,4,45,21,420,-35728,0
4584910,2393,2921,2211,2699,3396,0,87,-981,75,13,-176,-6,-10,-1,3,62,8,420,-35728,0
4584927,2384,2910,2210,2698,3396,0,87,-981,75,13,-176,-6,-10,-1,3,62,8,420,-35728,0
4584939,2381,2907,2204,2691,3396,-1,87,-981,75,12,-176,0,-5,-4,-2,60,3,420,-35728,0
4584958,2376,2901,2203,2689,3396,-1,87,-981,75,12,-176,0,-5,-4,-2,60,3,420,-35728,0
4584970,2399,2929,2200,2686,3396,-2,87,-981,76,10,-176,9,5,-6,-10,55,12,420,-35728,0
4584988,2392,2920,2207,2694,3396,-2,87,-981,76,10,-176,9,5,-6,-10,55,12,420,-35728,0
4585000,2391,2919,2201,2687,3395,-4,87,-981,76,9,-176,11,12,3,-8,46,11,420,-35728,0
4585017,2384,2910,2199,2684,3395,-4,87,-981,76,9,-176,11,12,3,-8,46,11,420,-35728,0
4585029,2391,2919,2193,2677,3395,-5,88,-981,76,8,-176,9,5,1,0,33,8,420,-35728,0
4585048,2392,2920,2202,2688,3395,-5,88,-981,76,8,-176,9,5,1,0,33,8,420,-35728,0
4585059,2395,2924,2203,2689,3395,-6,87,-981,76,7,-176,7,4,-1,1,18,11,420,-35728,0
4585076,2394,2923,2199,2684,3395,-6,87,-981,76,7,-176,7,4,-1,1,18,11,420,-35728,0
4585088,2385,2912,2203,2689,3395,-6,87,1018,76,7,-176,5,-5,0,-4,12,10,420,-35728,0
4585107,2388,2915,2203,2689,3395,-6,87,1018,76,7,-176,5,-5,0,-4,12,10,420,-35728,0
4585119,2389,2916,2194,2678,3395,-6,87,-981,76,7,-177,4,0,8,-4,13,1,420,-35728,0
4585138,2396,2925,2196,2681,3395,-6,87,-981,76,7,-177,4,0,8,-4,13,1,420,-35728,0
4585149,2386,2913,2196,2681,3395,-7,87,-981,76,6,-177,1,4,10,-3,18,-8,420,-35728,0
4585167,2388,2915,2197,2682,3395,-7,87,-981,76,6,-177,1,4,10,-3,18,-8,420,-35728,0
4585178,2391,2919,2198,2683,3395,-8,87,1018,76,6,1823,3,10,5,0,18,0,420,-35728,0
4585198,2385,2912,2196,2681,3395,-8,87,-981,76,6,-176,2,8,5,0,16,3,420,-35728,0
4585215,2391,2919,2204,2691,3395,-8,87,-981,76,6,-176,2,8,5,0,16,3,420,-35728,0
4585226,2384,2910,2193,2677,3395,-8,87,-981,76,5,-177,3,1,-1,5,13,9,420,-35728,0
4585246,2387,2914,2194,2678,3395,-9,87,-981,76,5,-177,5,-1,-8,5,13,6,420,-35728,0
4585263,2387,2914,2207,2694,3395,-9,87,-981,76,5,-177,5,-1,-8,5,13,6,420,-35728,0
4585274,2392,2920,2191,2675,3395,-9,87,-981,77,5,-184,3,-3,-9,5,16,-1,420,-35728,0
4585293,2392,2920,2196,2681,3395,-9,87,-981,77,5,-184,3,-3,-9,5,16,-1,420,-35728,0
4585305,2388,2915,2199,2684,3395,-10,87,-981,77,4,-177,4,0,-8,0,10,-5,420,-35728,0
4585324,2395,2924,2187,2670,3395,-10,87,-981,77,4,-177,4,0,-8,0,10,-5,420,-35728,0
4585336,2386,2913,2194,2678,3395,-10,87,-981,77,4,-177,4,3,-11,-2,8,-3,420,-35728,0
4585356,2391,2919,2197,2682,3395,-10,87,-981,77,4,-177,4,2,-11,-1,5,-3,420,-35728,0
4585375,2399,2929,2197,2682,3395,-10,87,-981,77,4,-177,4,2,-11,-1,5,-3,420,-35728,0
4585387,2387,2914,2196,2681,3395,-10,87,-981,77,4,1822,0,3,-7,-1,-9,-1,420,-35728,0
4585407,2388,2915,2205,2692,3395,-10,87,-981,77,4,-177,1,4,-3,-4,-8,0,420,-35728,0
4585427,2385,2912,2198,2683,3395,-10,87,-981,77,4,-184,-1,1,-4,-3,-5,1,420,-35728,0
4585447,2385,2912,2200,2686,3395,-10,87,-981,77,4,-177,-2,1,5,-2,-5,1,420,-35728,0
4585465,2389,2916,2199,2684,3395,-10,87,-981,77,4,-177,-2,1,5,-2,-5,1,420,-35728,0
4585476,2388,2915,2196,2681,3395,-9,87,-981,77,5,-177,0,0,10,-1,-14,1,420,-35728,0
4585496,2387,2914,2196,2681,3395,-9,87,-981,77,5,-177,-3,1,11,0,-16,-5,420,-35728,0
4585513,2385,2912,2199,2684,3395,-9,87,-981,77,5,-177,-3,1,11,0,-16,-5,420,-35728,0
4585525,2397,2926,2200,2686,3395,-8,87,-981,76,5,-177,-3,0,-1,0,-103,-3,420,-35728,0
4585543,2386,2913,2198,2683,3395,-8,87,-981,76,5,-177,-3,0,-1,0,-103,-3,420,-35728,0
4585555,2384,2910,2208,2695,3395,-8,87,-981,76,6,-177,-2,0,-10,-3,-18,3,420,-35728,0
4585572,2399,2929,2193,2677,3395,-8,87,-981,76,6,-177,-2,0,-10,-3,-18,3,420,-35728,0
4585584,2388,2915,2199,2684,3395,-8,87,-981,76,6,-177,-3,4,-16,0,-5,-1,420,-35728,0
4585602,2387,2914,2197,2682,3395,-8,87,-981,76,6,-177,-3,4,-16,0,-5,-1,420,-35728,0
4585614,2395,2924,2195,2680,3395,-8,87,-981,76,6,-177,-2,0,-17,3,0,-10,420,-35728,0
4585632,2383,2909,2194,2678,3395,-8,87,-981,76,6,-177,-2,0,-17,3,0,-10,420,-35728,0
4585643,2388,2915,2199,2684,3395,-8,87,-981,76,6,-177,-4,0,-7,-1,1,-3,420,-35728,0
4585661,2391,2919,2194,2678,3395,-8,87,-981,76,6,-177,-4,0,-7,-1,1,-3,420,-35728,0
4585673,2385,2912,2192,2676,3395,-88,87,-981,76,6,-177,-8,-2,1,-3,3,2,420,-35728,0
4585691,2386,2913,2209,2697,3395,-88,87,-981,76,6,-177,-8,-2,1,-3,3,2,420,-35728,0
4585703,2392,2920,2191,2675,3395,-8,87,-981,76,6,-176,-13,2,9,-2,15,-5,420,-35728,0
4585720,2388,2915,2198,2683,3395,-8,87,-981,76,6,-176,-13,2,9,-2,15,-5,420,-35728,0
4585732,2385,2912,2196,2681,3395,-8,87,-981,76,5,-176,-13,3,5,0,13,-8,420,-35728,0
4585751,2384,2910,2197,2682,3395,-8,87,-981,76,5,-176,-13,3,5,0,13,-8,420,-35728,0
4585762,2383,2909,2200,2686,3395,-8,87,-981,76,5,-176,-14,4,0,0,11,-2,420,-35728,0
4585781,2384,2910,2196,2681,3395,-8,87,-981,76,5,-176,-14,4,0,0,11,-2,420,-35728,0
4585792,2389,2916,2194,2678,3395,-8,87,-981,76,5,-176,-15,3,-6,0,6,3,420,-35728,0
4585811,2387,2914,2201,2687,3395,-8,87,-981,76,5,-176,-15,3,-6,0,6,3,420,-35728,0
4585822,2391,2919,2196,2681,3395,-8,87,-981,76,5,-176,-10,2,-9,1,6,3,420,-35728,0
4585841,2387,2914,2199,2684,3395,-8,87,-981,76,5,-176,-10,2,-9,1,6,3,420,-35728,0
4585852,2395,2924,2196,2681,3395,-9,87,-981,77,5,-176,-11,2,0,2,18,3,420,-35728,0
4585869,2385,2912,2200,2686,3395,-9,87,-981,77,5,-176,-11,2,0,2,18,3,420,-35728,0
4585881,2378,2903,2194,2678,3395,-10,87,-981,77,4,-176,-11,0,-10,0,21,10,420,-35728,0
4585901,2388,2915,2207,2694,3395,-10,87,-981,77,4,-176,-7,1,-12,0,22,11,420,-35728,0
4585918,2387,2914,2205,2692,3395,-10,87,-981,77,4,-176,-7,1,-12,0,22,11,420,-35728,0
4585930,2382,2908,2206,2693,3395,-11,87,-981,77,3,-177,-8,0,-7,0,18,8,420,-35728,0
4585950,2391,2919,2195,2680,3395,-11,87,-981,77,3,-177,-11,3,3,0,21,7,420,-35728,0
4585967,2390,2918,2206,2693,3395,-11,87,-981,77,3,-177,-11,3,3,0,21,7,420,-35728,0
4585978,2407,2938,2190,2673,3395,-11,87,1018,77,2,-177,-6,3,-5,0,16,11,420,-35728,0
4585998,2392,2920,2195,2680,3394,-12,87,-981,77,2,-177,-2,3,-9,0,16,13,420,-35728,0
4586016,2399,2929,2192,2676,3394,-12,87,-981,77,2,-177,-2,3,-9,0,16,13,420,-35728,0
4586027,2388,2915,2188,2671,3394,-13,87,-981,77,2,-177,-3,3,-6,1,29,14,420,-35728,0
4586047,2392,2920,2194,2678,3393,-13,87,-980,77,1,-178,0,0,-3,3,35,14,420,-35728,0
4586064,2392,2920,2207,2694,3393,-13,87,-980,77,1,-178,0,0,-3,3,35,14,420,-35728,0
4586076,2388,2915,2215,2704,3393,-15,87,-980,77,0,-178,5,-2,-14,2,28,8,420,-35728,0
4586094,2388,2915,2194,2678,3393,-15,87,-980,77,0,-178,5,-2,-14,2,28,8,420,-35728,0
4586106,2388,2915,2193,2677,3393,-15,87,-980,78,0,-178,4,1,-1,0,33,1,420,-35728,0
4586123,2389,2916,2198,2683,3393,-15,87,-980,78,0,-178,4,1,-1,0,33,1,420,-35728,0
4586134,2391,2919,2188,2671,3393,-16,87,-980,78,0,-178,3,3,2,0,26,5,420,-35728,0
4586153,2394,2923,2191,2675,3393,-16,87,-980,78,0,-178,3,3,2,0,26,5,420,-35728,0
4586164,2395,2924,2186,2669,3393,-16,87,-980,78,-1,-178,4,1,-6,-1,22,7,420,-35728,0
4586182,2391,2919,2190,2673,3393,-16,87,-980,78,-1,-178,4,1,-6,-1,22,7,420,-35728,0
4586194,2390,2918,2194,2678,3393,-17,87,-980,78,-1,-178,-2,2,2,1,20,3,420,-35728,0
4586212,2394,2923,2192,2676,3393,-17,87,-980,78,-1,-178,-2,2,2,1,20,3,420,-35728,0
4586224,2395,2924,2207,2694,3393,-98,87,-980,78,-2,-178,-8,-2,3,0,8,1,420,-35728,0
4586242,2388,2915,2192,2676,3393,-98,87,-980,78,-2,-178,-8,-2,3,0,8,1,420,-35728,0
4586254,2390,2918,2194,2678,3393,-18,87,-980,78,-2,-178,-13,-1,3,1,6,-3,420,-35728,0
4586273,2393,2921,2192,2676,3393,-18,87,-980,78,-2,-178,-13,-1,3,1,6,-3,420,-35728,0
4586284,2395,2924,2194,2678,3393,-18,87,-980,78,-2,-178,-13,2,0,-2,7,-2,420,-35728,0
4586303,2394,2923,2190,2673,3393,-18,87,-980,78,-2,-178,-13,2,0,-2,7,-2,420,-35728,0
4586315,2394,2923,2189,2672,3393,-18,87,-980,78,-2,-178,-11,6,0,-2,5,8,420,-35728,0
4586333,2391,2919,2194,2678,3393,-18,87,-980,78,-2,-178,-11,6,0,-2,5,8,420,-35728,0
4586345,2392,2920,2190,2673,3393,-18,87,-980,78,-2,-178,-8,7,-5,2,15,6,420,-35728,0
4586363,2390,2918,2196,2681,3393,-18,87,-980,78,-2,-178,-8,7,-5,2,15,6,420,-35728,0
4586375,2394,2923,2195,2680,3393,-19,87,-980,78,-3,-178,-4,0,-24,6,13,0,420,-35728,0
4586393,2394,2923,2196,2681,3393,-19,87,-980,78,-3,-178,-4,0,-24,6,13,0,420,-35728,0
4586405,2397,2926,2196,2681,3393,-19,87,-980,78,-3,-178,2,0,-25,3,8,7,420,-35728,0
4586423,2393,2921,2191,2675,3393,-19,87,-980,78,-3,-178,2,0,-25,3,8,7,420,-35728,0
4586435,2393,2921,2195,2680,3393,-20,87,-980,78,-3,-178,0,0,-13,-5,10,14,420,-35728,0
4586453,2395,2924,2192,2676,3393,-20,87,-980,78,-3,-178,0,0,-13,-5,10,14,420,-35728,0
4586465,2392,2920,2186,2669,3392,-20,87,-980,78,-3,-179,-1,-1,7,-5,6,8,420,-35728,0
4586483,2396,2925,2194,2678,3392,-20,87,-980,78,-3,-179,-1,-1,7,-5,6,8,420,-35728,0
4586494,2395,2924,2193,2677,3392,-20,87,-980,78,-4,-179,0,2,12,0,4,-5,420,-35728,0
4586513,2390,2918,2192,2676,3392,-20,87,-980,78,-4,-179,0,2,12,0,4,-5,420,-35728,0
4586525,2390,2918,2194,2678,3393,-20,87,-980,78,-4,-178,-3,4,6,0,3,-5,420,-35728,0
4586543,2389,2916,2194,2678,3393,-20,87,-980,78,-4,-178,-3,4,6,0,3,-5,420,-35728,0
4586555,2392,2920,2194,2678,3393,-20,87,-980,78,-4,-178,-6,3,2,1,2,3,420,-35728,0
4586573,2391,2919,2184,2666,3393,-20,87,-980,78,-4,-178,-6,3,2,1,2,3,420,-35728,0
4587008,2395,2924,2200,2686,3394,-22,88,-980,79,-6,-177,-16,1,-34,-1,34,6,420,-35728,0
4587026,2389,2916,2198,2683,3394,-22,88,-980,79,-6,-177,-16,1,-34,-1,34,6,420,-35728,0
4587038,2392,2920,2196,2681,3393,-23,88,-980,79,-7,-178,-13,0,-26,-6,49,8,420,-35728,0
4587056,2398,2927,2184,2666,3393,-23,88,-980,79,-7,-178,-13,0,-26,-6,49,8,420,-35728,0
4587068,2393,2921,2194,2678,3393,-25,88,-980,79,-8,-178,-13,0,2,-3,56,3,420,-35728,0
4587086,2397,2926,2198,2683,3393,-25,88,-980,79,-8,-178,-13,0,2,-3,56,3,420,-35728,0
4587098,2400,2930,2185,2667,3393,-26,88,-980,80,-10,-177,-10,0,-4,1,53,-7,420,-35728,0
4587117,2392,2920,2187,2670,3393,-26,88,-980,80,-10,-177,-10,0,-4,1,53,-7,420,-35728,0
4587128,2392,2920,2194,2678,3394,-28,88,-980,80,-11,-177,-8,3,-7,-1,47,1,420,-35728,0
4587147,2401,2931,2182,2664,3394,-28,88,-980,80,-11,-177,-8,3,-7,-1,47,1,420,-35728,0
4587159,2392,2920,2196,2681,3394,-30,88,-980,80,-12,-177,-12,2,6,-5,32,13,420,-35728,0
4587176,2386,2913,2193,2677,3394,-30,88,-980,80,-12,-177,-12,2,6,-5,32,13,420,-35728,0
4587188,2396,2925,2188,2671,3393,-30,88,-980,80,-13,-178,-4,5,-9,0,28,6,420,-35728,0
4587207,2393,2921,2190,2673,3393,-30,88,-980,80,-13,-178,-4,5,-9,0,28,6,420,-35728,0
4587218,2399,2929,2196,2681,3393,-31,88,-980,80,-14,-178,-5,4,-8,1,35,9,420,-35728,0
4587236,2399,2929,2199,2684,3393,-31,88,-980,80,-14,-178,-5,4,-8,1,35,9,420,-35728,0
4587248,2400,2930,2184,2666,3393,-32,88,-980,80,-14,-178,-6,1,0,0,19,13,420,-35728,0
4587266,2391,2919,2185,2667,3393,-32,88,-980,80,-14,-178,-6,1,0,0,19,13,420,-35728,0
4587278,2400,2930,2190,2673,3393,-33,88,-980,80,-15,-178,-3,-1,-5,0,18,12,420,-35728,0
4587297,2397,2926,2184,2666,3393,-33,88,-980,80,-15,-178,-3,-1,-5,0,18,12,420,-35728,0
4587309,2395,2924,2188,2671,3392,-33,88,-980,80,-15,-178,0,-1,-7,-3,13,10,420,-35728,0
4587326,2395,2924,2188,2671,3392,-33,88,-980,80,-15,-178,0,-1,-7,-3,13,10,420,-35728,0
4587338,2401,2931,2178,2659,3392,-34,88,-980,80,-15,-179,0,-1,-3,-3,12,4,420,-35728,0
4587357,2397,2926,2181,2663,3392,-34,88,-980,80,-15,-179,0,-1,-3,-3,12,4,420,-35728,0
4587369,2399,2929,2187,2670,3392,-34,88,-980,81,-16,-179,5,4,-5,-1,17,0,420,-35728,0
4587387,2395,2924,2191,2675,3392,-34,88,-980,81,-16,-179,5,4,-5,-1,17,0,420,-35728,0
4587399,2391,2919,2185,2667,3392,-35,88,-980,81,-16,-179,4,0,0,1,15,-1,420,-35728,0
4587417,2397,2926,2189,2672,3392,-35,88,-980,81,-16,-179,4,0,0,1,15,-1,420,-35728,0
4587429,2395,2924,2184,2666,3392,-35,88,-980,81,-16,-179,3,-3,3,0,3,1,420,-35728,0
4587447,2412,2945,2176,2656,3392,-35,88,-980,81,-16,-179,3,-3,3,0,3,1,420,-35728,0
4587459,2399,2929,2186,2669,3392,-35,88,-980,81,-16,-179,0,-3,1,-3,-8,4,420,-35728,0
4587477,2404,2935,2184,2666,3392,-35,88,-980,81,-16,-179,0,-3,1,-3,-8,4,420,-35728,0
4587489,2399,2929,2187,2670,3392,-35,88,-980,81,-16,-179,3,-1,2,-1,-20,-4,420,-35728,0
4587508,2398,2927,2185,2667,3392,-35,88,-980,81,-16,-179,3,-1,2,-1,-20,-4,420,-35728,0
4587520,2419,2953,2177,2658,3393,-34,88,-980,80,-15,-178,-2,3,6,2,-17,-14,420,-35728,0
4587537,2387,2914,2186,2669,3393,-34,88,-980,80,-15,-178,-2,3,6,2,-17,-14,420,-35728,0
4587549,2396,2925,2186,2669,3393,-33,88,-980,80,-15,-178,-3,4,-6,0,-16,-3,420,-35728,0
4587568,2399,2929,2187,2670,3393,-33,88,-980,80,-15,-178,-3,4,-6,0,-16,-3,420,-35728,0
4587580,2395,2924,2182,2664,3393,-33,88,-980,80,-14,-178,-4,5,-5,-1,-25,5,420,-35728,0
4587599,2411,2943,2183,2665,3393,-33,88,-980,80,-14,-178,-4,5,-5,-1,-25,5,420,-35728,0
4587611,2399,2929,2186,2669,3393,-32,88,-980,80,-14,-178,-6,1,0,3,-29,-5,420,-35728,0
4587628,2395,2924,2187,2670,3393,-32,88,-980,80,-14,-178,-6,1,0,3,-29,-5,420,-35728,0
4587640,2393,2921,2187,2670,3393,-31,88,-980,80,-13,-178,-7,-3,-13,1,-28,-6,420,-35728,0
4587658,2399,2929,2181,2663,3393,-31,88,-980,80,-13,-178,-7,-3,-13,1,-28,-6,420,-35728,0
4587671,2415,2948,2186,2669,3393,-30,88,-980,80,-12,-178,-8,-6,-10,-2,-26,-8,420,-35728,0
4587689,2376,2901,2180,2661,3393,-30,88,-980,80,-12,-178,-8,-6,-10,-2,-26,-8,420,-35728,0
4587701,2397,2926,2188,2671,3393,-30,88,-980,80,-12,-178,-12,-1,-9,-5,-20,-14,420,-35728,0
4587719,2397,2926,2194,2678,3393,-30,88,-980,80,-12,-178,-12,-1,-9,-5,-20,-14,420,-35728,0
4587732,2389,2916,2193,2677,3393,-29,88,-980,80,-11,-177,-16,7,1,-3,-19,-15,420,-35728,0
4587750,2392,2920,2186,2669,3393,-29,88,-980,80,-11,-177,-16,7,1,-3,-19,-15,420,-35728,0
4587762,2397,2926,2184,2666,3394,-28,88,-980,80,-11,-177,-15,9,4,-2,-21,-7,420,-35728,0
4587779,2391,2919,2188,2671,3394,-28,88,-980,80,-11,-177,-15,9,4,-2,-21,-7,420,-35728,0
4587792,2391,2919,2204,2691,3394,-28,88,-980,80,-11,-177,-15,7,3,4,-14,-2,420,-35728,0
4587810,2393,2921,2194,2678,3394,-28,88,-980,80,-11,-177,-15,7,3,4,-14,-2,420,-35728,0
4587822,2395,2924,2221,2711,3394,-28,87,-980,79,-10,-177,-17,1,-8,7,-13,2,420,-35728,0
4587840,2389,2916,2194,2678,3394,-28,87,-980,79,-10,-177,-17,1,-8,7,-13,2,420,-35728,0
4587852,2393,2921,2197,2682,3394,-28,87,-980,79,-10,-177,-11,-5,-27,5,-8,0,420,-35728,0
4587870,2391,2919,2187,2670,3394,-28,87,-980,79,-10,-177,-11,-5,-27,5,-8,0,420,-35728,0
4587882,2393,2921,2208,2695,3394,-28,87,-980,79,-11,-177,-17,-6,-15,0,0,-3,420,-35728,0
4587900,2393,2921,2199,2684,3394,-28,87,-980,79,-11,-177,-17,-6,-15,0,0,-3,420,-35728,0
4587913,2390,2918,2198,2683,3394,-28,87,-980,80,-11,-177,-15,-2,-6,-3,-1,-6,420,-35728,0
4587931,2391,2919,2193,2677,3394,-28,87,-980,80,-11,-177,-15,-2,-6,-3,-1,-6,420,-35728,0
4587943,2403,2934,2193,2677,3394,-28,88,-980,80,-11,-177,-11,3,-13,-8,8,-3,420,-35728,0
4587962,2384,2910,2196,2681,3394,-28,88,-980,80,-11,-177,-11,3,-13,-8,8,-3,420,-35728,0
4587974,2376,2901,2194,2678,3394,-29,88,-980,80,-11,-177,-15,7,7,-5,14,4,420,-35728,0
4587994,2399,2929,2195,2680,3394,-29,88,-980,80,-11,-177,-17,10,11,0,16,6,420,-35728,0
4588014,2392,2920,2193,2677,3394,-30,88,-980,80,-12,-177,-14,7,-2,4,23,6,420,-35728,0
4588032,2391,2919,2195,2680,3394,-30,88,-980,80,-12,-177,-14,7,-2,4,23,6,420,-35728,0
4588044,2399,2929,2189,2672,3394,-30,88,-980,80,-12,-177,-14,4,-10,4,21,15,420,-35728,0
4588063,2389,2916,2195,2680,3394,-30,88,-980,80,-12,-177,-14,4,-10,4,21,15,420,-35728,0
4588075,2388,2915,2202,2688,3393,-31,88,-980,80,-13,-178,-14,-4,-8,2,27,16,420,-35728,0
4588095,2395,2924,2192,2676,3393,-31,88,-980,80,-14,-178,-14,-3,-4,1,37,13,420,-35728,0
4588116,2393,2921,2180,2661,3393,-32,88,-980,80,-14,-178,-12,0,-9,-2,33,11,420,-35728,0
4588133,2398,2927,2196,2681,3393,-32,88,-980,80,-14,-178,-12,0,-9,-2,33,11,420,-35728,0
4588145,2392,2920,2189,2672,3393,-33,88,-980,80,-15,-178,-9,0,-23,-1,41,10,420,-35728,0
4588166,2392,2920,2187,2670,3393,-35,88,-980,81,-16,-178,-9,1,-15,0,49,8,420,-35728,0
4588183,2399,2929,2186,2669,3393,-35,88,-980,81,-16,-178,-9,1,-15,0,49,8,420,-35728,0
4588195,2396,2925,2186,2669,3393,-36,88,-980,81,-17,-178,-7,4,-4,-3,46,8,420,-35728,0
4588215,2399,2929,2187,2670,3392,-36,88,-980,81,-18,-179,-4,4,-1,-3,43,10,420,-35728,0
4588233,2392,2920,2184,2666,3392,-36,88,-980,81,-18,-179,-4,4,-1,-3,43,10,420,-35728,0
4588245,2397,2926,2187,2670,3392,-38,88,-980,81,-19,-179,-4,-3,-5,0,50,11,420,-35728,0
4588265,2399,2929,2188,2671,3392,-39,88,-980,81,-20,-179,-3,-4,-7,-1,49,11,420,-35728,0
4588282,2397,2926,2176,2656,3392,-39,88,-980,81,-20,-179,-3,-4,-7,-1,49,11,420,-35728,0
4588294,2397,2926,2182,2664,3391,-41,88,-980,82,-21,-179,0,-1,-7,-4,53,11,420,-35728,0
4588313,2398,2927,2182,2664,3391,-41,88,-980,82,-21,-179,0,-1,-7,-4,53,11,420,-35728,0
4588326,2407,2938,2185,2667,3391,-43,88,-979,82,-23,-179,-2,0,3,-3,59,5,420,-35728,0
4588346,2391,2919,2186,2669,3391,-44,88,-979,82,-24,-179,-3,1,7,0,58,1,420,-35728,0
4588365,2407,2938,2179,2660,3391,-44,88,-979,82,-24,-179,-3,1,7,0,58,1,420,-35728,0
4588377,2398,2927,2180,2661,3391,-45,88,-979,82,-25,1820,-3,2,6,-3,66,10,420,-35728,0
4588397,2398,2927,2187,2670,3391,-46,88,-979,83,-27,-179,-1,3,0,-2,63,12,420,-35728,0
4588417,2399,2929,2177,2658,3391,-48,88,-979,83,-28,-179,-6,0,1,-1,64,15,420,-35728,0
4588435,2400,2930,2176,2656,3391,-48,88,-979,83,-28,-179,-6,0,1,-1,64,15,420,-35728,0
4588447,2397,2926,2177,2658,3391,-50,88,-979,83,-29,-179,0,-2,-3,0,59,11,420,-35728,0
4588467,2414,2947,2181,2663,3391,-51,88,-979,83,-30,-179,0,-3,-9,0,57,8,420,-35728,0
4588484,2401,2931,2180,2661,3391,-51,88,-979,83,-30,-179,0,-3,-9,0,57,8,420,-35728,0
4588496,2400,2930,2175,2655,3391,-53,88,-979,83,-32,-180,2,0,-11,-4,64,16,420,-35728,0
4588516,2398,2927,2176,2656,3391,-54,88,-979,84,-33,-180,1,0,-13,-4,64,16,420,-35728,0
4588534,2400,2930,2187,2670,3391,-54,88,-979,84,-33,-180,1,0,-13,-4,64,16,420,-35728,0
4588546,2400,2930,2177,2658,3390,-56,88,-979,84,-35,-180,4,1,-21,-2,66,8,420,-35728,0
4588565,2390,2918,2180,2661,3390,-56,88,-979,84,-35,-180,4,1,-21,-2,66,8,420,-35728,0
4588577,2399,2929,2175,2655,3390,-58,88,-979,84,-36,-180,7,0,-26,0,65,7,420,-35728,0
4588597,2403,2934,2173,2653,3390,-60,88,-979,84,-37,-180,12,0,-155,-3,65,10,420,-35728,0
4588618,2403,2934,2183,2665,3390,-61,88,-979,85,-38,-180,11,-3,-18,-7,66,15,420,-35728,0
4588635,2403,2934,2175,2655,3390,-61,88,-979,85,-38,-180,11,-3,-18,-7,66,15,420,-35728,0
4588648,2400,2930,2186,2669,3390,-63,88,-978,85,-40,-180,6,-3,2,-9,73,10,420,-35728,0
4588668,2396,2925,2164,2642,3390,-64,88,-978,86,-41,-180,8,-3,12,-6,74,3,420,-35728,0
4588686,2400,2930,2166,2644,3390,-64,88,-978,86,-41,-180,8,-3,12,-6,74,3,420,-35728,0
4588698,2400,2930,2169,2648,3390,-66,88,-978,86,-43,-180,5,-3,10,-5,67,-3,420,-35728,0
4588718,2402,2932,2169,2648,3390,-68,88,-978,86,-44,-180,7,0,16,-5,63,-3,420,-35728,0
4588735,2400,2930,2167,2645,3390,-68,88,-978,86,-44,-180,7,0,16,-5,63,-3,420,-35728,0
4588748,2407,2938,2152,2627,3390,-69,88,-978,86,-46,-180,11,4,14,-7,47,5,420,-35728,0
4588768,2415,2948,2166,2644,3390,-70,88,-978,87,-46,-180,3,1,18,-5,45,5,420,-35728,0
4588785,2402,2932,2160,2637,3390,-70,88,-978,87,-46,-180,3,1,18,-5,45,5,420,-35728,0
4588797,2393,2921,2162,2639,3390,-71,88,-978,87,-47,-180,7,0,7,0,33,-3,420,-35728,0
4588816,2408,2940,2166,2644,3390,-71,88,-978,87,-47,-180,7,0,7,0,33,-3,420,-35728,0
4588828,2403,2934,2166,2644,3390,-71,88,-978,87,-48,-180,9,0,-9,3,17,-3,420,-35728,0
4588848,2412,2945,2167,2645,3391,-72,88,-978,87,-48,-180,11,-5,-15,1,11,0,420,-35728,0
4588869,2390,2918,2166,2644,3391,-72,88,-978,87,-48,-180,4,-2,-8,-2,-1,7,420,-35728,0
4588889,2401,2931,2167,2645,3390,-72,88,-978,87,-48,-180,2,-133,-10,-1,-12,2,420,-35728,0
4588910,2398,2927,2169,2648,3390,-71,88,-978,87,-48,-180,0,-4,-10,-3,-14,0,420,-35728,0
4588928,2388,2915,2168,2647,3390,-71,88,-978,87,-48,-180,0,-4,-10,-3,-14,0,420,-35728,0
4588940,2393,2921,2164,2642,3390,-71,88,-978,87,-47,-180,-1,0,-8,-3,-16,0,420,-35728,0
4588960,2401,2931,2167,2645,3390,-71,88,-978,87,-47,-180,-2,4,4,-3,-18,0,420,-35728,0
4588978,2406,2937,2170,2649,3390,-71,88,-978,87,-47,-180,-2,4,4,-3,-18,0,420,-35728,0
4588990,2400,2930,2166,2644,3390,-70,88,-978,87,-47,-180,0,6,-3,0,-18,5,420,-35728,0
4589010,2398,2927,2175,2655,3390,-70,88,-978,87,-46,-180,1,3,-4,1,-16,8,420,-35728,0
4589028,2398,2927,2167,2645,3390,-70,88,-978,87,-46,-180,1,3,-4,1,-16,8,420,-35728,0
4589039,2415,2948,2168,2647,3390,-70,88,-978,87,-46,-180,1,-2,-7,3,-18,2,420,-35728,0
4589060,2401,2931,2165,2643,3390,-70,88,-978,87,-46,-180,3,-5,-10,3,-19,3,420,-35728,0
4589078,2404,2935,2175,2655,3390,-70,88,-978,87,-46,-180,3,-5,-10,3,-19,3,420,-35728,0
4589089,2403,2934,2168,2647,3390,-69,88,-978,87,-45,-180,2,-6,-9,0,-6,0,420,-35728,0
4589110,2399,2929,2172,2652,3390,-69,88,-978,86,-45,-180,3,-4,-6,-1,-5,-3,420,-35728,0
4589128,2399,2929,2166,2644,3390,-69,88,-978,86,-45,-180,3,-4,-6,-1,-5,-3,420,-35728,0
4589140,2399,2929,2168,2647,3390,-69,88,-978,87,-45,-180,5,-1,-12,-3,-3,-11,420,-35728,0
4589160,2400,2930,2171,2650,3390,-69,88,-978,87,-45,-180,4,-1,-5,-3,-2,-10,420,-35728,0
4589179,2400,2930,2173,2653,3390,-69,88,-978,87,-45,-180,4,-1,-5,-3,-2,-10,420,-35728,0
4589191,2394,2923,2166,2644,3391,-69,88,-978,87,-45,-180,6,1,-2,0,-10,-10,420,-35728,0
4589211,2398,2927,2168,2647,3391,-68,88,-978,86,-45,-179,5,0,-1,0,-13,-11,420,-35728,0
4589229,2399,2929,2169,2648,3391,-68,88,-978,86,-45,-179,5,0,-1,0,-13,-11,420,-35728,0
4589241,2399,2929,2160,2637,3391,-68,88,-978,86,-45,-179,1,1,-1,1,-18,-2,420,-35728,0
4589261,2396,2925,2169,2648,3391,-68,88,-978,86,-44,-179,2,0,0,-1,-24,0,420,-35728,0
4589279,2396,2925,2172,2652,3391,-68,88,-978,86,-44,-179,2,0,0,-1,-24,0,420,-35728,0
4589290,2402,2932,2175,2655,3391,-66,88,-978,86,-44,-179,-5,-3,-1,0,-27,-2,420,-35728,0
4589311,2399,2929,2168,2647,3391,-66,88,-978,86,-43,-179,-5,-6,-6,1,-28,-7,420,-35728,0
4589329,2400,2930,2169,2648,3391,-66,88,-978,86,-43,-179,-5,-6,-6,1,-28,-7,420,-35728,0
4589341,2392,2920,2170,2649,3391,-65,88,-979,86,-42,-179,-5,0,-7,-1,-36,-8,420,-35728,0
4589361,2400,2930,2172,2652,3391,-65,88,-979,86,-42,-179,-2,2,-25,-3,-40,-3,420,-35728,0
4589379,2393,2921,2169,2648,3391,-65,88,-979,86,-42,-179,-2,2,-25,-3,-40,-3,420,-35728,0
4589391,2388,2915,2172,2652,3391,-63,88,-979,86,-41,-179,-6,0,-2,0,-45,1,420,-35728,0
4589411,2393,2921,2173,2653,3391,-62,88,-979,86,-40,-179,-7,0,0,-1,-46,1,420,-35728,0
4589429,2397,2926,2169,2648,3391,-62,88,-979,86,-40,-179,-7,0,0,-1,-46,1,420,-35728,0
4589440,2397,2926,2168,2647,3391,-61,88,-979,85,-39,-179,-7,-1,-10,0,-31,3,420,-35728,0
4589461,2396,2925,2172,2652,3391,-61,88,-979,85,-38,-179,-7,0,-12,1,-25,2,420,-35728,0
4589478,2399,2929,2168,2647,3391,-61,88,-979,85,-38,-179,-7,0,-12,1,-25,2,420,-35728,0
4589490,2399,2929,2167,2645,3391,-60,88,-979,85,-38,-179,-6,0,-4,0,-15,1,420,-35728,0
4589511,2388,2915,2171,2650,3391,-60,88,-979,85,-38,-179,-5,-3,0,1,-16,0,420,-35728,0
4589528,2399,2929,2162,2639,3391,-60,88,-979,85,-38,-179,-5,-3,0,1,-16,0,420,-35728,0
4589540,2395,2924,2169,2648,3391,-60,88,-979,85,-37,-179,-1,-2,-17,1,-13,0,420,-35728,0
4589560,2392,2920,2172,2652,3391,-60,88,-979,85,-37,-180,-4,-6,-18,-1,-10,1,420,-35728,0
4589578,2394,2923,2163,2641,3391,-60,88,-979,85,-37,-180,-4,-6,-18,-1,-10,1,420,-35728,0
4589591,2393,2921,2175,2655,3391,-59,88,-979,85,1962,-180,-9,-2,-5,-5,-3,-3,420,-35728,0
4589611,2386,2913,2170,2649,3391,-59,88,-979,85,-37,-179,-8,1,4,-3,-1,-8,420,-35728,0
4589629,2394,2923,2171,2650,3391,-59,88,-979,85,-37,-179,-8,1,4,-3,-1,-8,420,-35728,0
4589641,2392,2920,2168,2647,3391,-59,88,-979,85,-37,-179,-7,2,0,0,0,-8,420,-35728,0
4589661,2393,2921,2169,2648,3391,-59,88,-979,85,-37,-179,-9,2,-5,1,5,-1,420,-35728,0
4589679,2395,2924,2164,2642,3391,-59,88,-979,85,-37,-179,-9,2,-5,1,5,-1,420,-35728,0
4589691,2392,2920,2169,2648,3391,-59,88,-979,85,-37,-179,-8,0,-7,0,2,10,420,-35728,0
4589711,2398,2927,2177,2658,3391,-59,88,-979,85,-37,-179,-6,-4,-12,1,3,3,420,-35728,0
4589730,2397,2926,2172,2652,3391,-59,88,-979,85,-37,-179,-6,-4,-12,1,3,3,420,-35728,0
4589742,2392,2920,2171,2650,3391,-59,88,-979,85,-37,-179,-9,-9,-13,1,5,-5,420,-35728,0
4589762,2396,2925,2170,2649,3391,-59,88,-979,85,-37,-179,-6,-9,-13,-4,4,-1,420,-35728,0
4589781,2395,2924,2168,2647,3391,-59,88,-979,85,-37,-179,-6,-9,-13,-4,4,-1,420,-35728,0
4589793,2397,2926,2168,2647,3391,-60,88,-979,85,1962,-179,-4,2,-15,-7,8,1,420,-35728,0
4589813,2397,2926,2169,2648,3391,-60,89,-979,85,-37,-179,-5,5,-16,-6,6,3,420,-35728,0
4589832,2400,2930,2170,2649,3391,-60,89,-979,85,-37,-179,-5,5,-16,-6,6,3,420,-35728,0
4589843,2393,2921,2168,2647,3391,-140,89,-979,85,-37,-179,-5,2,-7,0,8,0,420,-35728,0
4589863,2400,2930,2171,2650,3391,-60,89,-979,85,-38,-179,-4,-3,-7,-4,11,8,420,-35728,0
4589882,2398,2927,2168,2647,3391,-60,89,-979,85,-38,-179,-4,-3,-7,-4,11,8,420,-35728,0
4589894,2399,2929,2167,2645,3391,-140,89,-979,85,-46,-180,-12,-9,21,-6,15,6,420,-35728,0
4589914,2400,2930,2175,2655,3391,-61,89,-979,86,-38,-180,-12,-8,26,-3,11,0,420,-35728,0
4589933,2399,2929,2164,2642,3391,-61,89,-979,86,-38,-180,-12,-8,26,-3,11,0,420,-35728,0
4589945,2398,2927,2175,2655,3391,-61,89,-979,86,-38,-180,-8,4,3,1,8,-8,420,-35728,0
4589964,2399,2929,2172,2652,3391,-61,89,-979,86,-38,-180,-8,4,3,1,8,-8,420,-35728,0
4589976,2397,2926,2172,2652,3391,-61,89,-979,86,-39,-179,-14,7,1,5,2,3,420,-35728,0
4589995,2399,2929,2176,2656,3391,-61,89,-979,86,-39,-179,-14,7,1,5,2,3,420,-35728,0
4590007,2399,2929,2170,2649,3391,-61,89,-979,86,-39,-180,-12,-2,-24,3,6,20,420,-35728,0
4590026,2403,2934,2167,2645,3391,-61,89,-979,86,-39,-180,-12,-2,-24,3,6,20,420,-35728,0
4590038,2411,2943,2165,2643,3390,-61,89,-978,86,-39,-180,-4,-9,-41,2,27,13,420,-35728,0
4590057,2407,2938,2164,2642,3390,-61,89,-978,86,-39,-180,-4,-9,-41,2,27,13,420,-35728,0
4590069,2401,2931,2167,2645,3390,-63,89,-978,86,-40,-180,5,-11,-15,1,48,-8,420,-35728,0
4590087,2400,2930,2175,2655,3390,-63,89,-978,86,-40,-180,5,-11,-15,1,48,-8,420,-35728,0
4590099,2400,2930,2167,2645,3390,-64,89,-978,86,-41,-180,2,-3,12,0,46,-12,420,-35728,0
4590119,2395,2924,2169,2648,3391,-65,89,-978,86,-42,-180,6,0,14,-6,32,-3,420,-35728,0
4590136,2400,2930,2169,2648,3391,-65,89,-978,86,-42,-180,6,0,14,-6,32,-3,420,-35728,0
4590148,2404,2935,2161,2638,3391,-66,89,-978,87,-43,-180,4,2,22,-10,16,12,420,-35728,0
4590167,2403,2934,2166,2644,3391,-66,89,-978,87,-43,-180,4,2,22,-10,16,12,420,-35728,0
4590179,2395,2924,2167,2645,3390,-66,89,-978,87,-43,-180,1,0,5,-1,-5,4,420,-35728,0
4590198,2392,2920,2169,2648,3390,-66,89,-978,87,-43,-180,1,0,5,-1,-5,4,420,-35728,0
4590209,2401,2931,2166,2644,3390,-66,89,-978,87,-42,-180,-3,0,1,7,-16,-11,420,-35728,0
4590228,2407,2938,2168,2647,3390,-66,89,-978,87,-42,-180,-3,0,1,7,-16,-11,420,-35728,0
4590240,2401,2931,2169,2648,3391,-65,89,-978,87,-42,-180,-5,-5,-25,1,-6,0,420,-35728,0
4590258,2402,2932,2172,2652,3391,-65,89,-978,87,-42,-180,-5,-5,-25,1,-6,0,420,-35728,0
4590270,2403,2934,2164,2642,3390,-65,89,-978,87,-42,-180,-12,-6,-12,-4,-2,6,420,-35728,0
4590289,2407,2938,2170,2649,3390,-65,89,-978,87,-42,-180,-12,-6,-12,-4,-2,6,420,-35728,0
4590301,2397,2926,2171,2650,3391,-65,89,-978,87,-42,-180,-12,0,-7,0,15,-10,420,-35728,0
4590321,2404,2935,2168,2647,3391,-65,89,-978,87,-43,-179,-11,1,-8,1,14,-16,420,-35728,0
4590338,2398,2927,2175,2655,3391,-65,89,-978,87,-43,-179,-11,1,-8,1,14,-16,420,-35728,0
4590350,2407,2938,2169,2648,3391,-66,89,-978,87,-43,-179,-7,0,-3,-2,9,1,420,-35728,0
4590369,2399,2929,2168,2647,3391,-66,89,-978,87,-43,-179,-7,0,-3,-2,9,1,420,-35728,0
4590381,2393,2921,2170,2649,3391,-66,89,-978,87,-43,-180,-6,-2,6,-5,5,15,420,-35728,0
4590399,2403,2934,2162,2639,3391,-66,89,-978,87,-43,-180,-6,-2,6,-5,5,15,420,-35728,0
4590411,2401,2931,2165,2643,3390,-66,89,-978,87,-43,-180,0,1,-9,2,3,9,420,-35728,0
4590428,2403,2934,2175,2655,3390,-66,89,-978,87,-43,-180,0,1,-9,2,3,9,420,-35728,0
4590440,2397,2926,2167,2645,3390,-66,89,-978,87,-43,-180,9,-7,-28,4,4,6,420,-35728,0
4590458,2403,2934,2170,2649,3390,-66,89,-978,87,-43,-180,9,-7,-28,4,4,6,420,-35728,0
4590470,2410,2942,2164,2642,3390,-66,89,-978,87,-43,-180,7,-12,-18,-2,12,6,420,-35728,0
4590489,2404,2935,2162,2639,3390,-66,89,-978,87,-43,-180,7,-12,-18,-2,12,6,420,-35728,0
4590501,2405,2936,2164,2642,3390,-67,89,-978,87,-44,-180,2,-14,-14,-5,11,-9,420,-35728,0
4590520,2404,2935,2175,2655,3390,-67,89,-978,87,-44,-180,2,-14,-14,-5,11,-9,420,-35728,0
4590532,2401,2931,2164,2642,3391,-67,90,-978,87,-44,-180,2,-4,6,-11,6,-17,420,-35728,0
4590551,2399,2929,2173,2653,3391,-67,90,-978,87,-44,-180,2,-4,6,-11,6,-17,420,-35728,0
4590563,2400,2930,2171,2650,3391,-67,90,-978,87,-44,-179,-3,-2,23,-10,8,-13,420,-35728,0
4590581,2403,2934,2160,2637,3391,-67,90,-978,87,-44,-179,-3,-2,23,-10,8,-13,420,-35728,0
4590594,2401,2931,2168,2647,3391,-68,90,-978,88,-44,-179,-9,6,9,-8,11,-10,420,-35728,0
4590614,2396,2925,2168,2647,3391,-68,90,-978,88,-44,-179,-7,9,6,-2,9,-13,420,-35728,0
4590631,2407,2938,2168,2647,3391,-68,90,-978,88,-44,-179,-7,9,6,-2,9,-13,420,-35728,0
4590643,2404,2935,2168,2647,3392,-68,90,-978,88,-44,-178,-7,13,0,9,8,-12,420,-35728,0
4590663,2411,2943,2167,2645,3392,-68,90,-978,87,-44,-178,-9,-2,-8,11,0,-3,420,-35728,0
4590681,2400,2930,2175,2655,3392,-68,90,-978,87,-44,-178,-9,-2,-8,11,0,-3,420,-35728,0
4590693,2404,2935,2170,2649,3392,-68,90,-978,87,-44,-179,-9,-17,-27,1,-7,7,420,-35728,0
4590712,2402,2932,2172,2652,3392,-68,90,-978,87,-44,-179,-9,-17,-27,1,-7,7,420,-35728,0
4590724,2389,2916,2168,2647,3392,-68,90,-978,88,-44,-178,-15,-16,-20,-3,1,-6,420,-35728,0
4590744,2397,2926,2172,2652,3392,-68,90,-978,88,-44,-178,-13,-8,-18,-8,5,-18,420,-35728,0
4590765,2400,2930,2169,2648,3393,-68,90,-978,88,-45,-178,-14,4,0,-8,10,-22,420,-35728,0
4590782,2401,2931,2174,2654,3393,-68,90,-978,88,-45,-178,-14,4,0,-8,10,-22,420,-35728,0
4590794,2401,2931,2160,2637,3393,-68,91,-978,88,-45,-177,-11,11,2,-5,12,-7,420,-35728,0
4590814,2403,2934,2165,2643,3393,-69,91,-978,88,-45,-177,-10,11,2,-3,13,5,420,-35728,0
4590832,2407,2938,2161,2638,3393,-69,91,-978,88,-45,-177,-10,11,2,-3,13,5,420,-35728,0
4590844,2400,2930,2173,2653,3393,-69,90,-978,88,-45,-178,-6,8,8,5,3,23,420,-35728,0
4590863,2408,2940,2173,2653,3393,-69,90,-978,88,-45,-178,-6,8,8,5,3,23,420,-35728,0
4590875,2407,2938,2162,2639,3392,-69,90,-978,88,-46,-179,-5,-8,4,11,3,20,420,-35728,0
4590893,2406,2937,2168,2647,3392,-69,90,-978,88,-46,-179,-5,-8,4,11,3,20,420,-35728,0
4590904,2400,2930,2168,2647,3391,-70,90,-978,88,-46,-179,0,-11,-15,10,5,12,420,-35728,0
4590925,2407,2938,2164,2642,3391,-70,90,-978,88,-46,-179,0,-8,-9,3,9,11,420,-35728,0
4590945,2415,2948,2160,2637,3391,-70,90,-978,88,-46,-179,1,-8,-21,0,8,15,420,-35728,0
4590965,2407,2938,2169,2648,3391,-70,90,-978,88,-46,-179,7,-3,-34,-2,10,5,420,-35728,0
4590982,2400,2930,2169,2648,3391,-70,90,-978,88,-46,-179,7,-3,-34,-2,10,5,420,-35728,0
4590994,2412,2945,2166,2644,3391,-70,90,-978,88,-46,-179,4,-3,-37,-6,16,-3,420,-35728,0
4591014,2415,2948,2171,2650,3391,-71,90,-978,88,-47,-179,2,-4,-22,-5,14,-8,420,-35728,0
4591032,2415,2948,2169,2648,3391,-71,90,-978,88,-47,-179,2,-4,-22,-5,14,-8,420,-35728,0
4591044,2401,2931,2162,2639,3391,-71,90,-978,88,-47,-179,-3,-5,4,-8,16,-8,420,-35728,0
4591064,2403,2934,2175,2655,3391,-71,90,-978,88,-47,-179,-8,-2,11,-6,21,-7,420,-35728,0
4591082,2404,2935,2172,2652,3391,-71,90,-978,88,-47,-179,-8,-2,11,-6,21,-7,420,-35728,0
4591094,2402,2932,2163,2641,3392,-72,91,-978,89,-48,-178,-10,1,8,-6,21,-10,420,-35728,0
4591113,2402,2932,2169,2648,3392,-72,91,-978,89,-48,-178,-10,1,8,-6,21,-10,420,-35728,0
4591125,2404,2935,2171,2650,3393,-73,91,-978,89,-48,-178,-17,2,23,-1,21,-15,420,-35728,0
4591143,2410,2942,2167,2645,3393,-73,91,-978,89,-48,-178,-17,2,23,-1,21,-15,420,-35728,0
4591155,2407,2938,2175,2655,3393,-73,91,-978,89,-49,-178,-17,4,6,1,18,-10,420,-35728,0
4591175,2404,2935,2168,2647,3393,-73,91,-978,89,-49,-178,-12,-1,-15,3,16,-5,420,-35728,0
4591193,2409,2941,2173,2653,3393,-73,91,-978,89,-49,-178,-12,-1,-15,3,16,-5,420,-35728,0
4591205,2405,2936,2167,2645,3393,-74,91,-978,89,-50,-178,-10,-7,-31,4,20,-1,420,-35728,0
4591226,2402,2932,2168,2647,3393,-75,91,-978,89,-50,-177,-11,-11,-33,0,27,-10,420,-35728,0
4591244,2407,2938,2166,2644,3393,-75,91,-978,89,-50,-177,-11,-11,-33,0,27,-10,420,-35728,0
4591256,2400,2930,2167,2645,3394,-76,91,-978,90,-51,-177,-10,-9,-27,-5,37,-18,420,-35728,0
4591277,2402,2932,2166,2644,3394,-76,91,-978,90,-52,-177,-9,-1,-22,-10,40,-14,420,-35728,0
4591295,2405,2936,2163,2641,3394,-76,91,-978,90,-52,-177,-9,-1,-22,-10,40,-14,420,-35728,0
4591307,2407,2938,2171,2650,3395,-78,91,-978,91,-61,-176,-5,0,-1,-13,47,-6,420,-35728,0
4591328,2405,2936,2161,2638,3395,-79,92,-978,91,-54,-176,-4,6,11,-14,48,2,420,-35728,0
4591345,2407,2938,2161,2638,3395,-79,92,-978,91,-54,-176,-4,6,11,-14,48,2,420,-35728,0
4591357,2400,2930,2164,2642,3395,-80,93,-978,91,-55,-176,0,10,19,-9,45,6,420,-35728,0
4591377,2403,2934,2165,2643,3395,-81,93,-978,92,-56,-176,0,2,21,-5,42,1,420,-35728,0
4591395,2405,2936,2165,2643,3395,-81,93,-978,92,-56,-176,0,2,21,-5,42,1,420,-35728,0
4591406,2415,2948,2164,2642,3395,-82,93,-978,92,-57,-176,1,3,11,6,35,3,420,-35728,0
4591426,2412,2945,2156,2632,3395,-83,92,-978,92,-57,-176,5,4,-5,5,29,13,420,-35728,0
4591444,2407,2938,2164,2642,3395,-83,92,-978,92,-57,-176,5,4,-5,5,29,13,420,-35728,0
4591456,2423,2958,2160,2637,3394,-83,92,-978,92,-57,-177,10,1,-24,-1,10,35,420,-35728,0
4591476,2408,2940,2161,2638,3393,-83,92,-977,92,-58,-177,8,-2,-19,1,9,35,420,-35728,0
4591493,2400,2930,2164,2642,3393,-83,92,-977,92,-58,-177,8,-2,-19,1,9,35,420,-35728,0
4591505,2405,2936,2167,2645,3393,-84,92,-977,92,-58,-178,4,-13,-12,4,10,10,420,-35728,0
4591524,2406,2937,2156,2632,3393,-84,92,-977,92,-58,-178,4,-13,-12,4,10,10,420,-35728,0
4591537,2408,2940,2160,2637,3393,-84,92,-977,92,-58,-178,3,-8,-5,0,8,0,420,-35728,0
4591556,2416,2949,2156,2632,3393,-84,92,-977,92,-58,-178,3,-8,-5,0,8,0,420,-35728,0
4591568,2408,2940,2159,2636,3392,-85,92,-977,92,-58,-178,5,3,-5,-10,1,15,420,-35728,0
4591585,2407,2938,2159,2636,3392,-85,92,-977,92,-58,-178,5,3,-5,-10,1,15,420,-35728,0
4591597,2414,2947,2154,2630,3391,-84,93,-977,92,-58,-179,4,10,3,-6,-13,16,420,-35728,0
4591617,2420,2954,2162,2639,3391,-84,93,-977,92,-58,-179,3,11,4,1,-16,12,420,-35728,0
4591635,2415,2948,2158,2634,3391,-84,93,-977,92,-58,-179,3,11,4,1,-16,12,420,-35728,0
4591647,2409,2941,2161,2638,3391,-83,92,-977,92,-57,-179,2,1,0,10,-12,10,420,-35728,0
4591666,2407,2938,2157,2633,3391,-83,92,-977,92,-57,-179,2,1,0,10,-12,10,420,-35728,0
4591678,2405,2936,2153,2628,3390,-83,92,-977,92,-57,-180,2,-5,2,6,-11,22,420,-35728,0
4591696,2410,2942,2160,2637,3390,-83,92,-977,92,-57,-180,2,-5,2,6,-11,22,420,-35728,0
4591707,2404,2935,2157,2633,3390,-83,92,-977,91,-57,-180,1,-7,0,6,-17,17,420,-35728,0
4591728,2407,2938,2166,2644,3390,-83,92,-977,91,-57,-180,4,-5,-6,5,-23,6,420,-35728,0
4591745,2408,2940,2161,2638,3390,-83,92,-977,91,-57,-180,4,-5,-6,5,-23,6,420,-35728,0
4591757,2411,2943,2158,2634,3390,-81,92,-977,91,-56,-180,4,-3,-21,4,-29,1,420,-35728,0
4591777,2407,2938,2162,2639,3390,-81,92,-977,91,-55,-180,4,-2,-19,1,-33,0,420,-35728,0
4591794,2411,2943,2159,2636,3390,-81,92,-977,91,-55,-180,4,-2,-19,1,-33,0,420,-35728,0
4591806,2407,2938,2159,2636,3390,-80,92,-977,91,-54,-180,-2,1,-3,0,-31,-6,420,-35728,0
4591825,2400,2930,2160,2637,3390,-80,92,-977,91,-54,-180,-2,1,-3,0,-31,-6,420,-35728,0
4591837,2407,2938,2155,2631,3390,-79,92,-977,91,-54,-181,0,1,2,0,-34,-2,420,-35728,0
4591855,2403,2934,2163,2641,3390,-79,92,-977,91,-54,-181,0,1,2,0,-34,-2,420,-35728,0
4591867,2408,2940,2173,2653,3390,-78,91,-977,91,-53,-181,0,0,1,1,-40,-2,420,-35728,0
4591884,2408,2940,2164,2642,3390,-78,91,-977,91,-53,-181,0,0,1,1,-40,-2,420,-35728,0
4591896,2410,2942,2161,2638,3390,-77,91,-977,91,-52,-181,-3,0,6,1,-40,-3,420,-35728,0
4591914,2405,2936,2162,2639,3390,-77,91,-977,91,-52,-181,-3,0,6,1,-40,-3,420,-35728,0
4591926,2407,2938,2169,2648,3389,-76,91,-977,90,-51,-181,0,3,-2,5,-46,-8,420,-35728,0
4591943,2408,2940,2167,2645,3389,-76,91,-977,90,-51,-181,0,3,-2,5,-46,-8,420,-35728,0
4591955,2407,2938,2164,2642,3390,-75,91,-978,90,-49,-181,2,2,-9,9,-50,-11,420,-35728,0
4591974,2407,2938,2144,2617,3390,-75,91,-978,90,-49,-181,2,2,-9,9,-50,-11,420,-35728,0
4591986,2408,2940,2166,2644,3390,-73,91,-978,90,-48,-180,1,0,-11,9,-52,-10,420,-35728,0
4592003,2405,2936,2165,2643,3390,-73,91,-978,90,-48,-180,1,0,-11,9,-52,-10,420,-35728,0
4592015,2407,2938,2166,2644,3390,-71,91,-978,89,-47,-180,1,-3,-6,3,-58,-6,420,-35728,0
4592034,2406,2937,2160,2637,3390,-71,91,-978,89,-47,-180,1,-3,-6,3,-58,-6,420,-35728,0
4592046,2403,2934,2173,2653,3390,-70,91,-978,89,-45,-180,-3,-6,-10,-1,-56,-6,420,-35728,0
4592064,2403,2934,2166,2644,3390,-70,91,-978,89,-45,-180,-3,-6,-10,-1,-56,-6,420,-35728,0
4592077,2402,2932,2166,2644,3390,-68,91,-978,89,-44,-180,-9,-4,2,-1,-51,-15,420,-35728,0
4592094,2398,2927,2166,2644,3390,-68,91,-978,89,-44,-180,-9,-4,2,-1,-51,-15,420,-35728,0
4592107,2407,2938,2170,2649,3390,-66,91,-978,89,-43,-180,-8,5,-1,-1,-53,-18,420,-35728,0
4592125,2408,2940,2173,2653,3390,-66,91,-978,89,-43,-180,-8,5,-1,-1,-53,-18,420,-35728,0
4592137,2396,2925,2168,2647,3391,-65,91,-978,88,-41,-180,-10,5,-12,0,-51,-13,420,-35728,0
4592155,2400,2930,2170,2649,3391,-65,91,-978,88,-41,-180,-10,5,-12,0,-51,-13,420,-35728,0
4592167,2399,2929,2171,2650,3391,-63,91,-978,88,-40,-179,-17,-1,-6,3,-48,-8,420,-35728,0
4592185,2397,2926,2173,2653,3391,-63,91,-978,88,-40,-179,-17,-1,-6,3,-48,-8,420,-35728,0
4592197,2399,2929,2172,2652,3391,-62,91,-978,88,-39,-179,-18,-6,-12,4,-41,-9,420,-35728,0
4592215,2400,2930,2181,2663,3391,-62,91,-978,88,-39,-179,-18,-6,-12,4,-41,-9,420,-35728,0
4592227,2395,2924,2171,2650,3391,-61,91,-979,88,-38,-179,-18,-4,-11,1,-31,-15,420,-35728,0
4592245,2393,2921,2172,2652,3391,-61,91,-979,88,-38,-179,-18,-4,-11,1,-31,-15,420,-35728,0
4592258,2398,2927,2172,2652,3392,-61,91,-979,88,-38,-179,-21,1,-3,-3,-20,-13,420,-35728,0
4592277,2392,2920,2175,2655,3392,-61,91,-979,88,-38,-179,-21,1,-3,-3,-20,-13,420,-35728,0
4592289,2399,2929,2171,2650,3392,-61,91,-979,88,-38,-179,-17,7,-9,-5,-11,-9,420,-35728,0
4592309,2400,2930,2175,2655,3392,-61,91,-979,88,-38,-179,-20,9,-2,-1,-4,-5,420,-35728,0
4592330,2395,2924,2175,2655,3392,-61,91,-979,88,-38,-179,-18,9,0,2,1,-1,420,-35728,0
4592350,2397,2926,2172,2652,3392,-61,91,-979,88,-38,-179,-16,3,-13,5,0,3,420,-35728,0
4592370,2395,2924,2176,2656,3392,-61,91,-979,88,-38,-179,-15,-5,-11,4,2,11,420,-35728,0
4592387,2399,2929,2176,2656,3392,-61,91,-979,88,-38,-179,-15,-5,-11,4,2,11,420,-35728,0
4592400,2398,2927,2175,2655,3391,-61,91,-979,88,-38,-179,-15,-8,-12,2,2,6,420,-35728,0
4592419,2405,2936,2176,2656,3391,-61,91,-979,88,-38,-179,-15,-8,-12,2,2,6,420,-35728,0
4592431,2397,2926,2173,2653,3391,-61,91,-979,88,-39,-179,-15,0,-7,-2,14,0,420,-35728,0
4592452,2407,2938,2169,2648,3391,-62,91,-979,88,-39,-179,-16,5,-8,-2,18,6,420,-35728,0
4592472,2395,2924,2172,2652,3391,-63,91,-978,88,-40,-179,-14,7,-5,-3,21,8,420,-35728,0
4592490,2398,2927,2171,2650,3391,-63,91,-978,88,-40,-179,-14,7,-5,-3,21,8,420,-35728,0
4592502,2400,2930,2171,2650,3391,-63,91,-978,88,-40,-179,-12,7,-8,0,27,10,420,-35728,0
4592522,2404,2935,2173,2653,3391,-64,91,-978,88,-41,-179,-7,4,-8,3,26,11,420,-35728,0
4592539,2403,2934,2171,2650,3391,-64,91,-978,88,-41,-179,-7,4,-8,3,26,11,420,-35728,0
4592551,2407,2938,2168,2647,3391,-65,91,-978,88,-42,-180,-7,-4,-4,1,32,12,420,-35728,0
4592571,2400,2930,2172,2652,3390,-66,91,-978,89,-42,-180,-7,-3,0,0,38,13,420,-35728,0
4592589,2400,2930,2170,2649,3390,-66,91,-978,89,-42,-180,-7,-3,0,0,38,13,420,-35728,0
4592601,2406,2937,2166,2644,3390,-67,91,-978,89,-43,-180,-5,-1,-14,-1,38,9,420,-35728,0
4592621,2407,2938,2171,2650,3390,-68,91,-978,89,-44,-180,-2,3,-7,-1,43,7,420,-35728,0
4592638,2415,2948,2164,2642,3390,-68,91,-978,89,-44,-180,-2,3,-7,-1,43,7,420,-35728,0
4592650,2406,2937,2170,2649,3390,-69,91,-978,89,-45,-180,-3,6,-3,-1,41,10,420,-35728,0
4592669,2412,2945,2165,2643,3390,-69,91,-978,89,-45,-180,-3,6,-3,-1,41,10,420,-35728,0
4592681,2406,2937,2174,2654,3390,-70,91,-978,89,-46,-180,-2,2,-5,1,39,15,420,-35728,0
4592699,2413,2946,2170,2649,3390,-70,91,-978,89,-46,-180,-2,2,-5,1,39,15,420,-35728,0
4592711,2407,2938,2166,2644,3390,-71,91,-978,89,-47,-181,-1,0,-6,0,45,15,420,-35728,0
4592731,2415,2948,2161,2638,3389,-73,91,-978,90,-48,-181,0,1,-5,0,40,15,420,-35728,0
4592748,2403,2934,2175,2655,3389,-73,91,-978,90,-48,-181,0,1,-5,0,40,15,420,-35728,0
4592760,2404,2935,2164,2642,3389,-73,91,-977,90,-49,-181,-1,-3,0,0,36,9,420,-35728,0
4592779,2399,2929,2163,2641,3389,-73,91,-977,90,-49,-181,-1,-3,0,0,36,9,420,-35728,0
4592791,2407,2938,2172,2652,3389,-75,91,-977,90,-50,-181,1,-1,-1,0,38,6,420,-35728,0
4592810,2402,2932,2169,2648,3389,-75,91,-977,90,-50,-181,1,-1,-1,0,38,6,420,-35728,0
4592822,2407,2938,2164,2642,3388,-76,91,-977,90,-51,-181,4,4,-15,-2,40,10,420,-35728,0
4592839,2410,2942,2164,2642,3388,-76,91,-977,90,-51,-181,4,4,-15,-2,40,10,420,-35728,0
4592851,2413,2946,2164,2642,3388,-77,91,-977,90,-52,-181,5,0,-14,-4,43,8,420,-35728,0
4592871,2411,2943,2167,2645,3388,-78,91,-977,90,-53,-181,4,-1,-5,0,42,-1,420,-35728,0
4592888,2408,2940,2164,2642,3388,-78,91,-977,90,-53,-181,4,-1,-5,0,42,-1,420,-35728,0
4592900,2411,2943,2168,2647,3388,-79,91,-977,91,-54,-181,6,-2,-13,-1,38,-3,420,-35728,0
4592919,2412,2945,2174,2654,3388,-79,91,-977,91,-54,-181,6,-2,-13,-1,38,-3,420,-35728,0
4592931,2411,2943,2164,2642,3389,-80,91,-977,91,-54,-181,7,-2,-7,-6,28,-3,420,-35728,0
4592948,2407,2938,2162,2639,3389,-80,91,-977,91,-54,-181,7,-2,-7,-6,28,-3,420,-35728,0
4592960,2404,2935,2161,2638,3389,-81,91,-977,91,-55,-181,5,0,3,-6,26,-7,420,-35728,0
4592979,2408,2940,2157,2633,3389,-81,91,-977,91,-55,-181,5,0,3,-6,26,-7,420,-35728,0
4592991,2409,2941,2163,2641,3389,-81,91,-977,91,-56,-181,7,4,6,0,23,-9,420,-35728,0
4593009,2400,2930,2163,2641,3389,-81,91,-977,91,-56,-181,7,4,6,0,23,-9,420,-35728,0
4593021,2415,2948,2162,2639,3390,-82,91,-977,91,-56,-181,6,3,0,-1,21,-5,420,-35728,0
4593038,2409,2941,2159,2636,3390,-82,91,-977,91,-56,-181,6,3,0,-1,21,-5,420,-35728,0
4593050,2423,2958,2160,2637,3390,-83,91,-977,91,-56,-181,7,-3,-12,-2,15,-1,420,-35728,0
4593069,2412,2945,2164,2642,3390,-83,91,-977,91,-56,-181,7,-3,-12,-2,15,-1,420,-35728,0
4593081,2411,2943,2155,2631,3390,-83,92,-977,91,-57,-180,5,-5,-5,-2,0,-8,420,-35728,0
4593100,2411,2943,2157,2633,3390,-83,92,-977,91,-57,-180,5,-5,-5,-2,0,-8,420,-35728,0
4593112,2408,2940,2161,2638,3390,-82,92,-977,91,-56,-180,4,-2,-3,-5,-15,-16,420,-35728,0
4593132,2400,2930,2175,2655,3390,-82,92,-977,91,-56,-180,2,2,-6,-3,-18,-18,420,-35728,0
4593149,2410,2942,2164,2642,3390,-82,92,-977,91,-56,-180,2,2,-6,-3,-18,-18,420,-35728,0
4593161,2405,2936,2160,2637,3391,-81,92,-977,91,-56,-179,-8,1,-2,-5,-6,-11,420,-35728,0
4593180,2403,2934,2164,2642,3391,-81,92,-977,91,-56,-179,-8,1,-2,-5,-6,-11,420,-35728,0
4593192,2404,2935,2161,2638,3391,-81,92,-977,91,-56,-179,-5,0,-12,-1,1,-15,420,-35728,0
4593213,2415,2948,2162,2639,3391,-81,92,-977,91,-56,-179,-7,-2,-8,-3,8,-15,420,-35728,0
