Timestamp_ms,ADC1_Raw,ADC1_V_milli,ADC2_Raw,ADC2_V_milli,Heading_deci,Roll_deci,Pitch_deci,Quat_W_milli,Quat_X_milli,Quat_Y_milli,Quat_Z_milli,LinAccel_X_centi,LinAccel_Y_centi,LinAccel_Z_centi,AngVel_X_deci,AngVel_Y_deci,AngVel_Z_deci,Temp_C_deci,Encoder_Count,Encoder_RPM_deci
4640560,2379,2904,2223,2714,3369,30,85,-976,67,41,-199,-1,9,14,0,10,10,420,-37305,0
4640572,2377,2902,2210,2698,3368,30,85,-976,67,41,-199,0,3,10,4,-2,7,420,-37305,0
4640591,2374,2898,2211,2699,3368,30,85,-976,67,41,-199,0,3,10,4,-2,7,420,-37305,0
4640603,2382,2908,2211,2699,3368,30,5,-976,67,41,-199,3,0,-15,5,-9,4,420,-37305,0
4640621,2379,2904,2217,2706,3368,30,5,-976,67,41,-199,3,0,-15,5,-9,4,420,-37305,0
4640632,2379,2904,2214,2703,3368,30,85,-976,67,41,-199,0,-5,-4,3,-3,0,420,-37305,0
4640651,2376,2901,2217,2706,3368,30,85,-976,67,41,-199,0,-5,-4,3,-3,0,420,-37305,0
4640663,2375,2899,2214,2703,3368,30,85,-976,67,41,-199,-1,-1,-12,-3,-2,3,420,-37305,0
4640681,2375,2899,2223,2714,3368,30,85,-976,67,41,-199,-1,-1,-12,-3,-2,3,420,-37305,0
4640694,2372,2896,2216,2705,3368,30,85,-976,67,41,-199,1,0,-22,-3,-7,-3,420,-37305,0
4640712,2375,2899,2215,2704,3368,30,85,-976,67,41,-199,1,0,-22,-3,-7,-3,420,-37305,0
4640724,2374,2898,2219,2709,3368,30,85,-976,67,41,-199,-2,2,3,-3,-6,-8,420,-37305,0
4640742,2375,2899,2217,2706,3368,30,85,-976,67,41,-199,-2,2,3,-3,-6,-8,420,-37305,0
4640754,2364,2886,2212,2700,3369,30,5,-976,67,41,-199,-7,5,5,-4,-9,-9,420,-37305,0
4640772,2374,2898,2216,2705,3369,30,5,-976,67,41,-199,-7,5,5,-4,-9,-9,420,-37305,0
4640784,2374,2898,2216,2705,3369,31,85,-976,67,41,-198,-8,5,6,0,-5,-6,420,-37305,0
4640803,2378,2903,2218,2708,3369,31,85,-976,67,41,-198,-8,5,6,0,-5,-6,420,-37305,0
4640814,2377,2902,2217,2706,3369,31,85,-976,67,42,-198,-9,0,17,1,-10,-7,420,-37305,0
4640833,2371,2894,2219,2709,3369,31,85,-976,67,42,-198,-9,0,17,1,-10,-7,420,-37305,0
4640844,2374,2898,2216,2705,3370,31,85,-976,67,42,-198,-7,3,-7,3,-15,-7,420,-37305,0
4640863,2376,2901,2215,2704,3370,31,85,-976,67,42,-198,-7,3,-7,3,-15,-7,420,-37305,0
4640875,2376,2901,2216,2705,3370,32,85,-976,67,43,-198,-12,1,-5,4,-31,0,420,-37305,0
4641314,2384,2910,2218,2708,3369,41,85,-976,65,50,-198,-4,3,-18,-5,-23,6,420,-37305,0
4641327,2372,2896,2216,2705,3369,41,85,-976,65,51,-198,-4,-1,-7,-3,-26,1,420,-37305,0
4641345,2367,2890,2220,2710,3369,41,85,-976,65,51,-198,-4,-1,-7,-3,-26,1,420,-37305,0
4641357,2375,2899,2216,2705,3369,42,85,-976,65,51,-198,-8,-2,-3,-1,-25,-10,420,-37305,0
4641375,2379,2904,2221,2711,3369,42,85,-976,65,51,-198,-8,-2,-3,-1,-25,-10,420,-37305,0
4641387,2379,2904,2225,2716,3370,43,85,-976,65,52,-198,-10,-1,4,-5,-14,-8,420,-37305,0
4641405,2367,2890,2221,2711,3370,43,85,-976,65,52,-198,-10,-1,4,-5,-14,-8,420,-37305,0
4641417,2368,2891,2225,2716,3370,43,85,-976,65,52,-198,-11,3,8,-6,-18,-1,420,-37305,0
4641436,2367,2890,2231,2724,3370,43,85,-976,65,52,-198,-11,3,8,-6,-18,-1,420,-37305,0
4641447,2369,2892,2222,2713,3370,44,85,-976,65,53,-198,-7,5,8,-5,-23,-4,420,-37305,0
4641465,2365,2887,2223,2714,3370,44,85,-976,65,53,-198,-7,5,8,-5,-23,-4,420,-37305,0
4641477,2368,2891,2217,2706,3370,45,85,-976,65,53,-198,-6,10,16,3,-25,-6,420,-37305,0
4641495,2371,2894,2218,2708,3370,45,85,-976,65,53,-198,-6,10,16,3,-25,-6,420,-37305,0
4641507,2364,2886,2222,2713,3370,45,85,-976,65,54,-198,-5,4,-5,5,-23,2,420,-37305,0
4641525,2369,2892,2230,2722,3370,45,85,-976,65,54,-198,-5,4,-5,5,-23,2,420,-37305,0
4641537,2369,2892,2219,2709,3369,46,85,-976,65,54,-198,0,0,-6,1,-22,11,420,-37305,0
4641555,2360,2881,2220,2710,3369,46,85,-976,65,54,-198,0,0,-6,1,-22,11,420,-37305,0
4641566,2369,2892,2223,2714,3369,46,85,-976,65,55,-199,-6,-1,-1,2,-16,0,420,-37305,0
4641585,2362,2884,2214,2703,3369,46,85,-976,65,55,-199,-6,-1,-1,2,-16,0,420,-37305,0
4641596,2366,2888,2223,2714,3369,46,85,-976,65,55,-198,-4,1,-9,3,-17,-8,420,-37305,0
4641614,2365,2887,2223,2714,3369,46,85,-976,65,55,-198,-4,1,-9,3,-17,-8,420,-37305,0
4641626,2366,2888,2222,2713,3369,47,85,-976,64,56,-198,-4,1,-9,0,-18,-2,420,-37305,0
4641645,2369,2892,2222,2713,3369,47,85,-976,64,56,-198,-4,1,-9,0,-18,-2,420,-37305,0
4641657,2377,2902,2220,2710,3369,48,85,-976,64,56,-198,-1,1,-20,-1,-24,3,420,-37305,0
4641675,2372,2896,2227,2719,3369,48,85,-976,64,56,-198,-1,1,-20,-1,-24,3,420,-37305,0
4641687,2368,2891,2226,2717,3369,48,85,-976,64,57,-198,-5,2,-5,0,-31,-6,420,-37305,0
4641705,2369,2892,2224,2715,3369,48,85,-976,64,57,-198,-5,2,-5,0,-31,-6,420,-37305,0
4641716,2369,2892,2234,2727,3369,50,85,-976,64,58,-198,-2,3,0,0,-35,-10,420,-37305,0
4641735,2367,2890,2224,2715,3369,50,85,-976,64,58,-198,-2,3,0,0,-35,-10,420,-37305,0
4641747,2365,2887,2219,2709,3369,51,85,-976,64,58,-198,-2,3,-4,-1,-32,-1,420,-37305,0
4641764,2366,2888,2222,2713,3369,51,85,-976,64,58,-198,-2,3,-4,-1,-32,-1,420,-37305,0
4641776,2360,2881,2228,2720,3369,51,85,-976,64,60,-198,0,1,-10,-3,-35,3,420,-37305,0
4641795,2379,2904,2224,2715,3369,51,85,-976,64,60,-198,0,1,-10,-3,-35,3,420,-37305,0
4641807,2366,2888,2222,2713,3369,53,85,-976,63,60,-198,-8,1,-3,0,-33,-6,420,-37305,0
4641825,2364,2886,2225,2716,3369,53,85,-976,63,60,-198,-8,1,-3,0,-33,-6,420,-37305,0
4641837,2367,2890,2227,2719,3369,53,85,-976,63,61,-198,-13,1,8,1,-34,-11,420,-37305,0
4641855,2373,2897,2220,2710,3369,53,85,-976,63,61,-198,-13,1,8,1,-34,-11,420,-37305,0
4641867,2364,2886,2224,2715,3370,55,85,-976,63,62,-198,-14,4,12,0,-38,-3,420,-37305,0
4641885,2367,2890,2226,2717,3370,55,85,-976,63,62,-198,-14,4,12,0,-38,-3,420,-37305,0
4641897,2367,2890,2222,2713,3370,55,85,-976,63,63,-198,-10,3,0,1,-30,-1,420,-37305,0
4641915,2367,2890,2227,2719,3370,55,85,-976,63,63,-198,-10,3,0,1,-30,-1,420,-37305,0
4641927,2364,2886,2231,2724,3369,56,85,-975,63,63,-198,-9,2,0,3,-21,-2,420,-37305,0
4641945,2364,2886,2230,2722,3369,56,85,-975,63,63,-198,-9,2,0,3,-21,-2,420,-37305,0
4641957,2363,2885,2229,2721,3369,56,85,-975,63,64,-198,-7,2,-8,5,-20,-5,420,-37305,0
4641976,2367,2890,2239,2733,3369,56,85,-975,63,64,-198,-7,2,-8,5,-20,-5,420,-37305,0
4641987,2367,2890,2231,2724,3369,57,85,-975,63,64,-198,-7,3,-3,2,-21,0,420,-37305,0
4642005,2371,2894,2225,2716,3369,57,85,-975,63,64,-198,-7,3,-3,2,-21,0,420,-37305,0
4642017,2365,2887,2229,2721,3369,58,85,-975,62,65,-198,-8,2,-16,1,-23,1,420,-37305,0
4642036,2362,2884,2230,2722,3369,58,85,-975,62,65,-198,-8,2,-16,1,-23,1,420,-37305,0
4642047,2376,2901,2230,2722,3369,58,85,-975,62,65,-198,-11,4,-8,1,-18,0,420,-37305,0
4642065,2375,2899,2230,2722,3369,58,85,-975,62,65,-198,-11,4,-8,1,-18,0,420,-37305,0
4642077,2367,2890,2234,2727,3369,59,85,-975,62,66,-198,-12,2,-3,3,-22,-1,420,-37305,0
4642096,2367,2890,2228,2720,3369,59,85,-975,62,66,-198,-12,2,-3,3,-22,-1,420,-37305,0
4642108,2364,2886,2232,2725,3369,60,85,-975,62,66,-198,-13,3,-8,2,-15,2,420,-37305,0
4642127,2367,2890,2233,2726,3369,60,85,-975,62,66,-198,-13,3,-8,2,-15,2,420,-37305,0
4642138,2366,2888,2232,2725,3369,60,85,-975,62,67,-198,-9,0,-11,0,-11,3,420,-37305,0
4642157,2368,2891,2230,2722,3369,60,85,-975,62,67,-198,-9,0,-11,0,-11,3,420,-37305,0
4642169,2376,2901,2242,2737,3369,60,85,-975,62,67,-198,-13,-1,3,-1,-9,0,420,-37305,0
4642187,2367,2890,2235,2728,3369,60,85,-975,62,67,-198,-13,-1,3,-1,-9,0,420,-37305,0
4642199,2379,2904,2233,2726,3369,60,85,-975,62,67,-198,-10,3,-4,0,-8,-1,420,-37305,0
4642217,2391,2919,2240,2735,3369,60,85,-975,62,67,-198,-10,3,-4,0,-8,-1,420,-37305,0
4642229,2358,2879,2229,2721,3369,60,85,-975,62,67,-198,-11,2,-17,0,0,2,420,-37305,0
4642247,2367,2890,2229,2721,3369,60,85,-975,62,67,-198,-11,2,-17,0,0,2,420,-37305,0
4642259,2378,2903,2232,2725,3369,60,85,-975,62,67,-198,-11,2,-15,-1,3,1,420,-37305,0
4642278,2371,2894,2232,2725,3369,60,85,-975,62,67,-198,-11,2,-15,-1,3,1,420,-37305,0
4642290,2368,2891,2239,2733,3369,60,85,-975,62,67,-198,-9,0,-12,0,6,-1,420,-37305,0
4642308,2371,2894,2230,2722,3369,60,85,-975,62,67,-198,-9,0,-12,0,6,-1,420,-37305,0
4642320,2363,2885,2230,2722,3369,60,85,-975,62,67,-198,-9,-1,0,-2,8,1,420,-37305,0
4642338,2367,2890,2231,2724,3369,60,85,-975,62,67,-198,-9,-1,0,-2,8,1,420,-37305,0
4642349,2367,2890,2225,2716,3369,60,85,-975,62,67,-198,-10,0,3,-4,5,1,420,-37305,0
4642368,2363,2885,2231,2724,3369,60,85,-975,62,67,-198,-10,0,3,-4,5,1,420,-37305,0
4642379,2371,2894,2227,2719,3369,60,85,-975,62,67,-198,-9,4,4,-5,0,-3,420,-37305,0
4642397,2360,2881,2228,2720,3369,60,85,-975,62,67,-198,-9,4,4,-5,0,-3,420,-37305,0
4642409,2363,2885,2230,2722,3369,60,85,-975,62,67,-198,-5,6,3,0,5,-2,420,-37305,0
4642428,2362,2884,2229,2721,3369,60,85,-975,62,67,-198,-5,6,3,0,5,-2,420,-37305,0
4642439,2363,2885,2229,2721,3369,60,85,-975,62,66,-198,-12,6,20,0,0,5,420,-37305,0
4642458,2366,2888,2225,2716,3369,60,85,-975,62,66,-198,-12,6,20,0,0,5,420,-37305,0
4642469,2368,2891,2225,2716,3369,60,85,-975,62,66,-198,-10,2,11,3,-4,8,420,-37305,0
4642488,2366,2888,2231,2724,3369,60,85,-975,62,66,-198,-10,2,11,3,-4,8,420,-37305,0
4642500,2366,2888,2232,2725,3369,60,85,-975,62,67,-199,-8,4,3,5,-6,7,420,-37305,0
4642518,2362,2884,2226,2717,3369,60,85,-975,62,67,-199,-8,4,3,5,-6,7,420,-37305,0
4642530,2364,2886,2229,2721,3368,60,85,-975,62,67,-199,-9,6,-20,1,-11,9,420,-37305,0
4642548,2368,2891,2228,2720,3368,60,85,-975,62,67,-199,-9,6,-20,1,-11,9,420,-37305,0
4642560,2365,2887,2232,2725,3368,60,85,-975,62,67,-199,-27,5,34,7,0,3,420,-37305,0
4642578,2379,2904,2228,2720,3368,60,85,-975,62,67,-199,-27,5,34,7,0,3,420,-37305,0
4642590,2370,2893,2233,2726,3368,60,85,-975,62,67,-199,-17,10,-12,15,19,3,420,-37305,0
4642608,2367,2890,2234,2727,3368,60,85,-975,62,67,-199,-17,10,-12,15,19,3,420,-37305,0
4642620,2364,2886,2235,2728,3368,59,85,-975,61,65,-199,-8,6,-36,17,31,7,420,-37305,0
4642639,2372,2896,2236,2730,3368,59,85,-975,61,65,-199,-8,6,-36,17,31,7,420,-37305,0
4642650,2375,2899,2233,2726,3368,58,84,-975,61,64,-199,-6,-2,-27,13,35,11,420,-37305,0
4642669,2371,2894,2235,2728,3368,58,84,-975,61,64,-199,-6,-2,-27,13,35,11,420,-37305,0
4642681,2376,2901,2232,2725,3368,57,84,-975,61,64,-200,-11,-4,-4,8,21,6,420,-37305,0
4642699,2370,2893,2233,2726,3368,57,84,-975,61,64,-200,-11,-4,-4,8,21,6,420,-37305,0
4642711,2362,2884,2234,2727,3368,56,84,-975,61,63,-199,-6,-1,-33,4,27,1,420,-37305,0
4642729,2368,2891,2230,2722,3368,56,84,-975,61,63,-199,-6,-1,-33,4,27,1,420,-37305,0
4642741,2367,2890,2230,2722,3368,56,84,-975,62,62,-199,2,-5,-30,-1,43,0,420,-37305,0
4642759,2369,2892,2224,2715,3368,56,84,-975,62,62,-199,2,-5,-30,-1,43,0,420,-37305,0
4642770,2369,2892,2230,2722,3368,54,84,-975,62,61,-199,-11,-3,9,-10,49,-1,420,-37305,0
4642790,2367,2890,2222,2713,3368,53,84,-975,62,60,-199,-17,-1,30,-11,36,-3,420,-37305,0
4642808,2364,2886,2224,2715,3368,53,84,-975,62,60,-199,-17,-1,30,-11,36,-3,420,-37305,0
4642820,2375,2899,2224,2715,3368,52,84,-975,63,60,-199,-10,1,20,-11,26,2,420,-37305,0
4642839,2375,2899,2222,2713,3368,52,84,-975,63,60,-199,-10,1,20,-11,26,2,420,-37305,0
4642851,2370,2893,2225,2716,3368,51,85,-976,63,59,-199,-4,0,12,-9,23,2,420,-37305,0
4642868,2370,2893,2220,2710,3368,51,85,-976,63,59,-199,-4,0,12,-9,23,2,420,-37305,0
4642880,2371,2894,2218,2708,3368,51,85,-976,63,58,-199,-2,7,17,-11,25,3,420,-37305,0
4642898,2367,2890,2218,2708,3368,51,85,-976,63,58,-199,-2,7,17,-11,25,3,420,-37305,0
4642910,2372,2896,2221,2711,3368,50,85,-976,64,58,-199,-5,11,-10,-5,24,1,420,-37305,0
4642929,2367,2890,2218,2708,3368,50,85,-976,64,58,-199,-5,11,-10,-5,24,1,420,-37305,0
4642941,2361,2882,2218,2708,3368,50,85,-976,64,57,-199,2,12,-37,1,5,5,420,-37305,0
4642960,2367,2890,2222,2713,3368,50,85,-976,64,57,-199,2,12,-37,1,5,5,420,-37305,0
4642972,2367,2890,2230,2722,3368,50,85,-976,64,58,-199,-4,0,-15,-3,-10,11,420,-37305,0
4642991,2368,2891,2220,2710,3368,50,85,-976,64,58,-199,-4,0,-15,-3,-10,11,420,-37305,0
4643003,2367,2890,2221,2711,3368,50,85,-975,64,58,-200,-1,-2,-21,-8,-26,10,420,-37305,0
4643021,2368,2891,2218,2708,3368,50,85,-975,64,58,-200,-1,-2,-21,-8,-26,10,420,-37305,0
4643033,2364,2886,2218,2708,3368,51,85,-975,64,59,-200,-5,-13,15,0,-8,-6,420,-37305,0
4643050,2358,2879,2218,2708,3368,51,85,-975,64,59,-200,-5,-13,15,0,-8,-6,420,-37305,0
4643062,2364,2886,2223,2714,3368,51,85,-976,64,59,-199,-15,-12,11,5,5,-25,420,-37305,0
4643082,2367,2890,2222,2713,3368,51,85,-976,64,59,-199,-17,-6,5,1,-18,-25,420,-37305,0
4643100,2364,2886,2220,2710,3368,51,85,-976,64,59,-199,-17,-6,5,1,-18,-25,420,-37305,0
4643112,2365,2887,2221,2711,3369,52,85,-976,64,60,-199,-5,4,-19,-12,-67,5,420,-37305,0
4643131,2360,2881,2212,2700,3369,52,85,-976,64,60,-199,-5,4,-19,-12,-67,5,420,-37305,0
4643143,2363,2885,2222,2713,3368,54,86,-975,64,62,-199,-10,1,10,-16,-51,18,420,-37305,0
4643161,2360,2881,2226,2717,3368,54,86,-975,64,62,-199,-10,1,10,-16,-51,18,420,-37305,0
4643173,2354,2874,2224,2715,3368,55,86,-975,64,62,-199,-15,5,-1,-19,-2,-1,420,-37305,0
4643192,2364,2886,2223,2714,3368,55,86,-975,64,62,-199,-15,5,-1,-19,-2,-1,420,-37305,0
4643204,2362,2884,2221,2711,3368,54,86,-975,64,62,-199,-13,21,14,-9,17,-6,420,-37305,0
4643222,2365,2887,2225,2716,3368,54,86,-975,64,62,-199,-13,21,14,-9,17,-6,420,-37305,0
4643234,2364,2886,2227,2719,3368,53,86,-975,64,61,-199,-13,28,42,6,26,8,420,-37305,0
4643251,2362,2884,2226,2717,3368,53,86,-975,64,61,-199,-13,28,42,6,26,8,420,-37305,0
4643263,2371,2894,2219,2709,3368,53,86,-975,64,60,-200,-4,11,29,26,18,27,420,-37305,0
4643282,2364,2886,2224,2715,3368,53,86,-975,64,60,-200,-4,11,29,26,18,27,420,-37305,0
4643294,2371,2894,2231,2724,3366,52,85,-975,63,60,-200,14,-8,-37,23,11,31,420,-37305,0
4643312,2376,2901,2240,2735,3366,52,85,-975,63,60,-200,14,-8,-37,23,11,31,420,-37305,0
4643324,2375,2899,2243,2738,3366,51,85,-975,63,59,-201,15,-17,-41,17,25,2,420,-37305,0
4643343,2352,2871,2227,2719,3366,51,85,-975,63,59,-201,15,-17,-41,17,25,2,420,-37305,0
4643355,2374,2898,2234,2727,3366,51,84,-975,63,58,-200,12,-6,-39,11,37,-23,420,-37305,0
4643374,2375,2899,2233,2726,3366,51,84,-975,63,58,-200,12,-6,-39,11,37,-23,420,-37305,0
4643386,2376,2901,2232,2725,3367,50,84,-975,63,58,-200,6,-1,-40,-3,29,-15,420,-37305,0
4643403,2374,2898,2224,2715,3367,50,84,-975,63,58,-200,6,-1,-40,-3,29,-15,420,-37305,0
4643415,2368,2891,2224,2715,3368,50,85,-975,63,57,-200,5,-1,-49,-15,2,3,420,-37305,0
4643435,2375,2899,2225,2716,3367,50,85,-975,64,58,-200,4,-1,-50,-21,-18,8,420,-37305,0
4643452,2368,2891,2221,2711,3367,50,85,-975,64,58,-200,4,-1,-50,-21,-18,8,420,-37305,0
4643464,2369,2892,2218,2708,3367,51,86,-975,64,59,-200,-6,-2,-12,-20,-36,-7,420,-37305,0
4643483,2368,2891,2219,2709,3367,51,86,-975,64,59,-200,-6,-2,-12,-20,-36,-7,420,-37305,0
4643495,2365,2887,2219,2709,3368,52,86,-975,64,60,-199,-13,3,24,-19,-41,-13,420,-37305,0
4643513,2355,2875,2218,2708,3368,52,86,-975,64,60,-199,-13,3,24,-19,-41,-13,420,-37305,0
4643525,2364,2886,2222,2713,3368,53,86,-975,64,61,-199,-23,-7,87,-16,-30,-8,420,-37305,0
4643545,2367,2890,2222,2713,3368,54,87,-975,65,61,-199,-26,8,90,-16,-29,1,420,-37305,0
4643563,2364,2886,2212,2700,3368,54,87,-975,65,61,-199,-26,8,90,-16,-29,1,420,-37305,0
4643575,2366,2888,2223,2714,3368,55,87,-975,65,62,-199,0,16,-20,-5,-33,-1,420,-37305,0
4643594,2372,2896,2228,2720,3368,55,87,-975,65,62,-199,0,16,-20,-5,-33,-1,420,-37305,0
4643606,2362,2884,2235,2728,3368,56,87,-975,65,63,-199,-10,23,46,5,-48,-11,420,-37305,0
4643626,2368,2891,2227,2719,3368,57,87,-975,64,64,-199,-7,26,47,18,-134,-10,420,-37305,0
4643647,2368,2891,2230,2722,3368,58,86,-975,63,65,-199,-4,13,10,25,-53,6,420,-37305,0
4643664,2368,2891,2225,2716,3368,58,86,-975,63,65,-199,-4,13,10,25,-53,6,420,-37305,0
4643676,2368,2891,2228,2720,3367,59,86,-975,63,66,-200,6,-9,-67,21,-37,32,420,-37305,0
4643696,2375,2899,2230,2722,3366,60,86,-975,62,66,-200,3,-16,-64,13,-18,21,420,-37305,0
4643714,2368,2891,2244,2739,3366,60,86,-975,62,66,-200,3,-16,-64,13,-18,21,420,-37305,0
4643726,2369,2892,2235,2728,3366,60,85,-975,62,66,-200,-15,-21,-8,10,-3,-26,420,-37305,0
4643745,2367,2890,2234,2727,3366,60,85,-975,62,66,-200,-15,-21,-8,10,-3,-26,420,-37305,0
4643757,2364,2886,2232,2725,3368,60,85,-975,62,66,-199,-8,-6,-11,1,-1,-45,420,-37305,0
4643778,2363,2885,2235,2728,3368,60,85,-975,62,66,-199,-1,7,-46,-13,-8,-10,420,-37305,0
4643799,2361,2882,2242,2737,3369,60,85,-975,62,67,-198,-4,13,-43,-16,-10,2,420,-37305,0
4643817,2367,2890,2235,2728,3369,60,85,-975,62,67,-198,-4,13,-43,-16,-10,2,420,-37305,0
4643829,2368,2891,2227,2719,3369,61,86,-975,62,67,-199,-18,13,-16,-6,-30,-5,420,-37305,0
4643850,2377,2902,2224,2715,3369,61,86,-975,62,68,-198,-24,11,9,-3,-29,-11,420,-37305,0
4643869,2366,2888,2237,2731,3369,61,86,-975,62,68,-198,-24,11,9,-3,-29,-11,420,-37305,0
4643881,2364,2886,2236,2730,3369,62,86,-975,62,68,-198,-25,1,6,3,-18,-3,420,-37305,0
4643901,2365,2887,2233,2726,3369,62,86,-975,62,69,-198,-27,0,7,-1,-5,11,420,-37305,0
4643920,2364,2886,2235,2728,3369,62,86,-975,62,69,-198,-27,0,7,-1,-5,11,420,-37305,0
4643932,2363,2885,2234,2727,3369,62,86,-975,62,68,-199,-31,-1,12,-6,7,11,420,-37305,0
4643952,2364,2886,2224,2715,3368,61,86,-975,62,68,-199,-30,-3,19,-1,19,2,420,-37305,0
4643971,2362,2884,2234,2727,3368,61,86,-975,62,68,-199,-30,-3,19,-1,19,2,420,-37305,0
4643983,2359,2880,2230,2722,3368,60,86,-975,63,66,-199,-22,6,6,3,28,-7,420,-37305,0
4644002,2365,2887,2231,2724,3368,60,86,-975,63,66,-199,-22,6,6,3,28,-7,420,-37305,0
4644014,2364,2886,2226,2717,3368,59,86,-975,63,65,-199,-17,12,-11,1,36,8,420,-37305,0
4644032,2365,2887,2231,2724,3368,59,86,-975,63,65,-199,-17,12,-11,1,36,8,420,-37305,0
4644044,2362,2884,2231,2724,3368,58,86,-975,63,64,-199,-14,7,-21,0,53,23,420,-37305,0
4644062,2362,2884,2229,2721,3368,58,86,-975,63,64,-199,-14,7,-21,0,53,23,420,-37305,0
4644074,2367,2890,2239,2733,3368,56,86,-975,63,62,-199,-9,0,-25,3,60,10,420,-37305,0
4644092,2367,2890,2239,2733,3368,56,86,-975,63,62,-199,-9,0,-25,3,60,10,420,-37305,0
4644104,2367,2890,2227,2719,3368,54,86,-975,63,61,-199,-8,-3,-15,5,64,-1,420,-37305,0
4644122,2367,2890,2230,2722,3368,54,86,-975,63,61,-199,-8,-3,-15,5,64,-1,420,-37305,0
4644134,2364,2886,2230,2722,3368,52,86,-975,64,59,-199,-8,0,-13,-1,66,1,420,-37305,0
4644153,2367,2890,2231,2724,3368,52,86,-975,64,59,-199,-8,0,-13,-1,66,1,420,-37305,0
4644164,2374,2898,2217,2706,3368,50,86,-975,64,58,-199,-10,3,-22,-6,59,17,420,-37305,0
4644183,2375,2899,2220,2710,3368,50,86,-975,64,58,-199,-10,3,-22,-6,59,17,420,-37305,0
4644195,2368,2891,2223,2714,3368,48,86,-975,65,57,-200,-13,2,0,-8,60,17,420,-37305,0
4644213,2367,2890,2235,2728,3368,48,86,-975,65,57,-200,-13,2,0,-8,60,17,420,-37305,0
4644224,2367,2890,2221,2711,3367,46,86,-975,65,54,-200,-13,2,13,-1,66,6,420,-37305,0
4644243,2378,2903,2212,2700,3367,46,86,-975,65,54,-200,-13,2,13,-1,66,6,420,-37305,0
4644255,2365,2887,2219,2709,3367,44,86,-976,65,53,-200,-10,5,6,-4,62,11,420,-37305,0
4644272,2361,2882,2218,2708,3367,44,86,-976,65,53,-200,-10,5,6,-4,62,11,420,-37305,0
4644284,2372,2896,2212,2700,3367,42,86,-976,66,52,-200,-6,0,11,-3,63,20,420,-37305,0
4644303,2360,2881,2217,2706,3367,42,86,-976,66,52,-200,-6,0,11,-3,63,20,420,-37305,0
4644315,2369,2892,2212,2700,3366,40,86,-976,66,49,-201,-4,-1,6,-3,57,21,420,-37305,0
4644333,2368,2891,2213,2702,3366,40,86,-976,66,49,-201,-4,-1,6,-3,57,21,420,-37305,0
4644345,2367,2890,2220,2710,3366,39,86,-975,66,49,-201,4,5,-11,-2,48,13,420,-37305,0
4644363,2366,2888,2218,2708,3366,39,86,-975,66,49,-201,4,5,-11,-2,48,13,420,-37305,0
4644374,2380,2905,2213,2702,3366,37,86,-975,67,47,-201,7,4,-6,0,43,12,420,-37305,0
4644393,2370,2893,2216,2705,3366,37,86,-975,67,47,-201,7,4,-6,0,43,12,420,-37305,0
4644405,2360,2881,2208,2695,3365,36,86,-975,67,46,-201,10,1,0,-1,38,18,420,-37305,0
4644422,2373,2897,2208,2695,3365,36,86,-975,67,46,-201,10,1,0,-1,38,18,420,-37305,0
4644434,2368,2891,2205,2692,3365,35,86,-975,67,46,-202,14,-1,-6,0,30,18,420,-37305,0
4644453,2371,2894,2213,2702,3365,35,86,-975,67,46,-202,14,-1,-6,0,30,18,420,-37305,0
4644465,2372,2896,2209,2697,3365,35,86,-975,67,45,-202,16,-4,-8,-1,28,10,420,-37305,0
4644484,2369,2892,2204,2691,3365,35,86,-975,67,45,-202,16,-4,-8,-1,28,10,420,-37305,0
4644496,2371,2894,2211,2699,3365,34,86,-975,67,44,-202,11,0,4,-3,18,0,420,-37305,0
4644513,2373,2897,2216,2705,3365,34,86,-975,67,44,-202,11,0,4,-3,18,0,420,-37305,0
4644525,2380,2905,2205,2692,3365,33,86,-975,67,44,-202,13,5,2,-3,5,-4,420,-37305,0
4644544,2367,2890,2211,2699,3365,33,86,-975,67,44,-202,13,5,2,-3,5,-4,420,-37305,0
4644555,2371,2894,2209,2697,3365,33,86,-975,67,44,-202,11,6,4,-2,-3,0,420,-37305,0
4644574,2371,2894,2208,2695,3365,33,86,-975,67,44,-202,11,6,4,-2,-3,0,420,-37305,0
4644585,2364,2886,2220,2710,3365,33,6,-975,67,44,-202,12,5,-1,0,-13,1,420,-37305,0
4644604,2371,2894,2201,2687,3365,33,6,-975,67,44,-202,12,5,-1,0,-13,1,420,-37305,0
4644616,2368,2891,2207,2694,3365,34,86,-975,67,45,-202,15,0,-12,1,-20,3,420,-37305,0
4644634,2369,2892,2205,2692,3365,34,86,-975,67,45,-202,15,0,-12,1,-20,3,420,-37305,0
4644646,2368,2891,2208,2695,3365,35,86,-975,67,45,-202,13,-5,-6,1,-23,-1,420,-37305,0
4644664,2371,2894,2211,2699,3365,35,86,-975,67,45,-202,13,-5,-6,1,-23,-1,420,-37305,0
4644675,2367,2890,2204,2691,3365,36,86,-975,67,46,-202,15,-4,-11,-1,-35,-11,420,-37305,0
4644695,2368,2891,2207,2694,3365,36,86,-975,67,47,-202,14,-3,-9,-3,-45,-12,420,-37305,0
4644712,2369,2892,2206,2693,3365,36,86,-975,67,47,-202,14,-3,-9,-3,-45,-12,420,-37305,0
4644725,2368,2891,2210,2698,3365,38,86,-975,67,48,-202,8,3,9,-3,-63,-21,420,-37305,0
4644744,2365,2887,2208,2695,3365,38,86,-975,67,48,-202,8,3,9,-3,-63,-21,420,-37305,0
4644756,2360,2881,2215,2704,3366,40,86,-975,66,50,-201,-8,-2,65,-2,-81,-16,420,-37305,0
4644773,2367,2890,2210,2698,3366,40,86,-975,66,50,-201,-8,-2,65,-2,-81,-16,420,-37305,0
4644785,2366,2888,2209,2697,3366,43,86,-975,66,52,-201,-5,5,20,-4,-82,-7,420,-37305,0
4644805,2352,2871,2217,2706,3366,45,86,-975,65,54,-201,3,14,-17,2,-83,-11,420,-37305,0
4644822,2364,2886,2220,2710,3366,45,86,-975,65,54,-201,3,14,-17,2,-83,-11,420,-37305,0
4644834,2367,2890,2222,2713,3366,47,86,-975,65,56,-201,-6,9,17,11,-87,-21,420,-37305,0
4644854,2375,2899,2217,2706,3366,49,86,-975,64,57,-201,-9,5,20,10,-91,-18,420,-37305,0
4644872,2366,2888,2223,2714,3366,49,86,-975,64,57,-201,-9,5,20,10,-91,-18,420,-37305,0
4644884,2370,2893,2224,2715,3366,51,85,-975,63,59,-201,-5,0,-9,12,-108,1,420,-37305,0
4644904,2368,2891,2219,2709,3366,54,85,-975,63,61,-201,-3,2,-28,9,-116,3,420,-37305,0
4644922,2364,2886,2228,2720,3366,54,85,-975,63,61,-201,-3,2,-28,9,-116,3,420,-37305,0
4644934,2367,2890,2229,2721,3366,57,85,-975,62,64,-201,-13,3,-11,12,-97,-18,420,-37305,0
4644954,2365,2887,2224,2715,3366,59,85,-975,62,65,-201,-10,6,-21,16,-88,-26,420,-37305,0
4644972,2370,2893,2226,2717,3366,59,85,-975,62,65,-201,-10,6,-21,16,-88,-26,420,-37305,0
4644984,2367,2890,2252,2749,3367,61,84,-975,60,67,-200,-60,-4,47,24,-61,-36,420,-37305,0
4645005,2362,2884,2238,2732,3368,62,83,-975,60,68,-199,2,-3,-39,23,-64,-38,420,-37305,0
4645023,2365,2887,2242,2737,3368,62,83,-975,60,68,-199,2,-3,-39,23,-64,-38,420,-37305,0
4645035,2367,2890,2239,2733,3368,65,82,-975,59,70,-199,-15,6,1,25,-88,-21,420,-37305,0
4645055,2367,2890,2245,2741,3369,66,81,-975,58,71,-198,-14,11,-1,27,-96,-15,420,-37305,0
4645073,2375,2899,2240,2735,3369,66,81,-975,58,71,-198,-14,11,-1,27,-96,-15,420,-37305,0
4645085,2368,2891,2242,2737,3368,69,81,-975,57,73,-199,-13,-1,-17,30,-96,-2,420,-37305,0
4645105,2362,2884,2243,2738,3368,70,80,-975,56,75,-199,-13,-6,-16,30,-89,-6,420,-37305,0
4645123,2371,2894,2245,2741,3368,70,80,-975,56,75,-199,-13,-6,-16,30,-89,-6,420,-37305,0
4645135,2381,2907,2246,2742,3369,73,80,-975,55,76,-198,-15,-1,-14,34,-59,-33,420,-37305,0
4645156,2365,2887,2246,2742,3370,74,79,-975,54,77,-198,-16,0,-9,31,-48,-35,420,-37305,0
4645173,2367,2890,2249,2746,3370,74,79,-975,54,77,-198,-16,0,-9,31,-48,-35,420,-37305,0
4645185,2353,2873,2240,2735,3370,75,78,-975,53,78,-197,-20,0,3,23,-40,-15,420,-37305,0
4645205,2367,2890,2243,2738,3370,75,77,-975,53,78,-197,-22,-4,6,20,-40,-4,420,-37305,0
4645223,2364,2886,2248,2744,3370,75,77,-975,53,78,-197,-22,-4,6,20,-40,-4,420,-37305,0
4645235,2371,2894,2251,2748,3370,76,77,-975,52,79,-197,-21,-11,-5,10,-51,6,420,-37305,0
4645256,2368,2891,2246,2742,3370,77,77,-975,52,80,-197,-19,-11,-12,8,-49,1,420,-37305,0
4645273,2366,2888,2250,2747,3370,77,77,-975,52,80,-197,-19,-11,-12,8,-49,1,420,-37305,0
4645285,2364,2886,2251,2748,3370,78,77,-975,52,80,-197,-18,-1,4,5,-28,-19,420,-37305,0
4645306,2368,2891,2249,2746,3370,78,77,-975,52,81,-197,-22,0,2,3,-22,-19,420,-37305,0
4645323,2370,2893,2248,2744,3370,78,77,-975,52,81,-197,-22,0,2,3,-22,-19,420,-37305,0
4645335,2367,2890,2246,2742,3371,79,77,1024,52,81,-197,-16,2,-10,-6,0,4,420,-37305,0
4645355,2369,2892,2250,2747,3370,78,77,-975,52,81,-197,-16,1,-14,-9,9,10,420,-37305,0
4645375,2368,2891,2246,2742,3370,78,77,-975,52,80,-197,-16,0,-13,-6,8,6,410,-37305,0
4645395,2372,2896,2251,2748,3370,78,77,-975,52,80,-197,-16,1,-6,-7,10,2,410,-37305,0
4645414,2370,2893,2249,2746,3370,78,77,-975,52,80,-197,-16,1,-6,-7,10,2,410,-37305,0
4645425,2360,2881,2247,2743,3370,78,77,-975,52,80,-197,-10,6,-7,-3,18,-10,410,-37305,0
4645446,2370,2893,2259,2758,3371,77,77,-975,52,80,-197,-10,7,-8,-3,18,-7,410,-37305,0
4645463,2369,2892,2245,2741,3371,77,77,-975,52,80,-197,-10,7,-8,-3,18,-7,410,-37305,0
4645475,2364,2886,2246,2742,3371,76,77,-975,52,79,-197,-13,4,7,-5,26,9,410,-37305,0
4645495,2368,2891,2245,2741,3370,76,77,-975,52,78,-197,-13,4,9,-3,23,11,410,-37305,0
4645512,2369,2892,2244,2739,3370,76,77,-975,52,78,-197,-13,4,9,-3,23,11,410,-37305,0
4645524,2375,2899,2242,2737,3370,75,77,-975,53,78,-197,-6,1,-9,-1,27,4,410,-37305,0
4645544,2364,2886,2247,2743,3370,75,77,-975,53,77,-197,-5,0,-8,2,31,3,410,-37305,0
4645561,2371,2894,2251,2748,3370,75,77,-975,53,77,-197,-5,0,-8,2,31,3,410,-37305,0
4645573,2375,2899,2240,2735,3370,73,77,-975,53,77,-197,0,1,-15,0,25,7,410,-37305,0
4645592,2375,2899,2244,2739,3370,73,77,-975,53,77,-197,0,1,-15,0,25,7,410,-37305,0
4645604,2383,2909,2243,2738,3370,73,77,-975,53,76,-197,2,-1,-17,-5,16,15,410,-37305,0
4645621,2369,2892,2242,2737,3370,73,77,-975,53,76,-197,2,-1,-17,-5,16,15,410,-37305,0
4645633,2371,2894,2232,2725,3370,73,78,-975,53,76,-198,0,-4,-8,-8,5,10,410,-37305,0
4645653,2368,2891,2243,2738,3370,73,78,-975,53,76,-198,-1,-2,0,-10,0,7,410,-37305,0
4645673,2395,2924,2250,2747,3370,73,78,-975,54,76,-198,0,-3,0,-13,6,4,410,-37305,0
4645691,2367,2890,2247,2743,3370,73,78,-975,54,76,-198,0,-3,0,-13,6,4,410,-37305,0
4645703,2383,2909,2236,2730,3370,72,78,-975,54,75,-198,-1,-2,15,-15,23,3,410,-37305,0
4645720,2370,2893,2230,2722,3370,72,78,-975,54,75,-198,-1,-2,15,-15,23,3,410,-37305,0
4645732,2362,2884,2237,2731,3370,71,79,-975,54,75,-198,-3,0,0,-16,20,7,410,-37305,0
4645750,2377,2902,2236,2730,3370,71,79,-975,54,75,-198,-3,0,0,-16,20,7,410,-37305,0
4645762,2370,2893,2240,2735,3370,71,79,-975,55,74,-198,0,0,-6,-16,23,5,410,-37305,0
4645779,2371,2894,2240,2735,3370,71,79,-975,55,74,-198,0,0,-6,-16,23,5,410,-37305,0
4645791,2375,2899,2238,2732,3370,70,80,-975,56,74,-198,1,0,6,-16,25,0,410,-37305,0
4645809,2370,2893,2239,2733,3370,70,80,-975,56,74,-198,1,0,6,-16,25,0,410,-37305,0
4645820,2369,2892,2232,2725,3370,70,80,-975,56,73,-198,0,0,-4,-18,23,0,410,-37305,0
4645838,2371,2894,2233,2726,3370,70,80,-975,56,73,-198,0,0,-4,-18,23,0,410,-37305,0
4645850,2367,2890,2232,2725,3370,69,81,-975,57,73,-198,2,4,-23,-18,18,0,410,-37305,0
4645868,2368,2891,2239,2733,3370,69,81,-975,57,73,-198,2,4,-23,-18,18,0,410,-37305,0
4645880,2367,2890,2237,2731,3370,68,81,-975,57,73,-198,-4,4,0,-17,15,0,410,-37305,0
4645898,2377,2902,2243,2738,3370,68,81,-975,57,73,-198,-4,4,0,-17,15,0,410,-37305,0
4645910,2369,2892,2237,2731,3370,68,81,-975,58,73,-197,-4,7,3,-15,6,0,410,-37305,0
4645927,2362,2884,2239,2733,3370,68,81,-975,58,73,-197,-4,7,3,-15,6,0,410,-37305,0
4645939,2367,2890,2232,2725,3370,68,82,-975,58,73,-197,-5,8,-2,-13,1,0,410,-37305,0
4645958,2369,2892,2236,2730,3370,68,82,-975,58,73,-197,-5,8,-2,-13,1,0,410,-37305,0
4645970,2367,2890,2232,2725,3370,68,82,-975,58,73,-197,-12,13,3,-5,-2,1,410,-37305,0
4645989,2365,2887,2232,2725,3370,68,82,-975,58,73,-197,-12,13,3,-5,-2,1,410,-37305,0
4646001,2367,2890,2238,2732,3370,68,82,-975,58,72,-197,-19,14,11,5,-3,0,410,-37305,0
4646019,2364,2886,2236,2730,3370,68,82,-975,58,72,-197,-19,14,11,5,-3,0,410,-37305,0
4646031,2366,2888,2240,2735,3370,68,81,-975,58,72,-198,-13,12,-2,15,-2,6,410,-37305,0
4646049,2367,2890,2236,2730,3370,68,81,-975,58,72,-198,-13,12,-2,15,-2,6,410,-37305,0
4646061,2368,2891,2239,2733,3370,67,81,-975,57,72,-198,-11,10,-16,21,3,8,410,-37305,0
4646079,2363,2885,2236,2730,3370,67,81,-975,57,72,-198,-11,10,-16,21,3,8,410,-37305,0
4646091,2371,2894,2245,2741,3370,67,80,-975,56,71,-198,-8,8,-15,28,16,1,410,-37305,0
4646110,2367,2890,2243,2738,3370,67,80,-975,56,71,-198,-8,8,-15,28,16,1,410,-37305,0
4646121,2367,2890,2235,2728,3370,66,80,-975,56,71,-198,-8,3,-10,31,28,1,410,-37305,0
4646140,2367,2890,2246,2742,3370,66,80,-975,56,71,-198,-8,3,-10,31,28,1,410,-37305,0
4646151,2364,2886,2238,2732,3370,65,78,-976,55,70,-198,-5,-1,-8,30,30,6,410,-37305,0
4646169,2367,2890,2239,2733,3370,65,78,-976,55,70,-198,-5,-1,-8,30,30,6,410,-37305,0
4646181,2368,2891,2251,2748,3370,65,78,-976,55,69,-198,4,-7,-27,23,36,10,410,-37305,0
4646200,2374,2898,2232,2725,3370,65,78,-976,55,69,-198,4,-7,-27,23,36,10,410,-37305,0
4646211,2368,2891,2234,2727,3369,63,77,-976,55,68,-198,2,-13,-11,16,41,3,410,-37305,0
4646229,2365,2887,2236,2730,3369,63,77,-976,55,68,-198,2,-13,-11,16,41,3,410,-37305,0
4646241,2379,2904,2228,2720,3369,62,77,-976,55,67,-198,1,-9,4,6,43,-6,410,-37305,0
4646260,2371,2894,2233,2726,3369,62,77,-976,55,67,-198,1,-9,4,6,43,-6,410,-37305,0
4646271,2371,2894,2237,2731,3370,61,77,-976,55,65,-198,2,-2,12,-1,41,-1,410,-37305,0
4646290,2364,2886,2236,2730,3370,61,77,-976,55,65,-198,2,-2,12,-1,41,-1,410,-37304,15
4646302,2371,2894,2232,2725,3370,60,77,-976,55,65,-198,0,0,22,-10,39,13,410,-37303,15
4646319,2371,2894,2231,2724,3370,60,77,-976,55,65,-198,0,0,22,-10,39,13,410,-37302,15
4646331,2373,2897,2232,2725,3369,59,78,-976,56,64,-198,0,0,19,-24,10,5,410,-37300,15
4646350,2376,2901,2236,2730,3369,59,78,-976,56,64,-198,0,0,19,-24,10,5,410,-37298,15
4646362,2372,2896,2236,2730,3369,59,78,-976,56,64,-198,0,2,10,-43,-16,-8,410,-37294,15
4646379,2379,2904,2247,2743,3369,59,78,-976,56,64,-198,0,2,10,-43,-16,-8,410,-37292,15
4646391,2381,2907,2230,2722,3370,60,80,-976,58,65,-198,7,16,-12,-58,-30,3,420,-37288,264
4646411,2379,2904,2237,2731,3370,60,81,-976,58,66,-198,2,11,-5,-57,-28,20,420,-37284,264
4646973,2364,2886,2249,2746,3369,77,78,-975,53,80,-198,-8,3,-9,26,-20,-8,420,-37281,0
4646984,2372,2896,2249,2746,3369,78,78,-975,52,80,-198,-3,-2,-20,21,1,4,420,-37281,0
4647003,2372,2896,2246,2742,3369,78,78,-975,52,80,-198,-3,-2,-20,21,1,4,420,-37281,0
4647014,2373,2897,2255,2753,3369,77,77,-975,52,80,-198,-5,-8,-22,16,25,5,420,-37281,0
4647032,2374,2898,2255,2753,3369,77,77,-975,52,80,-198,-5,-8,-22,16,25,5,420,-37281,0
4647044,2377,2902,2250,2747,3369,76,76,-975,52,79,-198,-12,-13,-4,11,6,-11,420,-37281,0
4647063,2369,2892,2248,2744,3369,76,76,-975,52,79,-198,-12,-13,-4,11,6,-11,420,-37281,0
4647075,2368,2891,2248,2744,3370,76,76,-975,52,79,-198,-8,-4,-11,8,3,-20,420,-37281,0
4647094,2372,2896,2250,2747,3370,76,76,-975,52,79,-198,-8,-4,-11,8,3,-20,420,-37281,0
4647105,2370,2893,2257,2755,3370,76,76,-975,52,79,-197,-15,0,3,-1,-5,-1,420,-37281,0
4647124,2368,2891,2247,2743,3370,76,76,-975,52,79,-197,-15,0,3,-1,-5,-1,420,-37281,0
4647136,2373,2897,2252,2749,3370,76,76,-975,52,79,-198,-11,-2,0,-6,2,6,420,-37281,0
4647154,2367,2890,2246,2742,3370,76,76,-975,52,79,-198,-11,-2,0,-6,2,6,420,-37281,0
4647165,2385,2912,2246,2742,3370,76,76,-975,52,79,-198,-10,-5,-6,-8,17,3,420,-37281,0
4647184,2368,2891,2248,2744,3370,76,76,-975,52,79,-198,-10,-5,-6,-8,17,3,420,-37281,0
4647196,2371,2894,2246,2742,3370,76,77,-975,52,78,-198,-5,-1,-6,-10,15,0,420,-37281,0
4647214,2367,2890,2254,2752,3370,76,77,-975,52,78,-198,-5,-1,-6,-10,15,0,420,-37281,0
4647226,2372,2896,2246,2742,3370,75,77,-975,52,78,-198,-3,1,-5,-12,10,-3,420,-37281,0
4647245,2370,2893,2245,2741,3370,75,77,-975,52,78,-198,-3,1,-5,-12,10,-3,420,-37281,0
4647257,2369,2892,2238,2732,3370,75,78,-975,53,78,-197,-5,5,0,-14,-3,3,420,-37281,0
4647274,2369,2892,2242,2737,3370,75,78,-975,53,78,-197,-5,5,0,-14,-3,3,420,-37281,0
4647286,2380,2905,2251,2748,3370,75,78,-975,53,78,-198,1,3,-13,-14,-11,12,420,-37281,0
4647304,2372,2896,2246,2742,3370,75,78,-975,53,78,-198,1,3,-13,-14,-11,12,420,-37281,0
4647316,2371,2894,2242,2737,3369,75,78,-975,54,78,-198,0,-4,-2,-13,8,11,420,-37281,0
4647334,2371,2894,2240,2735,3369,75,78,-975,54,78,-198,0,-4,-2,-13,8,11,420,-37281,0
4647346,2369,2892,2241,2736,3369,75,79,-975,54,78,-198,0,-6,2,-15,6,1,420,-37281,0
4647364,2367,2890,2234,2727,3369,75,79,-975,54,78,-198,0,-6,2,-15,6,1,420,-37281,0
4647376,2367,2890,2259,2758,3369,75,80,-975,54,78,-198,2,-1,-22,-18,5,-3,420,-37281,0
4647394,2360,2881,2242,2737,3369,75,80,-975,54,78,-198,2,-1,-22,-18,5,-3,420,-37281,0
4647406,2367,2890,2233,2726,3369,75,80,-975,55,78,-198,-2,5,-16,-20,5,-5,420,-37281,0
4647424,2367,2890,2232,2725,3369,75,80,-975,55,78,-198,-2,5,-16,-20,5,-5,420,-37281,0
4647436,2367,2890,2237,2731,3369,75,81,-975,55,78,-198,-10,5,12,-21,6,0,420,-37281,0
4647455,2367,2890,2239,2733,3369,75,81,-975,55,78,-198,-10,5,12,-21,6,0,420,-37281,0
4647467,2364,2886,2241,2736,3369,75,81,-975,56,78,-198,-14,6,26,-16,26,1,420,-37281,0
4647486,2367,2890,2235,2728,3369,75,81,-975,56,78,-198,-14,6,26,-16,26,1,420,-37281,0
4647498,2371,2894,2232,2725,3370,73,81,-975,57,77,-198,-17,7,20,-10,36,-1,420,-37281,0
4647515,2367,2890,2244,2739,3370,73,81,-975,57,77,-198,-17,7,20,-10,36,-1,420,-37280,0
4647527,2367,2890,2238,2732,3370,72,81,-975,57,76,-198,-11,11,-4,0,34,-5,420,-37280,0
4647545,2365,2887,2234,2727,3370,72,81,-975,57,76,-198,-11,11,-4,0,34,-5,420,-37280,15
4647558,2364,2886,2239,2733,3370,71,81,-975,57,75,-198,-8,14,0,6,32,2,420,-37281,15
4647575,2361,2882,2239,2733,3370,71,81,-975,57,75,-198,-8,14,0,6,32,2,420,-37281,15
4647587,2367,2890,2238,2732,3370,70,81,-975,57,75,-198,1,8,-34,10,13,8,420,-37281,15
4647605,2366,2888,2239,2733,3370,70,81,-975,57,75,-198,1,8,-34,10,13,8,420,-37281,15
4647617,2367,2890,2232,2725,3369,70,81,-975,56,74,-198,0,0,-36,10,16,8,420,-37281,15
4647636,2361,2882,2236,2730,3369,70,81,-975,56,74,-198,0,0,-36,10,16,8,420,-37281,15
4647647,2364,2886,2245,2741,3369,70,81,-975,56,73,-198,-5,-4,-8,6,23,5,420,-37281,-16
4647666,2375,2899,2238,2732,3369,70,81,-975,56,73,-198,-5,-4,-8,6,23,5,420,-37281,-16
4647677,2367,2890,2232,2725,3369,69,80,-975,56,73,-198,-1,-6,-11,5,11,1,420,-37281,-16
4647696,2371,2894,2233,2726,3369,69,80,-975,56,73,-198,-1,-6,-11,5,11,1,420,-37281,-16
4647708,2367,2890,2233,2726,3369,68,80,-975,56,73,-198,-1,-5,-9,0,12,4,420,-37281,-16
4647726,2366,2888,2230,2722,3369,68,80,-975,56,73,-198,-1,-5,-9,0,12,4,420,-37281,-16
4647738,2367,2890,2235,2728,3369,68,80,-975,57,72,-198,-8,-7,3,-6,11,6,420,-37281,-16
4647756,2368,2891,2232,2725,3369,68,80,-975,57,72,-198,-8,-7,3,-6,11,6,420,-37281,0
4647767,2368,2891,2226,2717,3369,68,81,-975,57,72,-198,-5,-6,19,-8,13,3,420,-37281,0
4647786,2364,2886,2235,2728,3369,68,81,-975,57,72,-198,-5,-6,19,-8,13,3,420,-37281,0
4647798,2362,2884,2233,2726,3369,67,81,-975,57,72,-198,-6,0,35,-9,23,-3,420,-37281,0
4647816,2367,2890,2224,2715,3369,67,81,-975,57,72,-198,-6,0,35,-9,23,-3,420,-37281,0
4647827,2367,2890,2229,2721,3369,66,81,-975,57,71,-198,-1,7,-2,-6,10,0,420,-37281,0
4647845,2360,2881,2232,2725,3369,66,81,-975,57,71,-198,-1,7,-2,-6,10,0,420,-37281,0
4647857,2366,2888,2239,2733,3369,66,81,-975,58,71,-198,0,6,0,-6,8,9,420,-37281,0
4647875,2368,2891,2234,2727,3369,66,81,-975,58,71,-198,0,6,0,-6,8,9,420,-37281,0
4647887,2367,2890,2234,2727,3368,66,81,-975,58,71,-199,0,7,-7,-2,8,15,420,-37281,0
4647905,2384,2910,2233,2726,3368,66,81,-975,58,71,-199,0,7,-7,-2,8,15,420,-37281,0
4647917,2368,2891,2234,2727,3368,66,81,-975,58,71,-199,0,3,-23,4,14,4,420,-37281,0
4647935,2369,2892,2239,2733,3368,66,81,-975,58,71,-199,0,3,-23,4,14,4,420,-37281,0
4647946,2365,2887,2235,2728,3368,65,81,-975,58,70,-199,0,1,-27,8,18,-5,420,-37281,0
4647965,2367,2890,2227,2719,3368,65,81,-975,58,70,-199,0,1,-27,8,18,-5,420,-37281,0
4647977,2366,2888,2235,2728,3368,65,81,-975,58,70,-199,-7,-1,0,3,13,0,420,-37281,0
4647995,2368,2891,2239,2733,3368,65,81,-975,58,70,-199,-7,-1,0,3,13,0,420,-37281,0
4648007,2368,2891,2234,2727,3368,65,81,-975,58,70,-199,-8,-4,2,0,4,3,420,-37281,0
4648025,2370,2893,2229,2721,3368,65,81,-975,58,70,-199,-8,-4,2,0,4,3,420,-37281,0
4648036,2371,2894,2232,2725,3368,65,81,-975,58,70,-199,-3,0,-19,-2,4,0,420,-37281,0
4648055,2362,2884,2231,2724,3368,65,81,-975,58,70,-199,-3,0,-19,-2,4,0,420,-37281,0
4648067,2367,2890,2229,2721,3368,64,81,-975,58,69,-199,-6,0,0,-1,15,-8,420,-37281,0
4648084,2369,2892,2233,2726,3368,64,81,-975,58,69,-199,-6,0,0,-1,15,-8,420,-37281,0
4648096,2360,2881,2236,2730,3368,64,81,-975,58,69,-199,-4,0,15,-1,14,-4,420,-37281,0
4648115,2366,2888,2230,2722,3368,64,81,-975,58,69,-199,-4,0,15,-1,14,-4,420,-37281,0
4648127,2367,2890,2239,2733,3368,63,81,-975,58,69,-199,3,1,-10,-4,-3,3,420,-37281,0
4648145,2371,2894,2234,2727,3368,63,81,-975,58,69,-199,3,1,-10,-4,-3,3,420,-37281,0
4648157,2359,2880,2229,2721,3368,63,81,-975,58,69,-199,1,0,0,-4,-4,5,420,-37281,0
4648175,2365,2887,2235,2728,3368,63,81,-975,58,69,-199,1,0,0,-4,-4,5,420,-37281,0
4648187,2364,2886,2229,2721,3368,63,81,-975,58,69,-199,-1,1,14,0,-6,0,420,-37281,0
4648205,2367,2890,2227,2719,3368,63,81,-975,58,69,-199,-1,1,14,0,-6,0,420,-37281,0
4648217,2352,2871,2230,2722,3368,64,81,-975,58,69,-199,1,6,-1,0,-8,1,420,-37281,0
4648235,2367,2890,2232,2725,3368,64,81,-975,58,69,-199,1,6,-1,0,-8,1,420,-37281,0
4648247,2360,2881,2229,2721,3368,64,81,-975,58,69,-199,-1,2,-18,3,-8,4,420,-37281,0
4648266,2368,2891,2232,2725,3368,64,81,-975,58,69,-199,-1,2,-18,3,-8,4,420,-37281,0
4648278,2367,2890,2222,2713,3368,65,1,-975,58,70,-199,-7,-2,-3,6,-16,4,420,-37281,0
4648296,2367,2890,2226,2717,3368,65,1,-975,58,70,-199,-7,-2,-3,6,-16,4,420,-37281,0
4648308,2374,2898,2247,2743,3368,65,81,-975,58,70,-199,-9,-4,0,2,-14,-3,420,-37281,0
4648325,2352,2871,2233,2726,3368,65,81,-975,58,70,-199,-9,-4,0,2,-14,-3,420,-37281,0
4648337,2364,2886,2239,2733,3368,65,81,-975,58,70,-199,-14,1,2,6,-8,-11,420,-37281,0
4648356,2367,2890,2232,2725,3368,65,81,-975,58,70,-199,-14,1,2,6,-8,-11,420,-37281,0
4648368,2366,2888,2237,2731,3369,65,81,-975,57,70,-199,-9,1,-6,6,-1,-15,420,-37281,0
4648385,2366,2888,2241,2736,3369,65,81,-975,57,70,-199,-9,1,-6,6,-1,-15,420,-37281,0
4648397,2367,2890,2239,2733,3369,65,81,-975,57,70,-198,-11,4,0,8,11,-8,420,-37281,0
4648416,2371,2894,2237,2731,3369,65,81,-975,57,70,-198,-11,4,0,8,11,-8,420,-37281,0
4648428,2367,2890,2244,2739,3369,65,81,-975,57,70,-198,-12,0,0,6,11,1,420,-37281,0
4648446,2368,2891,2239,2733,3369,65,81,-975,57,70,-198,-12,0,0,6,11,1,420,-37281,0
4648458,2370,2893,2238,2732,3369,65,81,-975,57,69,-198,-8,-2,-8,0,6,4,420,-37281,0
4648476,2379,2904,2239,2733,3369,65,81,-975,57,69,-198,-8,-2,-8,0,6,4,420,-37281,0
4648488,2368,2891,2232,2725,3369,65,81,-975,57,69,-198,-8,-1,-11,0,8,0,420,-37281,0
4648507,2380,2905,2235,2728,3369,65,81,-975,57,69,-198,-8,-1,-11,0,8,0,420,-37281,0
4648518,2365,2887,2241,2736,3369,64,81,-975,57,69,-198,-9,0,-14,-1,5,-5,420,-37281,0
4648537,2375,2899,2239,2733,3369,64,81,-975,57,69,-198,-9,0,-14,-1,5,-5,420,-37281,0
4648549,2375,2899,2239,2733,3370,64,81,-975,57,69,-198,-10,0,-18,-3,6,-5,420,-37281,0
4648567,2369,2892,2243,2738,3370,64,81,-975,57,69,-198,-10,0,-18,-3,6,-5,420,-37281,0
4648579,2360,2881,2234,2727,3370,64,81,-975,57,69,-198,-15,0,-11,-7,0,0,420,-37281,0
4648597,2366,2888,2242,2737,3370,64,81,-975,57,69,-198,-15,0,-11,-7,0,0,420,-37281,0
4648609,2364,2886,2238,2732,3370,64,81,-975,58,69,-198,-18,0,-1,-9,-3,1,420,-37281,0
4648628,2366,2888,2232,2725,3370,64,81,-975,58,69,-198,-18,0,-1,-9,-3,1,420,-37281,0
4648640,2371,2894,2232,2725,3370,64,81,-975,58,69,-198,-18,2,3,-7,18,0,420,-37281,0
4648658,2367,2890,2238,2732,3370,64,81,-975,58,69,-198,-18,2,3,-7,18,0,420,-37281,0
4648670,2366,2888,2227,2719,3370,63,81,-975,58,68,-198,-13,3,0,-5,45,-2,420,-37280,0
4648687,2367,2890,2237,2731,3370,63,81,-975,58,68,-198,-13,3,0,-5,45,-2,420,-37279,0
4648699,2363,2885,2232,2725,3370,61,81,-976,59,67,-198,-10,18,0,-10,56,2,420,-37275,98
4648718,2364,2886,2225,2716,3370,61,81,-976,59,67,-198,-10,18,0,-10,56,2,420,-37271,98
4648730,2364,2886,2232,2725,3370,60,82,-976,60,65,-198,-16,16,9,-55,55,2,420,-37265,98
4648749,2360,2881,2227,2719,3370,60,82,-976,60,65,-198,-16,16,9,-55,55,2,420,-37261,98
4648761,2365,2887,2225,2716,3370,58,84,-976,62,64,-197,-12,26,-3,-48,50,-6,420,-37257,98
4648779,2358,2879,2229,2721,3370,58,84,-976,62,64,-197,-12,26,-3,-48,50,-6,420,-37255,98
4648791,2371,2894,2224,2715,3370,56,85,-976,62,63,-197,-2,28,-26,0,52,-6,420,-37253,98
4648809,2366,2888,2228,2720,3370,56,85,-976,62,63,-197,-2,28,-26,0,52,-6,420,-37251,363
4648822,2367,2890,2229,2721,3370,55,84,-976,62,62,-197,1,18,-12,24,50,16,420,-37249,363
4648839,2368,2891,2227,2719,3370,55,84,-976,62,62,-197,1,18,-12,24,50,16,420,-37246,363
4648852,2360,2881,2225,2716,3370,53,83,-976,61,60,-198,-3,11,9,11,44,28,420,-37241,363
4648870,2368,2891,2230,2722,3370,53,83,-976,61,60,-198,-3,11,9,11,44,28,420,-37236,363
4648882,2366,2888,2224,2715,3369,52,83,-976,61,59,-198,-1,13,1,-10,28,11,420,-37229,363
4648900,2364,2886,2239,2733,3369,52,83,-976,61,59,-198,-1,13,1,-10,28,11,420,-37223,363
4648913,2363,2885,2220,2710,3369,51,83,-976,62,59,-198,0,16,-1,-26,18,0,420,-37215,576
4648930,2373,2897,2220,2710,3369,51,83,-976,62,59,-198,0,16,-1,-26,18,0,420,-37209,576
4648942,2364,2886,2223,2714,3369,51,84,-976,62,59,-198,0,18,-1,-17,13,11,420,-37202,576
4648961,2368,2891,2224,2715,3369,51,84,-976,62,59,-198,0,18,-1,-17,13,11,420,-37198,576
4648973,2368,2891,2216,2705,3368,51,84,-976,62,58,-199,-2,13,9,16,14,26,420,-37192,576
4648992,2366,2888,2220,2710,3368,51,84,-976,62,58,-199,-2,13,9,16,14,26,420,-37189,576
4649005,2364,2886,2224,2715,3368,50,83,-976,62,58,-199,-1,1,8,36,20,23,420,-37184,576
4649022,2361,2882,2218,2708,3368,50,83,-976,62,58,-199,-1,1,8,36,20,23,420,-37181,519
4649034,2368,2891,2226,2717,3367,49,81,-976,61,57,-200,-4,-22,12,42,29,15,420,-37174,519
4649055,2373,2897,2226,2717,3367,48,81,-976,61,56,-200,0,-6,10,23,30,13,420,-37166,519
4649072,2371,2894,2220,2710,3367,48,81,-976,61,56,-200,0,-6,10,23,30,13,420,-37161,519
4649084,2364,2886,2218,2708,3367,48,81,-976,61,55,-200,3,-4,-1,-8,31,1,420,-37150,519
4649105,2373,2897,2222,2713,3367,47,81,-976,61,55,-200,-2,0,-1,-25,28,-6,420,-37141,519
4649122,2375,2899,2237,2731,3367,47,81,-976,61,55,-200,-2,0,-1,-25,28,-6,420,-37135,766
4649135,2367,2890,2221,2711,3367,46,82,-976,62,54,-200,5,21,-2,-11,23,-8,420,-37127,766
4649155,2370,2893,2227,2719,3368,46,82,-976,62,54,-200,4,5,-10,0,19,0,420,-37121,766
4649172,2383,2909,2224,2715,3368,46,82,-976,62,54,-200,4,5,-10,0,19,0,420,-37117,766
4649184,2394,2923,2224,2715,3367,46,81,-976,61,54,-200,2,-13,-9,37,11,23,420,-37110,766
4649204,2389,2916,2216,2705,3366,46,81,-976,61,54,-201,0,-21,1,19,-1,28,420,-37103,766
4649221,2379,2904,2218,2708,3366,46,81,-976,61,54,-201,0,-21,1,19,-1,28,420,-37097,766
4649233,2379,2904,2218,2708,3366,46,81,-976,61,54,-201,4,-20,-8,-4,-3,5,420,-37088,705
4649252,2383,2909,2239,2733,3366,46,81,-976,61,54,-201,4,-20,-8,-4,-3,5,420,-37082,705
4649264,2375,2899,2231,2724,3366,46,81,-976,61,54,-200,3,-5,-7,-22,-20,-27,420,-37073,705
4649282,2374,2898,2215,2704,3366,46,81,-976,61,54,-200,3,-5,-7,-22,-20,-27,420,-37067,705
4649295,2371,2894,2224,2715,3367,47,81,-976,61,55,-200,4,11,-17,-4,-34,-28,420,-37058,705
4649315,2383,2909,2216,2705,3368,48,81,-976,61,55,-200,3,16,-9,3,-35,-9,420,-37050,705
4649332,2376,2901,2218,2708,3368,48,81,-976,61,55,-200,3,16,-9,3,-35,-9,420,-37045,705
4649344,2371,2894,2219,2709,3367,49,81,-976,61,56,-200,-3,2,7,3,-36,20,420,-37035,780
4649364,2371,2894,2230,2722,3367,50,81,-976,61,57,-200,-5,-9,7,-7,-41,13,420,-37026,780
4649382,2376,2901,2222,2713,3367,50,81,-976,61,57,-200,-5,-9,7,-7,-41,13,420,-37019,780
4649394,2371,2894,2235,2728,3367,51,82,-976,61,58,-200,-6,-5,2,-11,-41,-29,420,-37010,780
4649412,2371,2894,2224,2715,3367,51,82,-976,61,58,-200,-6,-5,2,-11,-41,-29,420,-37004,780
4649425,2363,2885,2227,2719,3368,52,82,-976,61,59,-199,-5,7,2,10,-28,-35,420,-36995,780
4649443,2367,2890,2218,2708,3368,52,82,-976,61,59,-199,-5,7,2,10,-28,-35,420,-36989,780
4649455,2364,2886,2225,2716,3368,53,81,-976,60,59,-199,-11,2,9,4,-24,10,420,-36979,840
4649473,2372,2896,2231,2724,3368,53,81,-976,60,59,-199,-11,2,9,4,-24,10,420,-36973,840
4649485,2360,2881,2218,2708,3368,53,81,-976,60,60,-199,-12,-2,3,-5,-23,13,420,-36963,840
4649505,2372,2896,2223,2714,3368,53,81,-976,60,60,-199,-14,-3,0,2,-20,-13,420,-36954,840
4649522,2375,2899,2231,2724,3368,53,81,-976,60,60,-199,-14,-3,0,2,-20,-13,420,-36947,840
4649535,2375,2899,2229,2721,3368,54,81,-976,60,61,-199,-9,5,-14,10,-24,-26,420,-36937,840
4649553,2366,2888,2232,2725,3368,54,81,-976,60,61,-199,-9,5,-14,10,-24,-26,420,-36931,840
4649566,2364,2886,2228,2720,3369,55,81,-976,59,61,-199,-8,7,-12,7,-23,2,420,-36923,855
4649584,2370,2893,2224,2715,3369,55,81,-976,59,61,-199,-8,7,-12,7,-23,2,420,-36918,855
4649596,2386,2913,2228,2720,3368,55,81,-976,59,62,-199,-9,-4,-12,18,-95,30,420,-36909,855
4649616,2370,2893,2231,2724,3368,55,80,-976,59,62,-200,-9,-11,-17,27,-18,22,420,-36902,855
4649634,2372,2896,2231,2724,3368,55,80,-976,59,62,-200,-9,-11,-17,27,-18,22,420,-36896,855
4649646,2369,2892,2216,2705,3367,56,80,-976,58,62,-200,-8,-9,-20,32,-102,-10,420,-36887,855
4649667,2367,2890,2237,2731,3368,56,79,-976,57,62,-200,-7,-8,-8,25,-26,-20,420,-36879,709
4649685,2376,2901,2232,2725,3368,56,79,-976,57,62,-200,-7,-8,-8,25,-26,-20,420,-36874,709
4649697,2367,2890,2228,2720,3368,57,78,-976,57,63,-199,-10,0,-12,18,-31,-3,420,-36865,709
4649718,2368,2891,2233,2726,3368,58,78,-976,56,64,-200,-9,-6,-15,12,-34,11,420,-36858,709
4649736,2367,2890,2230,2722,3368,58,78,-976,56,64,-200,-9,-6,-15,12,-34,11,420,-36852,709
4649748,2379,2904,2230,2722,3367,58,78,-975,56,64,-200,-12,-12,-2,8,-19,6,420,-36844,709
4649769,2371,2894,2239,2733,3367,59,78,-975,56,64,-200,-15,-15,7,9,-13,0,420,-36836,702
4649787,2375,2899,2225,2716,3367,59,78,-975,56,64,-200,-15,-15,7,9,-13,0,420,-36831,702
4649799,2367,2890,2230,2722,3367,59,78,-975,56,64,-200,-16,-7,3,10,-2,-15,420,-36822,702
4649820,2365,2887,2234,2727,3368,59,78,-976,56,64,-200,-17,-3,12,7,-1,-15,420,-36815,702
4649837,2368,2891,2233,2726,3368,59,78,-976,56,64,-200,-17,-3,12,7,-1,-15,420,-36810,702
4649850,2368,2891,2233,2726,3368,59,78,-976,56,64,-199,-21,1,17,-1,7,4,420,-36801,702
4649870,2375,2899,2234,2727,3368,58,78,-976,56,64,-200,-15,1,0,-3,10,9,420,-36791,726
4649890,2360,2881,2232,2725,3368,58,78,-976,56,64,-200,-11,1,-12,-13,12,6,420,-36780,726
4649910,2369,2892,2231,2724,3368,58,78,-976,56,63,-200,-11,9,-14,-20,13,3,420,-36770,726
4649928,2369,2892,2228,2720,3368,58,78,-976,56,63,-200,-11,9,-14,-20,13,3,420,-36762,726
4649941,2369,2892,2231,2724,3368,57,79,-976,57,63,-199,-10,6,-13,-41,27,-19,420,-36749,726
4649961,2367,2890,2226,2717,3368,56,80,-976,58,63,-199,-7,17,-19,-36,27,-23,420,-36737,726
4649979,2360,2881,2224,2715,3368,56,80,-976,58,63,-199,-7,17,-19,-36,27,-23,420,-36729,932
4649992,2372,2896,2238,2732,3369,56,80,-976,59,62,-198,-5,17,-27,-25,33,-1,420,-36717,932
4650012,2369,2892,2230,2722,3369,55,81,-976,59,61,-198,-12,19,-142,-19,32,13,420,-36706,932
4650030,2365,2887,2226,2717,3369,55,81,-976,59,61,-198,-12,19,-142,-19,32,13,420,-36698,932
4650043,2360,2881,2226,2717,3368,54,81,-976,60,60,-199,-18,3,11,-9,24,8,420,-36686,932
4650062,2366,2888,2224,2715,3368,54,81,-976,60,60,-199,-18,3,11,-9,24,8,420,-36678,932
4650074,2362,2884,2229,2721,3368,53,81,-976,60,60,-199,-13,13,0,-7,28,-2,420,-36666,932
4650093,2356,2876,2226,2717,3368,53,81,-976,60,60,-199,-13,13,0,-7,28,-2,420,-36657,1038
4650105,2360,2881,2220,2710,3368,52,81,-976,60,59,-199,-7,17,0,-15,40,7,420,-36643,1038
4650123,2368,2891,2227,2719,3368,52,81,-976,60,59,-199,-7,17,0,-15,40,7,420,-36633,1038
4650136,2365,2887,2225,2716,3368,50,82,-976,61,58,-199,-14,32,15,-25,46,11,420,-36616,1038
4650154,2371,2894,2233,2726,3368,50,82,-976,61,58,-199,-14,32,15,-25,46,11,420,-36604,1038
4650167,2366,2888,2231,2724,3368,49,82,-976,61,56,-199,-12,54,14,-25,36,-10,420,-36585,1038
4650185,2365,2887,2229,2721,3368,49,82,-976,61,56,-199,-12,54,14,-25,36,-10,420,-36571,1038
4650198,2364,2886,2230,2722,3369,48,82,-976,62,55,-198,-10,78,-11,-33,30,-17,420,-36547,1714
4650220,2367,2890,2238,2732,3370,47,83,-976,62,55,-198,-9,82,-1,-6,31,-5,420,-36526,1714
4650238,2369,2892,2233,2726,3370,47,83,-976,62,55,-198,-9,82,-1,-6,31,-5,420,-36511,1714
4650250,2372,2896,2239,2733,3369,46,81,1023,61,54,-199,-8,47,1,16,50,50,420,-36485,1714
4650271,2370,2893,2224,2715,3368,45,81,-976,61,53,-199,-6,32,0,6,60,58,420,-36459,1714
4650290,2372,2896,2227,2719,3368,45,81,-976,61,53,-199,-6,32,0,6,60,58,420,-36442,1714
4650302,2377,2902,2230,2722,3367,43,81,1023,62,51,-200,0,24,0,-1,64,4,420,-36412,2163
4650322,2368,2891,2228,2720,3367,41,81,-976,62,50,-200,-2,20,5,3,61,-11,420,-36386,2163
4650340,2370,2893,2228,2720,3367,41,81,-976,62,50,-200,-2,20,5,3,61,-11,420,-36367,2163
4650353,2378,2903,2226,2717,3368,40,81,-976,62,49,-200,9,13,-4,0,38,4,420,-36336,2163
4650373,2381,2907,2231,2724,3367,40,81,-976,62,48,-200,3,10,-1,-2,32,40,420,-36308,2163
4650391,2356,2876,2220,2710,3367,40,81,-976,62,48,-200,3,10,-1,-2,32,40,420,-36290,2163
4650403,2377,2902,2221,2711,3366,38,1,-976,62,47,-201,5,-24,-9,0,39,38,420,-36259,2524
4650423,2382,2908,2227,2719,3366,38,81,-976,62,47,-201,3,-25,-7,10,43,13,420,-36232,2524
4650442,2395,2924,2228,2720,3366,38,81,-976,62,47,-201,3,-25,-7,10,43,13,420,-36214,2524
4650454,2378,2903,2225,2716,3366,36,81,-976,63,45,-201,8,-12,-4,8,38,-17,420,-36184,2524
4650474,2380,2905,2227,2719,3366,36,81,-976,63,45,-201,9,-11,-4,-1,32,-4,420,-36157,2524
4650492,2376,2901,2222,2713,3366,36,81,-976,63,45,-201,9,-11,-4,-1,32,-4,420,-36138,2524
4650504,2379,2904,2217,2706,3366,35,81,-976,63,44,-201,6,1,-4,-14,20,28,420,-36109,2458
4650524,2387,2914,2212,2700,3365,35,81,-976,63,44,-202,5,0,-7,-10,15,26,420,-36082,2458
4650542,2403,2934,2220,2710,3365,35,81,-976,63,44,-202,5,0,-7,-10,15,26,420,-36061,2458
4650555,2392,2920,2213,2702,3365,34,81,-976,64,44,-202,6,44,-7,-8,25,-19,420,-36028,2458
4650574,2383,2909,2235,2728,3365,34,81,-976,64,44,-202,6,44,-7,-8,25,-19,420,-36006,2458
4650587,2386,2913,2217,2706,3366,33,82,-976,64,43,-201,4,29,2,-18,28,-36,420,-35974,2458
4650606,2387,2914,2220,2710,3366,33,82,-976,64,43,-201,4,29,2,-18,28,-36,420,-35954,2532
4650619,2391,2919,2231,2724,3366,32,81,-976,64,42,-201,11,2,1,27,25,21,420,-35926,2532
4650637,2399,2929,2217,2706,3366,32,81,-976,64,42,-201,11,2,1,27,25,21,420,-35907,2532
4650649,2400,2930,2217,2706,3365,31,81,-976,63,42,-202,8,-34,0,28,19,55,420,-35875,2532
4650670,2396,2925,2217,2706,3364,31,80,-976,63,41,-203,8,-44,3,33,5,31,420,-35848,2532
4650688,2382,2908,2217,2706,3364,31,80,-976,63,41,-203,8,-44,3,33,5,31,420,-35829,2532
4650700,2396,2925,2219,2709,3364,31,79,-976,62,41,-203,10,-36,1,36,-4,-23,420,-35796,2532
4650721,2387,2914,2220,2710,3365,31,79,-976,62,41,-202,1,-12,15,21,-6,-42,420,-35765,2739
4650740,2382,2908,2215,2704,3365,31,79,-976,62,41,-202,1,-12,15,21,-6,-42,420,-35743,2739
4650753,2400,2930,2214,2703,3366,32,79,-976,62,42,-201,-5,40,27,-29,-30,-10,420,-35703,2739
4650774,2394,2923,2205,2692,3366,33,80,-976,62,43,-201,-4,52,9,-58,-40,-3,420,-35663,2739
4650793,2407,2938,2211,2699,3366,33,80,-976,62,43,-201,-4,52,9,-58,-40,-3,420,-35636,2739
4650805,2409,2941,2232,2725,3366,34,82,-976,65,45,-200,-1,85,-7,-82,-48,-49,420,-35594,2739
4650825,2407,2938,2226,2717,3367,35,83,-976,65,45,-200,6,133,-20,0,-48,-55,420,-35550,3429
4650844,2415,2948,2240,2735,3367,35,83,-976,65,45,-200,6,133,-20,0,-48,-55,420,-35516,3429
4650857,2431,2968,2253,2750,3368,36,83,-976,64,47,-199,-14,218,49,0,-51,-23,420,-35457,3429
4650877,2432,2969,2258,2757,3369,38,83,-976,64,48,-198,-24,203,49,-39,-54,-15,420,-35385,3429
4650898,2433,2970,2263,2763,3369,40,85,-976,65,49,-198,-17,182,28,-65,-58,-6,420,-35305,3429
4650919,2461,3004,2268,2769,3369,41,86,-976,66,50,-198,-2,135,1,-86,-75,6,420,-35228,3429
4650938,2478,3025,2279,2782,3369,41,86,-976,66,50,-198,-2,135,1,-86,-75,6,420,-35169,5575
4650951,2496,3047,2286,2791,3368,43,89,-976,68,53,-199,-10,181,16,-126,-81,-21,420,-35068,5575
4650974,2505,3058,2310,2820,3369,45,91,-975,70,55,-198,-12,226,8,-149,-80,-60,420,-34970,5575
4650994,2513,3068,2335,2851,3370,46,94,1023,72,56,-197,-6,242,0,-7,-57,-75,420,-34864,5575
4651015,2504,3057,2346,2864,3372,48,93,-976,71,57,-196,-3,167,0,91,-45,-35,420,-34763,5575
4651035,2520,3076,2334,2849,3372,48,91,-976,70,58,-196,-6,129,3,38,-53,65,420,-34642,5575
4651056,2568,3135,2350,2869,3370,50,91,-975,70,59,-198,-36,149,62,-47,-52,96,420,-34517,9152
4651078,2572,3140,2365,2887,3368,50,93,-975,70,60,-199,-27,141,28,-48,-39,16,420,-34386,9152
4651100,2573,3141,2368,2891,3370,51,93,-975,70,60,-198,-28,161,17,22,-29,-80,420,-34242,9152
4651122,2577,3146,2412,2945,3371,52,92,-976,69,61,-196,-17,119,27,29,-25,-89,420,-34106,9152
4651143,2584,3155,2410,2942,3372,53,90,-976,67,61,-196,-16,141,21,-28,-29,3,420,-33952,9152
4651166,2606,3181,2432,2969,3372,52,85,-976,63,60,-196,-23,138,13,-18,-26,30,420,-33811,10651
4651187,2608,3184,2450,2991,3371,52,81,-976,60,59,-196,5,81,-52,25,-14,18,420,-33655,10651
4651208,2622,3201,2451,2992,3371,52,80,-976,59,59,-197,-20,14,-2,18,1,6,420,-33505,10651
4651229,2617,3195,2432,2969,3371,52,80,-976,59,58,-197,-10,12,2,2,11,6,420,-33338,10651
4651252,2627,3207,2451,2992,3371,51,80,-976,59,50,-197,-31,27,5,-12,14,1,420,-33163,10651
4651275,2657,3244,2487,3036,3371,51,80,-976,60,58,-197,188,-172,-384,35,20,21,420,-32997,12385
4651297,2591,3163,2483,3031,3371,51,81,-976,62,58,-197,-17,-96,-4,-184,8,35,420,-32816,12385
4651320,2589,3161,2432,2969,3370,51,85,-976,64,59,-198,-11,33,-52,-120,-8,67,420,-32661,12385
4651341,2620,3199,2548,3111,3368,51,87,-975,65,59,-199,-30,24,15,-38,-1,63,420,-32503,12385
4651364,2519,3075,2366,2888,3366,51,86,-975,64,59,-200,-125,63,230,68,-10,87,420,-32359,12385
4651384,2614,3191,2456,2998,3364,50,82,-975,61,58,-202,0,-52,-22,288,-15,135,420,-32189,12324
4651408,2676,3267,2497,3048,3362,50,79,-975,58,57,-205,-30,-174,-20,22,8,80,420,-32025,12324
4651430,2552,3115,2399,2929,3361,50,79,-975,58,57,-206,-11,-162,-37,-49,17,-5,420,-31854,12324
4651452,2591,3163,2422,2957,3361,50,80,-975,60,57,-205,0,-9,-32,-78,33,-61,420,-31677,12324
4651476,2594,3167,2443,2982,3363,49,83,-975,61,57,-203,-10,-56,-15,-6,28,-83,420,-31531,12324
4651497,2576,3145,2463,3007,3365,49,82,-975,61,57,-202,-4,-50,18,88,14,-31,420,-31373,12005
4651519,2560,3125,2427,2963,3365,48,80,-975,59,56,-202,-7,-89,1,58,-4,71,420,-31229,12005
4651540,2575,3144,2404,2935,3362,48,80,-975,59,56,-204,-23,-96,-12,-30,0,121,420,-31080,12005
4651561,2574,3142,2407,2938,3360,48,81,-975,60,56,-206,-19,-116,-38,-16,22,67,420,-30941,12005
4651582,2548,3111,2389,2916,3361,47,80,-975,60,55,-206,-5,-97,-24,45,51,-24,420,-30785,12005
4651605,2524,3081,2393,2921,3361,46,81,-975,61,54,-205,2,-86,-22,6,47,-36,420,-30633,11388
4651628,2505,3058,2385,2912,3362,45,85,-975,64,54,-204,-14,-101,-20,-1,29,29,420,-30505,11388
4651648,2510,3064,2360,2881,3361,44,88,-974,67,54,-206,-12,-141,-46,6,23,81,420,-30370,11388
4651670,2509,3063,2342,2859,3358,43,88,-974,67,53,-207,-17,-116,-47,22,27,76,420,-30249,11388
4651690,2511,3065,2359,2880,3358,41,92,-973,71,53,-208,-6,-82,-39,1,48,20,420,-30120,11388
4651712,2483,3031,2346,2864,3358,41,92,-974,71,52,-207,-10,-39,14,18,64,-43,420,-30001,9828
4651732,2476,3023,2336,2852,3360,40,92,-974,71,51,-206,10,-55,-33,3,64,-51,420,-29872,9828
4651755,2489,3039,2343,2860,3360,38,92,-974,71,50,-206,1,-52,-21,-15,46,53,420,-29745,9828
4651777,2483,3031,2320,2832,3358,38,93,-974,72,49,-207,-9,-21,-6,14,39,80,420,-29633,9828
4651797,2516,3072,2351,2870,3357,36,92,-974,72,48,-208,-22,117,41,2,47,31,420,-29501,9828
4651819,2513,3068,2372,2896,3357,35,93,-974,72,47,-208,-8,116,33,-61,61,-61,420,-29375,9704
4651840,2517,3073,2376,2901,3359,35,93,-974,74,46,-206,11,137,12,-16,72,-106,420,-29239,9704
4651862,2496,3047,2395,2924,3361,33,93,-974,73,45,-205,10,148,24,39,64,-52,420,-29107,9704
4651882,2528,3086,2402,2932,3361,32,93,-974,73,44,-205,7,109,-1,8,41,56,420,-28963,9704
4651903,2543,3105,2374,2898,3359,31,91,-974,72,43,-207,-9,60,-7,-17,30,133,420,-28812,9704
4651927,2554,3118,2391,2919,3356,30,91,-974,72,42,-209,-10,46,-15,10,44,71,420,-28673,10787
4651947,2545,3107,2394,2923,3355,29,91,-973,72,42,-210,0,-15,-27,13,53,-8,420,-28521,10787
4651969,2543,3105,2410,2942,3356,28,91,-974,72,41,-210,0,-14,-18,0,46,-21,420,-28382,10787
4651990,2532,3091,2380,2905,3356,27,91,-974,72,40,-209,-1,-4,-36,-10,41,1,420,-28235,10787
4652012,2551,3114,2399,2929,3355,25,91,-974,73,39,-210,-17,-1,10,0,38,48,420,-28099,10787
4652032,2545,3107,2408,2940,3355,25,91,-973,73,38,-211,-2,-19,-16,6,32,58,420,-27961,11285
4652052,2559,3124,2364,2886,3354,24,91,-973,73,37,-211,0,-37,-11,2,38,23,420,-27814,11285
4652074,2559,3124,2392,2920,3354,23,91,-973,73,37,-211,-3,-50,-2,10,43,-6,420,-27679,11285
4652094,2547,3109,2390,2918,3354,22,91,-973,73,36,-211,0,6,16,13,46,-9,420,-27530,11285
4652116,2544,3106,2368,2891,3354,21,91,-973,74,35,-211,1,-9,-14,-7,35,10,420,-27398,11285
4652136,2555,3119,2392,2920,3353,21,91,-973,74,35,-212,-1,-24,18,24,25,37,420,-27253,11314
4652158,2559,3124,2383,2909,3353,20,91,-973,73,34,-212,-4,-31,8,19,31,41,420,-27108,11314
4652180,2555,3119,2389,2916,3352,20,91,-973,74,34,-213,-1,-44,-17,-13,27,31,420,-26977,11314
4652201,2553,3117,2382,2908,3351,19,92,-973,75,33,-213,-6,-47,-3,8,26,11,420,-26839,11314
4652222,2548,3111,2365,2887,3351,18,93,-973,75,33,-213,3,-11,-8,1,26,-8,420,-26707,11314
4652242,2552,3115,2365,2887,3352,18,93,-973,76,33,-213,-9,0,9,4,28,-10,420,-26565,10786
4652264,2545,3107,2382,2908,3352,17,93,-973,76,32,-213,-13,-4,12,10,23,2,420,-26442,10786
4652284,2559,3124,2371,2894,3351,16,92,-973,75,32,-213,6,-14,-11,13,15,28,420,-26301,10786
4652306,2542,3103,2349,2868,3351,16,92,-973,75,31,-214,-6,4,15,-11,10,28,420,-26154,10786
4652329,2546,3108,2348,2866,3350,16,93,-973,76,31,-214,-4,18,3,3,14,0,420,-26021,10786
4652349,2579,3148,2376,2901,3351,16,93,-973,76,31,-214,-8,95,15,-9,22,-41,420,-25873,10732
4652371,2576,3145,2388,2915,3351,15,93,-973,76,31,-213,-12,103,18,-6,20,-56,420,-25733,10732
4652392,2578,3147,2393,2921,3353,15,93,-973,76,31,-212,-4,120,18,1,11,-34,420,-25574,10732
4652414,2592,3164,2419,2953,3353,15,93,-973,76,30,-212,-14,104,35,21,4,18,420,-25431,10732
4652435,2607,3183,2432,2969,3352,15,92,-973,76,30,-213,8,44,-19,13,10,61,420,-25265,10732
4652458,2609,3185,2407,2938,3351,15,91,-973,75,30,-214,-10,58,-4,-5,9,40,420,-25092,11896
4652481,2627,3207,2428,2964,3350,14,92,-973,76,30,-214,0,56,-19,-16,10,-26,420,-24934,11896
4652502,2639,3222,2445,2985,3351,14,91,-973,74,29,-213,8,80,-6,15,12,-60,420,-24769,11896
4652524,2634,3216,2470,3015,3352,14,89,-973,73,29,-213,-2,66,12,12,8,-27,420,-24610,11896
4652544,2642,3225,2462,3006,3352,14,87,-973,72,28,-213,-18,69,20,-21,-9,18,420,-24435,11896
4652567,2658,3245,2469,3014,3351,14,86,-973,70,28,-213,-7,72,0,0,-12,26,420,-24266,12568
4652588,2669,3258,2484,3032,3351,14,84,1026,69,28,-213,9,32,-18,37,-6,-3,420,-24085,12568
4652611,2646,3230,2483,3031,3351,14,83,-973,68,28,-213,-7,6,1,5,-11,-5,420,-23912,12568
4652632,2659,3246,2465,3009,3351,14,83,-973,68,28,-213,-19,-5,-7,-1,-13,3,420,-23731,12568
4652655,2651,3236,2473,3019,3351,15,83,-973,68,28,-214,-14,-12,2,25,-3,11,420,-23540,12568
4652679,2650,3235,2464,3008,3351,15,83,-973,67,28,-214,1,-16,-14,-6,-11,8,420,-23350,13586
4652702,2632,3213,2453,2995,3351,15,83,-973,67,28,-214,1,-30,0,30,-82,10,420,-23167,13586
4652725,2656,3242,2458,3001,3351,15,81,-973,67,28,-214,0,-50,3,33,0,5,420,-23003,13586
4652745,2661,3249,2468,3013,3351,15,81,-973,67,28,-214,-1,-47,-13,-11,-8,-8,420,-22822,13586
4652769,2653,3239,2466,3010,3351,15,82,-973,67,28,-214,-11,-31,-3,18,-7,-29,420,-22658,13586
