Timestamp_ms,ADC1_Raw,ADC1_V_milli,ADC2_Raw,ADC2_V_milli,Heading_deci,Roll_deci,Pitch_deci,Quat_W_milli,Quat_X_milli,Quat_Y_milli,Quat_Z_milli,LinAccel_X_centi,LinAccel_Y_centi,LinAccel_Z_centi,AngVel_X_deci,AngVel_Y_deci,AngVel_Z_deci,Temp_C_deci,Encoder_Count,Encoder_RPM_deci
4722937,2408,2940,2152,2627,3336,-104,88,-966,95,-71,-225,-6,-5,10,-3,-8,-1,420,-36780,0
4722950,2422,2957,2153,2628,3336,-103,88,-966,95,-71,-225,-6,1,0,-5,-14,-3,420,-36780,0
4722967,2425,2960,2144,2617,3336,-103,88,-966,95,-71,-225,-6,1,0,-5,-14,-3,420,-36780,0
4722979,2414,2947,2146,2620,3336,-103,88,-966,94,-70,-226,-4,6,-13,-1,-15,-2,420,-36780,0
4722999,2423,2958,2153,2628,3336,-103,88,-966,94,-70,-226,-4,6,-13,-1,-12,-1,420,-36780,0
4723017,2414,2947,2151,2626,3336,-103,88,-966,94,-70,-226,-4,6,-13,-1,-12,-1,420,-36780,0
4723029,2411,2943,2149,2623,3336,-103,88,-966,94,-70,-226,-6,3,-17,2,-4,3,420,-36780,0
4723048,2412,2945,2152,2627,3336,-103,88,-966,94,-70,-226,-6,3,-17,2,-4,3,420,-36780,0
4723060,2410,2942,2153,2628,3336,-103,88,-966,94,-70,-226,-6,-3,-4,1,-1,5,420,-36780,0
4723079,2392,2920,2148,2622,3336,-103,88,-966,94,-70,-226,-6,-3,-4,1,-1,5,420,-36780,0
4723091,2414,2947,2150,2625,3336,-103,88,-966,94,-70,-226,-1,-8,-8,0,0,2,420,-36780,0
4723111,2414,2947,2150,2625,3336,-103,88,-966,94,-70,-226,0,-9,-5,-3,-1,-3,420,-36780,0
4723131,2411,2943,2151,2626,3336,-103,88,-966,94,-70,-225,-5,-7,0,-1,-5,-9,420,-36780,0
4723151,2408,2940,2153,2628,3336,-102,88,-967,94,-70,-225,-3,0,3,-2,-8,-15,420,-36780,0
4723169,2407,2938,2154,2630,3336,-102,88,-967,94,-70,-225,-3,0,3,-2,-8,-15,420,-36780,0
4723181,2404,2935,2153,2628,3337,-102,88,-967,94,-70,-225,-5,3,-13,-1,-10,-10,420,-36780,0
4723201,2402,2932,2156,2632,3337,-101,88,-967,94,-69,-225,-7,5,-11,0,-17,-5,420,-36780,0
4723219,2404,2935,2152,2627,3337,-101,88,-967,94,-69,-225,-7,5,-11,0,-17,-5,420,-36780,0
4723231,2410,2942,2155,2631,3337,-101,88,-967,94,-69,-225,-11,0,0,0,-16,0,420,-36780,0
4723250,2407,2938,2154,2630,3337,-101,88,-967,94,-69,-225,-11,0,0,0,-16,0,420,-36780,0
4723262,2410,2942,2152,2627,3337,-101,88,-967,94,-69,-225,-10,1,-8,3,-8,3,420,-36780,0
4723282,2412,2945,2173,2653,3337,-101,88,-967,94,-69,1774,-9,-2,-2,2,0,5,420,-36780,0
4723303,2407,2938,2153,2628,3337,-101,88,-967,94,-69,-225,-9,-4,0,0,0,5,420,-36780,0
4723320,2408,2940,2148,2622,3337,-101,88,-967,94,-69,-225,-9,-4,0,0,0,5,420,-36780,0
4723332,2401,2931,2151,2626,3337,-101,88,-967,94,-69,-225,-6,-3,-2,3,-3,-5,420,-36780,0
4723352,2407,2938,2152,2627,3337,-101,88,-967,94,-68,-225,-6,0,-6,1,-12,-10,420,-36780,0
4723370,2406,2937,2151,2626,3337,-101,88,-967,94,-68,-225,-6,0,-6,1,-12,-10,420,-36780,0
4723382,2407,2938,2153,2628,3337,-100,88,-967,94,-68,-225,-3,4,-14,-1,-20,1,420,-36780,0
4723402,2400,2930,2151,2626,3336,-100,88,-967,94,-68,-225,-7,1,-11,0,-16,11,420,-36780,0
4723420,2411,2943,2152,2627,3336,-100,88,-967,94,-68,-225,-7,1,-11,0,-16,11,420,-36780,0
4723432,2410,2942,2154,2630,3336,-100,88,-967,94,-67,-225,-9,-4,-14,1,-5,9,420,-36780,0
4723452,2407,2938,2154,2630,3336,-100,88,-967,94,-67,-225,-12,-7,-4,1,-1,-3,420,-36780,0
4723470,2415,2948,2159,2636,3336,-100,88,-967,94,-67,-225,-12,-7,-4,1,-1,-3,420,-36780,0
4723482,2423,2958,2153,2628,3336,-100,88,-967,94,-67,-225,-14,-6,-5,0,0,-11,420,-36780,0
4723502,2409,2941,2147,2621,3336,-100,88,-967,94,-67,-225,-13,-2,-3,-2,0,-5,420,-36780,0
4723520,2411,2943,2146,2620,3336,-100,88,-967,94,-67,-225,-13,-2,-3,-2,0,-5,420,-36780,0
4723532,2411,2943,2152,2627,3336,-100,88,-967,94,-67,-225,-13,0,-8,-5,5,6,420,-36780,0
4723551,2411,2943,2159,2636,3336,-100,88,-967,94,-67,-225,-13,0,-8,-5,5,6,420,-36780,0
4723563,2412,2945,2152,2627,3336,-100,88,-967,94,-68,-225,-10,1,-5,-3,15,3,420,-36780,0
4723581,2406,2937,2154,2630,3336,-100,88,-967,94,-68,-225,-10,1,-5,-3,15,3,420,-36780,0
4723593,2408,2940,2144,2617,3336,-100,88,-967,94,-68,-225,-7,2,-11,2,16,-5,420,-36780,0
4723613,2408,2940,2155,2631,3336,-101,88,-967,94,-68,-225,-4,3,-13,3,15,-3,420,-36780,0
4723631,2408,2940,2151,2626,3336,-101,88,-967,94,-68,-225,-4,3,-13,3,15,-3,420,-36780,0
4723643,2400,2930,2149,2623,3336,-101,88,-967,94,-69,-225,-4,-3,-9,1,8,8,420,-36780,0
4723663,2427,2963,2151,2626,3336,-101,88,-967,94,-69,-225,-5,-7,3,-3,2,13,420,-36780,0
4723680,2413,2946,2146,2620,3336,-101,88,-967,94,-69,-225,-5,-7,3,-3,2,13,420,-36780,0
4723692,2411,2943,2159,2636,3336,-101,88,-967,94,-69,-225,-3,-7,-6,-4,0,5,420,-36780,0
4723711,2413,2946,2144,2617,3336,-101,88,-967,94,-69,-225,-3,-7,-6,-4,0,5,420,-36780,0
4723723,2408,2940,2150,2625,3336,-101,88,-967,94,-69,-225,-4,-1,-1,-1,3,-13,420,-36780,0
4723743,2407,2938,2152,2627,3336,-101,88,-967,94,-69,-225,-7,5,1,1,4,-13,420,-36780,0
4723763,2409,2941,2154,2630,3337,-101,88,-967,94,-69,-225,-7,6,-6,-1,5,0,420,-36780,0
4723783,2412,2945,2149,2623,3336,-101,88,-967,94,-69,-225,-7,7,-14,-2,1,9,420,-36780,0
4723804,2410,2942,2151,2626,3336,-101,88,-967,94,-69,-225,-11,0,-7,-1,-3,15,420,-36780,0
4723821,2416,2949,2152,2627,3336,-101,88,-967,94,-69,-225,-11,0,-7,-1,-3,15,420,-36780,0
4723834,2408,2940,2155,2631,3336,-101,88,-967,94,-69,-226,-7,0,-10,5,-4,4,420,-36780,0
4723854,2405,2936,2149,2623,3336,-101,88,-967,94,-69,-226,-6,-6,-6,6,0,-1,420,-36780,0
4723871,2404,2935,2153,2628,3336,-101,88,-967,94,-69,-226,-6,-6,-6,6,0,-1,420,-36780,0
4723883,2410,2942,2153,2628,3336,-101,88,-967,94,-69,-226,-6,-9,-9,0,1,2,420,-36780,0
4723902,2408,2940,2152,2627,3336,-101,88,-967,94,-69,-226,-6,-9,-9,0,1,2,420,-36780,0
4723914,2410,2942,2149,2623,3336,-101,88,-967,94,-69,-226,-6,-3,-8,-6,2,6,420,-36780,0
4723935,2408,2940,2150,2625,3336,-101,88,-967,94,-69,-226,-8,-3,-4,-5,5,1,420,-36780,0
4723955,2411,2943,2157,2633,3336,-101,88,-967,94,-69,-226,-7,1,-5,-2,5,-6,420,-36780,0
4723973,2412,2945,2151,2626,3336,-101,88,-967,94,-69,-226,-7,1,-5,-2,5,-6,420,-36780,0
4723985,2412,2945,2151,2626,3336,-101,88,-967,94,-69,-225,-6,6,-4,-2,4,-3,420,-36780,0
4724005,2416,2949,2146,2620,3336,-101,88,-967,94,-69,-226,-5,3,-3,-3,5,6,420,-36780,0
4724023,2411,2943,2147,2621,3336,-101,88,-967,94,-69,-226,-5,3,-3,-3,5,6,420,-36780,0
4724035,2411,2943,2148,2622,3336,-101,88,-967,94,-69,-226,-7,-4,-10,-1,6,5,420,-36780,0
4724056,2411,2943,2150,2625,3336,-101,88,-967,94,-69,-226,-7,-3,-10,3,3,-1,420,-36780,0
4724074,2410,2942,2148,2622,3336,-101,88,-967,94,-69,-226,-7,-3,-10,3,3,-1,420,-36780,0
4724086,2409,2941,2147,2621,3336,-101,88,-967,94,-77,-226,-7,0,-10,1,3,0,420,-36780,0
4724107,2412,2945,2144,2617,3336,-101,88,-967,94,-69,-226,-10,0,1,0,3,3,420,-36780,0
4724126,2408,2940,2152,2627,3336,-101,88,-967,94,-69,-226,-10,0,1,0,3,3,420,-36780,0
4724138,2420,2954,2151,2626,3336,-101,88,1033,94,-69,-226,-5,-3,-8,-1,0,1,420,-36780,0
4724158,2414,2947,2150,2625,3336,-101,88,-966,94,-69,-226,-5,-4,-8,-1,2,-1,420,-36780,0
4724177,2410,2942,2155,2631,3336,-101,88,-966,94,-69,-226,-5,-4,-8,-1,2,-1,420,-36780,0
4724189,2400,2930,2151,2626,3336,-101,88,-967,94,-69,-225,-8,0,-2,1,-6,-6,420,-36780,0
4724209,2408,2940,2151,2626,3336,-101,88,-967,94,-69,-225,-7,0,-3,0,-8,-3,420,-36780,0
4724228,2408,2940,2148,2622,3336,-101,88,-967,94,-69,-225,-7,0,-3,0,-8,-3,420,-36780,0
4724239,2411,2943,2155,2631,3336,-101,88,-967,94,-69,-225,-6,0,-7,-1,-8,4,420,-36780,0
4724259,2410,2942,2152,2627,3336,-101,88,-967,94,-68,-225,-9,-2,-3,-2,-8,6,420,-36780,0
4724278,2411,2943,2151,2626,3336,-101,88,-967,94,-68,-225,-9,-2,-3,-2,-8,6,420,-36780,0
4724290,2400,2930,2150,2625,3336,-100,88,-967,94,-68,-226,-8,1,-5,2,-9,0,420,-36780,0
4724309,2408,2940,2163,2641,3336,-100,88,-967,94,-68,-226,-8,1,-5,2,-9,0,420,-36780,0
4724321,2409,2941,2149,2623,3336,-100,88,-967,94,-68,-226,-7,0,-6,3,-9,-1,420,-36780,0
4724340,2406,2937,2151,2626,3336,-100,88,-967,94,-68,-226,-7,0,-6,3,-9,-1,420,-36780,0
4724352,2411,2943,2153,2628,3336,-100,88,-967,94,-68,-226,-10,-5,-5,0,-8,2,420,-36780,0
4724371,2406,2937,2154,2630,3336,-100,88,-967,94,-68,-226,-10,-5,-5,0,-8,2,420,-36780,0
4724383,2407,2938,2145,2619,3336,-100,88,-967,94,-68,-226,-10,-2,-4,0,-4,-5,420,-36780,0
4724402,2415,2948,2145,2619,3336,-100,88,-967,94,-68,-226,-10,-2,-4,0,-4,-5,420,-36780,0
4724414,2408,2940,2153,2628,3336,-100,88,-967,94,-68,-225,-8,1,1,0,0,-10,420,-36780,0
4724432,2409,2941,2147,2621,3336,-100,88,-967,94,-68,-225,-8,1,1,0,0,-10,420,-36780,0
4724444,2413,2946,2153,2628,3336,-100,88,-967,94,-68,-225,-1,1,-11,1,2,-3,410,-36780,0
4724463,2420,2954,2153,2628,3336,-100,88,-967,94,-68,-225,-1,1,-11,1,2,-3,410,-36780,0
4724475,2415,2948,2152,2627,3336,-100,88,-967,94,-68,-225,-7,2,5,2,-81,0,410,-36780,0
4724494,2412,2945,2144,2617,3336,-100,88,-967,94,-68,-225,-7,2,5,2,-81,0,410,-36780,0
4724506,2411,2943,2158,2634,3336,-100,88,-967,94,-67,-225,-3,-1,-4,3,-12,0,410,-36780,0
4724524,2412,2945,2151,2626,3336,-100,88,-967,94,-67,-225,-3,-1,-4,3,-12,0,410,-36780,0
4724536,2408,2940,2153,2628,3336,-99,88,-967,94,-67,-225,-3,1,-14,5,-19,1,410,-36780,0
4724556,2413,2946,2152,2627,3336,-98,88,-967,94,-67,-225,-7,0,-2,2,-19,1,410,-36780,0
4724573,2412,2945,2155,2631,3336,-98,88,-967,94,-67,-225,-7,0,-2,2,-19,1,410,-36780,0
4724585,2413,2946,2148,2622,3336,-98,88,-967,94,-66,-226,-9,-3,6,3,-105,6,410,-36780,0
4724604,2425,2960,2150,2625,3336,-98,88,-967,94,-66,-226,-9,-3,6,3,-105,6,410,-36780,0
4724616,2411,2943,2152,2627,3336,-97,88,-967,93,-65,-226,1,0,-34,2,-22,5,410,-36780,0
4724633,2409,2941,2154,2630,3336,-97,88,-967,93,-65,-226,1,0,-34,2,-22,5,410,-36780,0
4724645,2424,2959,2154,2630,3336,-96,88,-967,93,-65,-226,-13,-5,-3,0,-20,-1,410,-36780,0
4724664,2406,2937,2140,2612,3336,-96,88,-967,93,-65,-226,-13,-5,-3,0,-20,-1,410,-36780,0
4724677,2412,2945,2156,2632,3336,-96,88,-967,93,-64,-226,-18,-3,3,0,-28,-6,410,-36780,0
4724697,2423,2958,2145,2619,3336,-95,88,-967,93,-64,-226,-13,1,-24,-3,-28,-2,410,-36780,0
4724718,2411,2943,2164,2642,3336,-95,88,-967,93,-64,-226,-20,5,-8,-2,-15,2,410,-36780,0
4724735,2413,2946,2159,2636,3336,-95,88,-967,93,-64,-226,-20,5,-8,-2,-15,2,410,-36780,0
4724747,2412,2945,2155,2631,3336,-95,88,-967,93,-64,-226,-25,0,19,-1,-1,0,410,-36780,0
4724768,2411,2943,2155,2631,3336,-95,88,-967,93,-71,-226,-16,8,-15,8,10,-11,410,-36780,0
4724789,2419,2953,2152,2627,3336,-95,88,-967,93,-64,-226,-15,7,-20,8,18,-9,410,-36780,0
4724810,2410,2942,2159,2636,3336,-95,88,-967,93,-64,-225,-13,-2,-22,10,18,-9,410,-36780,0
4724828,2414,2947,2154,2630,3336,-95,88,-967,93,-64,-225,-13,-2,-22,10,18,-9,410,-36780,0
4724840,2411,2943,2152,2627,3336,-96,87,-967,93,-64,-225,-2,0,-25,3,3,13,410,-36780,0
4724860,2413,2946,2152,2627,3336,-96,87,-967,93,-65,-226,-1,-9,-27,-1,5,17,410,-36780,0
4724878,2423,2958,2152,2627,3336,-96,87,-967,93,-65,-226,-1,-9,-27,-1,5,17,410,-36780,0
4724890,2419,2953,2149,2623,3336,-96,87,1032,93,-65,-226,-18,-16,26,-4,1,2,410,-36780,0
4724910,2409,2941,2154,2630,3336,-96,87,-967,93,-65,-226,-13,-6,31,1,-8,-12,410,-36780,0
4724930,2407,2938,2151,2626,3336,-96,88,-967,93,-64,-226,-8,-3,10,-4,-15,-14,410,-36780,0
4724950,2409,2941,2163,2641,3336,-96,88,-967,93,-64,-226,-4,8,-9,-4,-17,-5,410,-36780,0
4724971,2416,2949,2155,2631,3336,-95,88,-967,93,-64,-226,-4,9,-13,-6,-16,0,410,-36780,0
4724989,2415,2948,2152,2627,3336,-95,88,-967,93,-64,-226,-4,9,-13,-6,-16,0,410,-36780,0
4725001,2419,2953,2146,2620,3336,-95,87,-967,93,-64,-226,-4,7,-10,0,-18,21,410,-36780,0
4725021,2411,2943,2151,2626,3335,-95,87,-967,92,-63,-226,-4,4,-15,3,-16,12,410,-36780,0
4725039,2411,2943,2157,2633,3335,-95,87,-967,92,-63,-226,-4,4,-15,3,-16,12,410,-36780,0
4725051,2411,2943,2156,2632,3335,-94,87,-967,92,-63,-226,-9,-6,-28,11,-18,-15,410,-36780,0
4725072,2415,2948,2144,2617,3335,-94,87,-967,92,-63,-226,-8,-5,-24,10,-16,-12,410,-36780,0
4725090,2402,2932,2157,2633,3335,-94,87,-967,92,-63,-226,-8,-5,-24,10,-16,-12,410,-36780,0
4725102,2411,2943,2152,2627,3336,-93,87,-967,92,-63,-226,-20,-6,2,0,-5,5,410,-36780,0
4725122,2408,2940,2155,2631,3335,-93,87,-967,92,-63,-226,-21,-9,0,-1,2,4,410,-36780,0
4725142,2410,2942,2151,2626,3335,-94,87,-967,92,-63,-226,-19,-7,-5,-5,15,-6,410,-36780,0
4725162,2410,2942,2159,2636,3336,-95,87,-967,92,-63,-226,-18,-6,-1,-2,22,-11,410,-36780,0
4725180,2406,2937,2153,2628,3336,-95,87,-967,92,-63,-226,-18,-6,-1,-2,22,-11,410,-36780,0
4725192,2400,2930,2151,2626,3336,-95,87,-967,92,-64,-226,-14,2,-4,-5,26,-10,410,-36780,0
4725212,2411,2943,2152,2627,3336,-96,87,-967,93,-64,-226,-12,4,-7,-5,27,-6,410,-36780,0
4725230,2415,2948,2144,2617,3336,-96,87,-967,93,-64,-226,-12,4,-7,-5,27,-6,410,-36780,0
4725242,2404,2935,2147,2621,3336,-96,87,-967,93,-65,-226,-2,8,-23,-1,7,12,410,-36780,0
4725262,2413,2946,2154,2630,3336,-96,87,-967,93,-65,-226,-1,5,-25,-2,3,14,410,-36780,0
4725280,2422,2957,2152,2627,3336,-96,87,-967,93,-65,-226,-1,5,-25,-2,3,14,410,-36780,0
4725292,2408,2940,2158,2634,3336,-96,87,-967,93,-65,-226,-12,-6,9,1,-9,1,410,-36780,0
4725312,2408,2940,2158,2634,3336,-96,87,-967,93,-65,-226,-11,-4,12,3,-8,-4,410,-36780,0
4725332,2410,2942,2154,2630,3336,-96,87,-967,93,-65,-226,-9,-2,-3,-1,-7,4,410,-36780,0
4725352,2410,2942,2158,2634,3336,-96,87,-967,93,-65,-226,-8,0,-12,-5,-5,11,410,-36780,0
4725372,2406,2937,2155,2631,3335,-96,87,-967,93,-73,-226,-11,-2,-3,-1,0,2,410,-36780,0
4725392,2416,2949,2153,2628,3336,-96,87,-967,93,-73,-226,-10,-1,5,3,4,-15,410,-36780,0
4725412,2400,2930,2159,2636,3336,-96,87,-967,93,-65,-226,-12,0,-2,6,4,-15,410,-36780,0
4725430,2404,2935,2155,2631,3336,-96,87,-967,93,-65,-226,-12,0,-2,6,4,-15,410,-36780,0
4725442,2413,2946,2152,2627,3336,-96,87,-967,93,-65,-226,-4,2,-24,0,1,5,420,-36780,0
4725462,2410,2942,2154,2630,3336,-96,87,-967,93,-65,-226,-5,0,-29,-1,0,10,420,-36780,0
4725480,2411,2943,2160,2637,3336,-96,87,-967,93,-65,-226,-5,0,-29,-1,0,10,420,-36780,0
4725492,2411,2943,2153,2628,3336,-96,87,-967,93,-65,-226,-8,-11,1,-4,13,3,420,-36780,0
4725513,2415,2948,2157,2633,3336,-97,87,-967,93,-65,-226,-13,-14,16,-2,18,0,420,-36780,0
4725531,2406,2937,2155,2631,3336,-97,87,-967,93,-65,-226,-13,-14,16,-2,18,0,420,-36780,0
4725543,2411,2943,2149,2623,3336,-98,87,-967,93,-66,-226,-7,-4,-7,-5,20,-13,420,-36780,0
4725563,2426,2962,2152,2627,3336,-98,87,-967,93,-66,-226,-8,3,-5,-6,20,-10,420,-36780,0
4725581,2404,2935,2156,2632,3336,-98,87,-967,93,-66,-226,-8,3,-5,-6,20,-10,420,-36780,0
4725593,2413,2946,2155,2631,3336,-98,88,-967,93,-67,-225,-9,9,6,-5,11,3,420,-36780,0
4725613,2415,2948,2151,2626,3336,-98,88,-967,93,-67,-225,-10,5,-1,0,7,1,420,-36780,0
4725631,2411,2943,2162,2639,3336,-98,88,-967,93,-67,-225,-10,5,-1,0,7,1,420,-36780,0
4725643,2416,2949,2152,2627,3336,-99,87,-967,93,-67,1774,-7,7,-27,4,5,-1,420,-36780,0
4725663,2410,2942,2155,2631,3336,-99,87,-967,93,-67,-225,-7,5,-21,5,6,-1,420,-36780,0
4725681,2411,2943,2144,2617,3336,-99,87,-967,93,-67,-225,-7,5,-21,5,6,-1,420,-36780,0
4725693,2410,2942,2152,2627,3336,-99,87,-967,93,-67,-225,-10,-8,-5,3,4,-2,420,-36780,0
4725713,2412,2945,2155,2631,3336,-99,87,-967,93,-67,-225,-12,-9,0,1,3,-2,420,-36780,0
4725732,2413,2946,2153,2628,3336,-99,87,-967,93,-67,-225,-12,-9,0,1,3,-2,420,-36780,0
4725744,2427,2963,2150,2625,3336,-99,88,-967,93,-67,-225,-13,-8,-6,-3,5,-2,420,-36780,0
4725764,2412,2945,2154,2630,3336,-100,88,-967,93,-67,-225,-14,-10,-4,-6,7,-4,420,-36780,0
4725783,2404,2935,2152,2627,3336,-100,88,-967,93,-67,-225,-14,-10,-4,-6,7,-4,420,-36780,0
4725795,2418,2952,2151,2626,3336,-100,88,-967,94,-68,-225,-10,1,-1,-8,10,-6,420,-36780,0
4725815,2404,2935,2152,2627,3336,-100,88,-967,94,-68,-225,-7,1,-4,-8,14,-9,420,-36780,0
4725832,2405,2936,2151,2626,3336,-100,88,-967,94,-68,-225,-7,1,-4,-8,14,-9,420,-36780,0
4725844,2408,2940,2166,2644,3336,-100,88,-967,94,-68,-225,-5,5,-12,-5,22,-4,420,-36780,0
4725864,2421,2956,2148,2622,3336,-101,88,-967,94,-69,-225,-4,2,-14,-4,22,-3,420,-36780,0
4725882,2410,2942,2153,2628,3336,-101,88,-967,94,-69,-225,-4,2,-14,-4,22,-3,420,-36780,0
4725894,2415,2948,2150,2625,3336,-101,88,-967,94,-77,-225,-5,-2,-5,-2,20,-1,420,-36780,0
4725915,2400,2930,2145,2619,3337,-102,88,-967,94,-70,-225,-6,-4,-3,-1,20,-3,420,-36780,0
4725933,2408,2940,2152,2627,3337,-102,88,-967,94,-70,-225,-6,-4,-3,-1,20,-3,420,-36780,0
4725945,2418,2952,2148,2622,3337,-103,88,-967,95,-70,-225,-12,-3,-6,-3,19,-10,420,-36780,0
4725965,2405,2936,2154,2630,3337,-103,88,-967,95,-70,-224,-12,-2,-1,-1,19,-10,420,-36780,0
4725983,2408,2940,2144,2617,3337,-103,88,-967,95,-70,-224,-12,-2,-1,-1,19,-10,420,-36780,0
4725995,2409,2941,2150,2625,3338,-103,88,-967,95,-71,-224,-10,-1,-5,-3,22,-7,420,-36780,0
4726015,2412,2945,2152,2627,3338,-104,88,-967,95,-71,-224,-10,-1,-8,-2,25,-6,420,-36780,0
4726033,2415,2948,2144,2617,3338,-104,88,-967,95,-71,-224,-10,-1,-8,-2,25,-6,420,-36780,0
4726046,2411,2943,2153,2628,3338,-105,88,-967,95,-72,-224,-13,0,-3,-1,26,-7,420,-36780,0
4726065,2412,2945,2153,2628,3338,-105,88,-967,95,-72,-224,-13,0,-3,-1,26,-7,420,-36780,0
4726077,2412,2945,2151,2626,3338,-106,88,-967,95,-73,-224,-13,0,-7,-2,22,0,420,-36780,0
4726095,2411,2943,2148,2622,3338,-106,88,-967,95,-73,-224,-13,0,-7,-2,22,0,420,-36780,0
4726107,2413,2946,2154,2630,3338,-106,88,-966,96,-73,-224,-12,-1,-18,-3,19,4,420,-36780,0
4726126,2423,2958,2157,2633,3338,-106,88,-966,96,-73,-224,-12,-1,-18,-3,19,4,420,-36780,0
4726139,2415,2948,2146,2620,3338,-106,88,-966,96,-74,-224,-12,-3,-19,-4,21,5,420,-36780,0
4726158,2406,2937,2153,2628,3338,-106,88,-966,96,-74,-224,-12,-3,-19,-4,21,5,420,-36780,0
4726170,2404,2935,2149,2623,3338,-108,89,-966,96,-74,-223,-13,-6,1,-5,28,0,420,-36780,0
4726188,2420,2954,2152,2627,3338,-108,89,-966,96,-74,-223,-13,-6,1,-5,28,0,420,-36780,0
4726200,2416,2949,2146,2620,3338,-108,89,-966,96,-75,-223,-10,-1,-9,-3,32,0,420,-36780,0
4726219,2413,2946,2153,2628,3338,-108,89,-966,96,-75,-223,-10,-1,-9,-3,32,0,420,-36780,0
4726231,2412,2945,2148,2622,3338,-110,89,-966,96,-76,-223,-6,-2,-16,-5,40,6,420,-36780,0
4726250,2414,2947,2141,2614,3338,-110,89,-966,96,-76,-223,-6,-2,-16,-5,40,6,420,-36780,0
4726262,2413,2946,2148,2622,3338,-111,89,-966,97,-77,-223,-10,-6,3,-7,46,9,420,-36780,0
4726280,2415,2948,2157,2633,3338,-111,89,-966,97,-77,-223,-10,-6,3,-7,46,9,420,-36780,0
4726292,2412,2945,2149,2623,3338,-113,89,-966,97,-78,-223,-13,-6,-1,-6,47,-1,420,-36780,0
4726312,2426,2962,2167,2645,3338,-113,89,-966,97,-79,-223,-7,-3,-13,-5,48,-2,420,-36780,0
4726330,2415,2948,2144,2617,3338,-113,89,-966,97,-79,-223,-7,-3,-13,-5,48,-2,420,-36780,0
4726342,2415,2948,2140,2612,3338,-115,90,-966,98,-80,-223,-1,2,-15,-6,43,11,420,-36780,0
4726363,2418,2952,2141,2614,3338,-116,90,-966,98,-81,-224,-3,3,-5,-9,45,21,420,-36780,0
4726381,2416,2949,2147,2621,3338,-116,90,-966,98,-81,-224,-3,3,-5,-9,45,21,420,-36780,0
4726393,2415,2948,2148,2622,3338,-117,90,-965,98,-82,-224,-3,-1,-5,-3,45,19,420,-36780,0
4726413,2414,2947,2140,2612,3337,-118,90,-965,98,-83,-224,-1,0,-6,-1,41,14,420,-36780,0
4726431,2416,2949,2149,2623,3337,-118,90,-965,98,-83,-224,-1,0,-6,-1,41,14,420,-36780,0
4726443,2414,2947,2142,2615,3336,-119,90,-965,98,-84,-225,2,-2,-15,-2,33,23,420,-36780,0
4726463,2412,2945,2140,2612,3336,-120,90,-965,99,-84,-225,-7,-8,20,-3,32,26,420,-36780,0
4726481,2423,2958,2137,2609,3336,-120,90,-965,99,-84,-225,-7,-8,20,-3,32,26,420,-36780,0
4726493,2417,2951,2144,2617,3336,-120,89,-965,99,-85,-225,-5,-9,-3,-1,15,15,420,-36780,0
4726514,2415,2948,2146,2620,3336,-121,89,-965,99,-85,-226,-2,-9,-18,0,13,6,420,-36780,0
4726532,2416,2949,2147,2621,3336,-121,89,-965,99,-85,-226,-2,-9,-18,0,13,6,420,-36780,0
4726544,2426,2962,2143,2616,3336,-121,89,-965,99,-86,-226,-9,-3,-4,0,17,-1,420,-36780,0
4726564,2416,2949,2143,2616,3336,-121,89,-965,99,-86,-226,-6,0,4,-2,18,5,420,-36780,0
4726582,2400,2930,2140,2612,3336,-121,89,-965,99,-86,-226,-6,0,4,-2,18,5,420,-36780,0
4726594,2416,2949,2139,2611,3335,-122,89,-965,99,-86,-226,-2,-3,-14,-3,20,15,420,-36780,0
4726614,2423,2958,2151,2626,3335,-123,89,-965,99,-87,-226,0,-8,-26,-1,25,7,420,-36780,0
4726632,2416,2949,2147,2621,3335,-123,89,-965,99,-87,-226,0,-8,-26,-1,25,7,420,-36780,0
4726644,2418,2952,2143,2616,3335,-123,89,-964,99,-88,-226,-9,-9,0,2,30,-6,420,-36780,0
4726664,2417,2951,2149,2623,3335,-124,89,-964,99,-88,-226,-7,-6,6,1,23,-5,420,-36780,0
4726681,2423,2958,2140,2612,3335,-124,89,-964,99,-88,-226,-7,-6,6,1,23,-5,420,-36780,0
4726693,2417,2951,2138,2610,3335,-125,89,-964,99,-88,-226,-4,-3,-7,-2,11,8,420,-36780,0
4726714,2416,2949,2141,2614,3335,-125,89,-964,99,-88,-226,-1,-5,-15,-6,5,10,420,-36780,0
4726731,2419,2953,2143,2616,3335,-125,89,-964,99,-88,-226,-1,-5,-15,-6,5,10,420,-36780,0
4726743,2422,2957,2140,2612,3335,-125,90,-964,100,-88,-226,-1,-2,-1,-3,7,0,420,-36780,0
4726764,2420,2954,2141,2614,3335,-125,90,-964,100,-89,-226,0,6,0,-1,9,2,420,-36780,0
4726781,2423,2958,2140,2612,3335,-125,90,-964,100,-89,-226,0,6,0,-1,9,2,420,-36780,0
4726793,2417,2951,2137,2609,3335,-125,90,-964,100,-89,-226,6,8,-15,1,0,15,420,-36780,0
4726812,2426,2962,2135,2606,3335,-125,90,-964,100,-89,-226,6,8,-15,1,0,15,420,-36780,0
4726824,2425,2960,2139,2611,3334,-125,89,-964,99,-89,-227,-1,-5,12,-1,-17,28,420,-36780,0
4726842,2419,2953,2140,2612,3334,-125,89,-964,99,-89,-227,-1,-5,12,-1,-17,28,420,-36780,0
4726854,2418,2952,2141,2614,3333,-124,89,-964,99,-88,-227,-5,-10,2,3,-26,9,420,-36780,0
4726875,2410,2942,2141,2614,3333,-124,89,-964,99,-88,-227,-6,-5,-5,8,-25,-3,420,-36780,0
4726893,2421,2956,2141,2614,3333,-124,89,-964,99,-88,-227,-6,-5,-5,8,-25,-3,420,-36780,0
4726905,2414,2947,2142,2615,3334,-123,88,-964,99,-87,-227,-10,-3,-9,7,-22,-4,420,-36780,0
4726925,2416,2949,2134,2605,3333,-123,88,-964,99,-87,-227,-10,-3,-10,3,-19,9,420,-36780,0
4726943,2428,2964,2137,2609,3333,-123,88,-964,99,-87,-227,-10,-3,-10,3,-19,9,420,-36780,0
4726955,2421,2956,2136,2608,3333,-122,88,-964,99,-86,-228,-13,-9,-8,1,-13,10,420,-36780,0
4726976,2416,2949,2144,2617,3333,-122,88,-964,98,-86,-228,-14,-13,-10,3,-15,-5,420,-36780,0
4726994,2416,2949,2142,2615,3333,-122,88,-964,98,-86,-228,-14,-13,-10,3,-15,-5,420,-36780,0
4727007,2414,2947,2146,2620,3334,-121,88,-964,98,-86,-227,-14,-5,-13,6,-18,-28,420,-36780,0
4727028,2417,2951,2146,2620,3335,-121,88,-965,98,-85,-227,-9,1,-4,6,-20,-26,420,-36780,0
4727046,2420,2954,2143,2616,3335,-121,88,-965,98,-85,-227,-9,1,-4,6,-20,-26,420,-36780,0
4727058,2417,2951,2145,2619,3335,-120,88,-965,98,-85,-227,-11,-6,-1,-2,-9,11,420,-36780,0
4727078,2416,2949,2143,2616,3334,-120,88,-965,98,-85,-227,-11,-13,-11,0,-5,6,420,-36780,0
4727098,2419,2953,2144,2617,3334,-120,88,1034,98,1914,-227,-11,-14,-15,1,-6,-11,420,-36780,0
4727119,2417,2951,2142,2615,3335,-120,88,-965,98,-85,-226,-9,-5,-15,3,-7,-28,420,-36780,0
4727137,2413,2946,2147,2621,3335,-120,88,-965,98,-85,-226,-9,-5,-15,3,-7,-28,420,-36780,0
4727149,2413,2946,2136,2608,3335,-120,89,-965,98,-85,-226,-7,3,-6,1,-15,-13,420,-36780,0
4727169,2417,2951,2143,2616,3335,-120,89,-965,98,-84,-226,-8,2,-9,-1,-15,-1,420,-36780,0
4727187,2418,2952,2143,2616,3335,-120,89,-965,98,-84,-226,-8,2,-9,-1,-15,-1,420,-36780,0
4727199,2421,2956,2136,2608,3335,-120,89,-965,98,-84,-226,-7,-7,-2,-6,-13,29,420,-36780,0
4727219,2421,2956,2145,2619,3334,-119,89,-965,98,-84,-227,-11,-7,-1,-6,-9,25,420,-36780,0
4727237,2414,2947,2143,2616,3334,-119,89,-965,98,-84,-227,-11,-7,-1,-6,-9,25,420,-36780,0
4727249,2415,2948,2132,2603,3334,-119,89,-965,98,-84,-227,-10,-9,-13,0,-15,-18,420,-36780,0
4727270,2415,2948,2146,2620,3335,-119,89,-965,98,-84,-227,-13,-9,-6,2,-5,-33,420,-36780,0
4727287,2415,2948,2144,2617,3335,-119,89,-965,98,-84,-227,-13,-9,-6,2,-5,-33,420,-36780,0
4727300,2416,2949,2145,2619,3335,-119,90,-965,98,-84,-226,-21,1,-7,-1,0,-32,420,-36780,0
4727713,2431,2968,2144,2617,3339,-155,91,-962,107,-116,-222,-12,-17,15,-44,140,-2,410,-36780,0
4727732,2431,2968,2140,2612,3339,-155,91,-962,107,-116,-222,-12,-17,15,-44,140,-2,410,-36780,0
4727745,2431,2968,2145,2619,3340,-161,93,-961,109,-119,-221,-10,0,14,-49,155,-8,410,-36780,0
4727764,2436,2974,2137,2609,3340,-161,93,-961,109,-119,-221,-10,0,14,-49,155,-8,410,-36780,0
4727776,2440,2979,2142,2615,3340,-166,95,-960,111,-123,-221,-9,9,1,-65,155,35,410,-36780,0
4727794,2441,2980,2126,2595,3340,-166,95,-960,111,-123,-221,-9,9,1,-65,155,35,410,-36780,0
4727807,2444,2984,2142,2615,3338,-170,97,-959,113,-126,-222,-5,49,-26,-56,134,30,410,-36780,0
4727827,2438,2976,2138,2610,3338,-173,97,-959,114,-128,-222,1,56,-14,-6,131,-11,410,-36780,0
4727845,2436,2974,2139,2611,3338,-173,97,-959,114,-128,-222,1,56,-14,-6,131,-11,410,-36780,0
4727858,2441,2980,2142,2615,3340,-176,97,-959,114,-131,-221,16,11,-6,23,132,-11,410,-36780,0
4727879,2455,2997,2130,2600,3339,-179,97,-958,115,-134,-221,25,-16,-5,3,128,47,410,-36780,0
4727897,2451,2992,2122,2590,3339,-179,97,-958,115,-134,-221,25,-16,-5,3,128,47,410,-36780,0
4727910,2469,3014,2116,2583,3336,-183,97,-958,116,-137,-223,31,-22,10,-27,123,81,410,-36780,0
4727931,2453,2995,2120,2588,3335,-185,97,-957,116,-139,-224,31,-22,23,-21,118,56,410,-36780,0
4727950,2451,2992,2129,2599,3335,-185,97,-957,116,-139,-224,31,-22,23,-21,118,56,410,-36780,0
4727962,2433,2970,2139,2611,3336,-188,98,-957,117,-140,-224,49,2,22,-6,91,-17,410,-36780,0
4727982,2451,2992,2124,2593,3336,-188,98,-957,117,-141,-223,50,9,21,-14,64,15,410,-36780,0
4728000,2460,3003,2085,2545,3336,-188,98,-957,117,-141,-223,50,9,21,-14,64,15,410,-36780,0
4728013,2448,2989,2087,2548,3335,-190,98,-956,118,-142,-224,61,43,-42,-22,-10,71,410,-36780,0
4728033,2459,3002,2120,2588,3333,-190,98,-956,118,-143,-226,-3,45,56,6,81,114,410,-36780,0
4728051,2457,3000,2121,2589,3333,-190,98,-956,118,-143,-226,-3,45,56,6,81,114,410,-36780,0
4728064,2452,2993,2126,2595,3330,-273,96,-955,117,-145,-229,29,-33,0,41,56,79,410,-36780,0
4728083,2458,3001,2117,2584,3330,-273,96,-955,117,-145,-229,29,-33,0,41,56,79,410,-36780,0
4728096,2462,3006,2125,2594,3329,-195,95,-955,117,-146,-229,45,-75,-14,18,-4,10,410,-36780,0
4728115,2460,3003,2117,2584,3329,-195,95,-955,117,-146,-229,45,-75,-14,18,-4,10,410,-36780,0
4728128,2457,3000,2119,2587,3330,-193,95,-955,116,-145,-228,31,-44,-12,-14,-51,-53,410,-36780,0
4728146,2464,3008,2121,2589,3330,-193,95,-955,116,-145,-228,31,-44,-12,-14,-51,-53,410,-36780,0
4728159,2452,2993,2125,2594,3331,-191,96,-955,117,-143,-227,17,16,-2,-20,-53,-85,410,-36780,0
4728181,2463,3007,2126,2595,3333,-190,97,-956,117,-143,-226,15,38,-5,-5,-24,-85,410,-36780,0
4728199,2448,2989,2123,2592,3333,-190,97,-956,117,-143,-226,15,38,-5,-5,-24,-85,410,-36780,0
4728211,2462,3006,2122,2590,3335,-190,97,-956,117,-142,-224,9,37,7,11,-31,-14,410,-36780,0
4728232,2463,3007,2118,2586,3335,-189,97,-956,117,-142,-224,6,20,19,10,-52,10,410,-36780,0
4728250,2457,3000,2123,2592,3335,-189,97,-956,117,-142,-224,6,20,19,10,-52,10,410,-36780,0
4728263,2454,2996,2135,2606,3334,-186,96,-956,116,-140,-225,-4,-3,-6,11,-115,37,410,-36780,0
4728283,2448,2989,2125,2594,3333,-184,95,-957,115,-138,-226,-5,-10,-9,15,-121,29,410,-36780,0
4728301,2451,2992,2121,2589,3333,-184,95,-957,115,-138,-226,-5,-10,-9,15,-121,29,410,-36780,0
4728314,2451,2992,2125,2594,3333,-181,95,-957,114,-135,-226,-10,-6,-4,27,-91,-28,410,-36780,0
4728334,2447,2987,2128,2598,3333,-180,94,-958,113,-134,-226,-10,-1,-3,28,-66,-48,410,-36780,0
4728352,2445,2985,2128,2598,3333,-180,94,-958,113,-134,-226,-10,-1,-3,28,-66,-48,410,-36780,0
4728365,2441,2980,2139,2611,3335,-178,94,-958,112,-132,-225,-10,0,-9,26,-54,-38,410,-36780,0
4728384,2445,2985,2132,2603,3335,-178,94,-958,112,-132,-225,-10,0,-9,26,-54,-38,410,-36780,0
4728397,2440,2979,2136,2608,3336,-176,93,-959,111,-131,-224,-15,0,1,21,-74,-19,410,-36780,0
4728415,2441,2980,2131,2601,3336,-176,93,-959,111,-131,-224,-15,0,1,21,-74,-19,410,-36780,0
4728428,2440,2979,2130,2600,3336,-173,93,-959,110,-129,-224,-14,2,-6,19,-86,-15,410,-36780,0
4728446,2435,2973,2128,2598,3336,-173,93,-959,110,-129,-224,-14,2,-6,19,-86,-15,410,-36780,0
4728458,2440,2979,2133,2604,3336,-170,92,-959,109,-127,-224,-13,3,-17,23,-78,-13,410,-36780,0
4728478,2438,2976,2141,2614,3336,-169,91,-960,109,-126,-224,-11,2,-22,24,-68,-10,420,-36780,0
4728496,2446,2986,2136,2608,3336,-169,91,-960,109,-126,-224,-11,2,-22,24,-68,-10,420,-36780,0
4728509,2435,2973,2134,2605,3336,-168,91,-960,108,-125,-223,-16,-3,-22,24,-50,-6,420,-36780,0
4728528,2434,2971,2139,2611,3336,-168,91,-960,108,-125,-223,-16,-3,-22,24,-50,-6,420,-36780,0
4728541,2437,2975,2141,2614,3337,-167,90,-960,107,-124,-223,-19,-12,-22,19,-46,-8,420,-36780,0
4728561,2435,2973,2136,2608,3337,-166,90,-960,107,-124,-223,-24,-13,-21,18,-45,-15,420,-36780,0
4728583,2431,2968,2138,2610,3338,-166,90,-960,107,-124,-223,-27,-7,-14,15,-37,-26,420,-36780,0
4728601,2431,2968,2141,2614,3338,-166,90,-960,107,-124,-223,-27,-7,-14,15,-37,-26,420,-36780,0
4728614,2424,2959,2149,2623,3338,-165,90,-960,107,-123,-222,-30,0,-15,10,-19,-28,420,-36780,0
4728634,2424,2959,2141,2614,3339,-165,90,-961,107,-124,-222,-30,0,-12,8,-17,-24,420,-36780,0
4728652,2430,2967,2136,2608,3339,-165,90,-961,107,-124,-222,-30,0,-12,8,-17,-24,420,-36780,0
4728665,2428,2964,2140,2612,3339,-166,90,-961,107,-124,-222,-25,-5,-2,0,5,10,420,-36780,0
4728685,2443,2982,2139,2611,3339,-166,90,-960,107,-124,-222,-25,-5,-13,-5,13,23,420,-36780,0
4728703,2441,2980,2132,2603,3339,-166,90,-960,107,-124,-222,-25,-5,-13,-5,13,23,420,-36780,0
4728716,2432,2969,2138,2610,3338,-168,90,-960,107,-125,-222,-13,-4,-31,-10,21,25,420,-36780,0
4728735,2431,2968,2132,2603,3338,-168,90,-960,107,-125,-222,-13,-4,-31,-10,21,25,420,-36780,0
4728748,2439,2978,2130,2600,3337,-169,91,-960,108,-126,-223,-9,-4,-22,-8,32,4,420,-36780,0
4728767,2435,2973,2138,2610,3337,-169,91,-960,108,-126,-223,-9,-4,-22,-8,32,4,420,-36779,16
4728779,2424,2959,2140,2612,3338,-170,91,-960,109,-127,-223,-12,2,9,-6,42,-3,420,-36779,16
4728797,2435,2973,2137,2609,3338,-170,91,-960,109,-127,-223,-12,2,9,-6,42,-3,420,-36779,16
4728810,2426,2962,2139,2611,3337,-171,91,-959,109,-128,-223,-15,6,24,-10,46,19,420,-36779,16
4728830,2437,2975,2130,2600,3336,-173,91,-959,109,-129,-223,-12,2,-4,-17,45,33,420,-36779,16
4728848,2436,2974,2138,2610,3336,-173,91,-959,109,-129,-223,-12,2,-4,-17,45,33,420,-36779,16
4728861,2443,2982,2131,2601,3336,-174,91,-959,110,-130,-224,-15,-1,-16,-13,57,20,420,-36779,16
4728881,2441,2980,2122,2590,3336,-175,91,-959,110,-131,-224,-15,-4,4,-1,66,0,420,-36779,0
4728899,2449,2990,2132,2603,3336,-175,91,-959,110,-131,-224,-15,-4,4,-1,66,0,420,-36779,0
4728912,2439,2978,2135,2606,3336,-178,92,-958,111,-133,-223,-11,-8,0,-5,75,-13,420,-36779,0
4728932,2446,2986,2130,2600,3336,-179,92,-958,111,-135,-223,-7,0,-8,-11,85,-7,420,-36779,0
4728950,2442,2981,2130,2600,3336,-179,92,-958,111,-135,-223,-7,0,-8,-11,85,-7,420,-36779,0
4728962,2443,2982,2133,2604,3336,-182,93,-958,112,-137,1776,-4,0,-20,-15,97,12,420,-36779,0
4728983,2450,2991,2130,2600,3336,-184,93,-958,113,-138,-223,0,-7,-19,-21,101,23,420,-36779,0
4729001,2446,2986,2125,2594,3336,-184,93,-958,113,-138,-223,0,-7,-19,-21,101,23,420,-36779,0
4729014,2444,2984,2133,2604,3336,-187,94,-957,114,-149,-224,0,-10,-3,-28,106,13,420,-36779,0
4729035,2449,2990,2128,2598,3336,-189,95,-957,115,-142,-224,2,-5,0,-28,103,12,420,-36779,0
4729052,2447,2987,2134,2605,3336,-189,95,-957,115,-142,-224,2,-5,0,-28,103,12,420,-36779,0
4729065,2446,2986,2125,2594,3335,-192,96,-956,116,-145,-224,9,6,-7,-28,99,10,420,-36779,0
4729085,2446,2986,2114,2581,3335,-194,96,-956,117,-146,-224,8,11,-6,-30,100,11,420,-36779,0
4729103,2448,2989,2124,2593,3335,-194,96,-956,117,-146,-224,8,11,-6,-30,100,11,420,-36779,0
4729116,2449,2990,2126,2595,3335,-277,97,-955,118,-148,-224,13,0,8,-23,102,10,420,-36779,0
4729136,2453,2995,2131,2601,3335,-199,98,-955,119,-150,-224,17,-1,7,-23,100,11,420,-36779,0
4729154,2455,2997,2114,2581,3335,-199,98,-955,119,-150,-224,17,-1,7,-23,100,11,420,-36779,0
4729166,2455,2997,2127,2597,3335,-281,98,-954,120,-152,-224,24,-7,-2,-28,83,12,420,-36779,0
4729186,2464,3008,2124,2593,3335,-203,99,-954,121,-153,-224,26,-4,6,-30,75,10,420,-36779,0
4729205,2455,2997,2112,2578,3335,-203,99,-954,121,-153,-224,26,-4,6,-30,75,10,420,-36779,0
4729217,2460,3003,2115,2582,3334,-204,100,-954,122,-154,-224,30,14,21,-30,61,1,420,-36779,0
4729237,2455,2997,2117,2584,3334,-205,100,-954,122,-155,-224,31,28,15,-14,51,-12,420,-36779,0
4729255,2459,3002,2118,2586,3334,-205,100,-954,122,-155,-224,31,28,15,-14,51,-12,420,-36779,0
4729268,2456,2998,2124,2593,3335,-286,101,-954,122,-156,-224,42,27,4,9,31,-3,420,-36779,0
4729287,2460,3003,2119,2587,3335,-286,101,-954,122,-156,-224,42,27,4,9,31,-3,420,-36779,0
4729300,2463,3007,2118,2586,3335,-206,100,-953,122,-156,-224,39,-3,-1,6,0,44,420,-36779,0
4729319,2464,3008,2121,2589,3335,-206,100,-953,122,-156,-224,39,-3,-1,6,0,44,420,-36779,0
4729331,2464,3008,2121,2589,3333,-206,99,-953,122,-155,-226,26,-16,-3,-1,-28,45,420,-36779,0
4729349,2461,3004,2135,2606,3333,-206,99,-953,122,-155,-226,26,-16,-3,-1,-28,45,420,-36779,0
4729362,2458,3001,2117,2584,3332,-205,99,-953,121,-155,-226,17,-14,-11,3,-28,-1,420,-36779,0
4729382,2459,3002,2116,2583,3332,-204,99,-953,121,-154,-226,14,-7,-8,3,-21,-20,420,-36779,0
4729400,2457,3000,2118,2586,3332,-204,99,-953,121,-154,-226,14,-7,-8,3,-21,-20,420,-36779,0
4729412,2462,3006,2132,2603,3333,-203,100,-954,121,-154,-225,14,12,-11,-6,-6,-12,420,-36779,0
4729432,2462,3006,2114,2581,3333,-203,100,-954,121,-154,-225,12,19,-4,-7,0,0,420,-36779,0
4729453,2471,3017,2122,2590,3333,-203,100,-954,121,-154,-225,10,8,2,0,-1,-1,420,-36779,0
4729472,2463,3007,2120,2588,3333,-203,100,-954,121,-154,-225,10,8,2,0,-1,-1,420,-36779,0
4729484,2455,2997,2122,2590,3333,-203,99,-954,121,-153,-225,11,-9,2,13,-15,-17,420,-36779,0
4729502,2453,2995,2116,2583,3333,-203,99,-954,121,-153,-225,11,-9,2,13,-15,-17,420,-36779,0
4729515,2463,3007,2113,2579,3333,-202,99,-954,121,-153,-225,14,-4,1,-3,-26,-2,420,-36779,0
4729536,2458,3001,2119,2587,3333,-201,99,-954,121,-152,-225,13,2,8,-4,-26,-2,420,-36779,0
4729554,2452,2993,2126,2595,3333,-201,99,-954,121,-152,-225,13,2,8,-4,-26,-2,420,-36779,0
4729566,2455,2997,2127,2597,3334,-201,99,-954,121,-151,-225,18,3,-3,10,-40,-23,420,-36779,0
4729587,2468,3013,2113,2579,3334,-200,99,-955,120,-150,-224,16,0,-9,11,-43,-22,420,-36779,0
4729605,2452,2993,2123,2592,3334,-200,99,-955,120,-150,-224,16,0,-9,11,-43,-22,420,-36779,0
4729618,2455,2997,2122,2590,3335,-198,99,-955,120,-149,-224,5,-2,0,3,-66,-11,420,-36779,0
4729638,2451,2992,2125,2594,3335,-196,99,-955,120,-148,-224,4,-2,5,1,-73,-11,420,-36779,0
4729655,2449,2990,2116,2583,3335,-196,99,-955,120,-148,-224,4,-2,5,1,-73,-11,420,-36779,0
4729668,2450,2991,2125,2594,3335,-194,99,-955,119,-146,-224,1,4,-1,5,-85,-15,420,-36779,0
4729688,2450,2991,2128,2598,3335,-192,99,-956,119,-144,-224,0,5,0,7,-86,-14,420,-36779,0
4729705,2448,2989,2129,2599,3335,-192,99,-956,119,-144,-224,0,5,0,7,-86,-14,420,-36779,0
4729718,2450,2991,2122,2590,3335,-190,98,-956,118,-142,-224,2,0,5,8,-101,0,420,-36779,0
4729738,2454,2996,2128,2598,3335,-188,98,-956,118,-140,-224,2,-5,5,7,-113,-2,420,-36779,0
4729756,2455,2997,2122,2590,3335,-188,98,-956,118,-140,-224,2,-5,5,7,-113,-2,420,-36779,0
4729768,2448,2989,2122,2590,3335,-184,98,-957,117,-138,-224,-2,-4,7,11,-141,-18,420,-36779,0
4729788,2438,2976,2116,2583,3335,-181,98,-957,116,-135,-224,0,1,4,9,-143,-23,420,-36779,0
4729806,2440,2979,2132,2603,3335,-181,98,-957,116,-135,-224,0,1,4,9,-143,-23,420,-36779,0
4729819,2438,2976,2134,2605,3335,-177,97,-958,115,-132,-224,-5,8,-7,11,-160,-25,420,-36779,0
4729839,2439,2978,2135,2606,3336,-174,97,-958,114,-129,-224,-3,7,-3,11,-165,-21,420,-36779,0
4729857,2445,2985,2132,2603,3336,-174,97,-958,114,-129,-224,-3,7,-3,11,-165,-21,420,-36779,0
4729870,2437,2975,2132,2603,3336,-169,96,-959,112,-124,-224,-9,3,-5,18,-181,-19,420,-36779,0
4729889,2432,2969,2133,2604,3336,-169,96,-959,112,-124,-224,-9,3,-5,18,-181,-19,420,-36779,0
4729902,2438,2976,2150,2625,3336,-163,96,-960,111,-119,-224,-10,0,-6,23,-186,-24,420,-36779,0
4729920,2440,2979,2138,2610,3336,-163,96,-960,111,-119,-224,-10,0,-6,23,-186,-24,420,-36779,0
4729933,2433,2970,2131,2601,3336,-156,95,-961,109,-115,-224,-28,-3,13,18,-175,-13,420,-36779,0
4729951,2435,2973,2141,2614,3336,-156,95,-961,109,-115,-224,-28,-3,13,18,-175,-13,420,-36779,0
4729964,2434,2971,2130,2600,3336,-151,95,-962,108,-110,-224,-11,-8,-23,6,-214,-21,420,-36779,0
4729984,2429,2965,2159,2636,3337,-146,94,-962,107,-107,-224,-9,0,-12,12,-206,-34,420,-36779,0
4730002,2424,2959,2140,2612,3337,-146,94,-962,107,-107,-224,-9,0,-12,12,-206,-34,420,-36779,0
4730015,2425,2960,2148,2622,3338,-141,94,-963,106,-102,-223,-23,18,-12,10,-164,-31,420,-36779,0
4730036,2423,2958,2144,2617,3338,-139,94,-963,106,-100,-223,-26,12,2,13,-138,-21,420,-36779,0
4730054,2424,2959,2147,2621,3338,-139,94,-963,106,-100,-223,-26,12,2,13,-138,-21,420,-36779,0
4730067,2428,2964,2151,2626,3338,-136,93,-963,104,-98,-223,-25,16,-18,16,-103,5,420,-36779,0
4730088,2428,2964,2149,2623,3338,-135,92,-964,104,-97,-224,-28,8,-26,15,-91,5,420,-36779,0
4730106,2426,2962,2140,2612,3338,-135,92,-964,104,-97,-224,-28,8,-26,15,-91,5,420,-36779,0
4730118,2426,2962,2144,2617,3337,-133,91,-964,103,-96,-224,-11,-15,-10,18,-54,10,420,-36779,0
4730139,2427,2963,2146,2620,3337,-133,91,-964,102,-95,-224,-9,-16,-8,13,-47,15,420,-36779,0
4730157,2436,2974,2147,2621,3337,-133,91,-964,102,-95,-224,-9,-16,-8,13,-47,15,420,-36779,0
4730170,2424,2959,2144,2617,3336,-131,91,-964,102,-94,-225,8,-6,-14,-5,-13,27,420,-36779,0
4730190,2432,2969,2144,2617,3335,-131,91,-964,102,-94,-225,9,-3,-16,-10,10,25,420,-36779,0
4730208,2428,2964,2146,2620,3335,-131,91,-964,102,-94,-225,9,-3,-16,-10,10,25,420,-36779,0
4730220,2431,2968,2143,2616,3335,-132,91,-963,103,-95,-226,25,-5,-25,-13,26,15,420,-36779,0
4730240,2432,2969,2139,2611,3335,-133,91,-963,103,-95,-226,19,-4,-13,-18,35,11,420,-36779,0
4730258,2432,2969,2142,2615,3335,-133,91,-963,103,-95,-226,19,-4,-13,-18,35,11,420,-36779,0
4730271,2433,2970,2141,2614,3335,-134,92,-963,104,-96,-226,6,16,-24,-23,65,8,420,-36779,0
4730290,2434,2971,2132,2603,3335,-134,92,-963,104,-96,-226,6,16,-24,-23,65,8,420,-36779,0
4730303,2432,2969,2136,2608,3335,-136,93,-963,105,-99,-226,6,1,0,-7,103,3,420,-36779,0
4730321,2416,2949,2135,2606,3335,-136,93,-963,105,-99,-226,6,1,0,-7,103,3,420,-36779,0
4730333,2433,2970,2128,2598,3335,-139,93,-962,106,-101,-226,0,-12,13,-9,98,3,420,-36779,0
4730350,2429,2965,2138,2610,3335,-139,93,-962,106,-101,-226,0,-12,13,-9,98,3,420,-36779,0
4730363,2432,2969,2124,2593,3335,-142,93,-962,106,-103,-226,-6,-9,19,-10,76,-16,420,-36779,0
4730382,2431,2968,2128,2598,3335,-142,93,-962,106,-103,-226,-6,-9,19,-10,76,-16,420,-36779,0
4730394,2432,2969,2133,2604,3336,-144,94,-962,107,-104,-225,-11,0,20,-6,54,-37,420,-36779,0
4730412,2425,2960,2131,2601,3336,-144,94,-962,107,-104,-225,-11,0,20,-6,54,-37,420,-36779,0
4730424,2429,2965,2135,2606,3337,-145,95,-962,107,-105,-224,-10,9,13,-6,50,-33,420,-36779,0
4730442,2427,2963,2141,2614,3337,-145,95,-962,107,-105,-224,-10,9,13,-6,50,-33,420,-36779,0
4730455,2430,2967,2136,2608,3338,-147,95,-962,108,-107,-223,-11,12,3,-3,60,-10,420,-36779,0
4730474,2444,2984,2131,2601,3338,-147,95,-962,108,-107,-223,-11,12,3,-3,60,-10,420,-36779,0
4730487,2435,2973,2128,2598,3338,-149,95,-962,108,-109,-223,-9,0,9,0,60,2,420,-36779,0
4730504,2432,2969,2134,2605,3338,-149,95,-962,108,-109,-223,-9,0,9,0,60,2,420,-36779,0
4730516,2424,2959,2136,2608,3338,-150,95,-962,108,-110,-223,-4,-6,-12,1,39,-10,420,-36779,0
4730536,2431,2968,2132,2603,3338,-151,95,-962,108,-110,-222,0,0,-14,5,25,-18,420,-36779,0
4730553,2431,2968,2132,2603,3338,-151,95,-962,108,-110,-222,0,0,-14,5,25,-18,420,-36779,0
4730565,2431,2968,2134,2605,3339,-151,95,-962,109,-110,-222,-5,4,-6,1,9,-11,420,-36779,0
4730585,2428,2964,2137,2609,3339,-151,95,-962,109,-110,-222,-6,13,-8,1,-7,0,420,-36779,0
4730603,2432,2969,2141,2614,3339,-151,95,-962,109,-110,-222,-6,13,-8,1,-7,0,420,-36779,0
4730615,2430,2967,2136,2608,3338,-151,95,-962,108,-110,-222,-4,11,-17,5,-19,20,420,-36779,0
4730633,2432,2969,2133,2604,3338,-151,95,-962,108,-110,-222,-4,11,-17,5,-19,20,420,-36779,0
4730646,2439,2978,2136,2608,3338,-150,95,-962,108,-110,-223,-7,0,-21,5,-30,31,420,-36779,0
4730664,2435,2973,2132,2603,3338,-150,95,-962,108,-110,-223,-7,0,-21,5,-30,31,420,-36779,0
4730677,2436,2974,2143,2616,3337,-150,94,-962,108,-109,-224,0,-8,-11,7,-20,16,420,-36779,0
4730695,2441,2980,2138,2610,3337,-150,94,-962,108,-109,-224,0,-8,-11,7,-20,16,420,-36779,0
4730707,2435,2973,2147,2621,3336,-150,94,-962,108,-109,-224,6,-13,0,6,-1,1,420,-36779,0
4730727,2432,2969,2139,2611,3337,-150,94,-962,108,-109,-224,15,-13,-5,0,-1,-1,420,-36779,0
4730745,2437,2975,2135,2606,3337,-150,94,-962,108,-109,-224,15,-13,-5,0,-1,-1,420,-36779,0
4730758,2432,2969,2140,2612,3337,-149,94,-962,108,-109,-224,21,-2,4,-6,-10,-10,420,-36779,0
4730778,2438,2976,2136,2608,3337,-149,95,-962,108,-108,-224,21,5,9,-10,-16,-6,420,-36779,0
4730796,2432,2969,2141,2614,3337,-149,95,-962,108,-108,-224,21,5,9,-10,-16,-6,420,-36779,0
4730809,2432,2969,2128,2598,3336,-148,95,-962,108,-107,-224,15,21,5,-13,-24,23,420,-36779,0
4730829,2440,2979,2130,2600,3336,-147,95,-962,108,-107,-225,14,8,7,-14,-24,35,420,-36779,0
4730847,2441,2980,2138,2610,3336,-147,95,-962,108,-107,-225,14,8,7,-14,-24,35,420,-36779,0
4730859,2439,2978,2134,2605,3335,-146,94,-962,107,-106,-225,18,0,3,6,-21,5,420,-36779,0
4730880,2453,2995,2128,2598,3335,-146,94,-962,107,-106,-225,20,0,4,13,-23,-1,420,-36779,0
4730898,2432,2969,2141,2614,3335,-146,94,-962,107,-106,-225,20,0,4,13,-23,-1,420,-36779,0
4730910,2433,2970,2143,2616,3335,-145,93,-962,107,-105,-225,9,0,11,5,-41,1,420,-36779,0
4730930,2444,2984,2141,2614,3335,-144,93,-962,106,-104,-225,8,7,2,1,-42,5,420,-36779,0
4730948,2439,2978,2141,2614,3335,-144,93,-962,106,-104,-225,8,7,2,1,-42,5,420,-36779,0
4730960,2448,2989,2141,2614,3335,-143,93,-962,106,-103,-226,14,5,0,8,-59,2,420,-36779,0
4730980,2437,2975,2145,2619,3335,-141,93,-962,106,-102,-226,16,0,2,13,-65,-2,420,-36779,0
4730998,2438,2976,2154,2630,3335,-141,93,-962,106,-102,-226,16,0,2,13,-65,-2,420,-36779,0
4731010,2437,2975,2143,2616,3335,-139,93,-963,105,1899,1773,-2,-2,-1,10,-75,-10,420,-36779,0
4731031,2432,2969,2144,2617,3335,-138,93,-963,104,-99,-226,-9,2,-17,6,-75,-8,420,-36779,0
4731049,2436,2974,2148,2622,3335,-138,93,-963,104,-99,-226,-9,2,-17,6,-75,-8,420,-36779,0
4731061,2440,2979,2148,2622,3335,-135,92,-963,104,-97,-226,-8,8,-47,11,-74,-10,420,-36779,0
4731082,2432,2969,2147,2621,3335,-134,92,-963,103,-96,-226,-14,5,-37,14,-71,-12,420,-36779,0
4731100,2439,2978,2151,2626,3335,-134,92,-963,103,-96,-226,-14,5,-37,14,-71,-12,420,-36779,0
4731113,2435,2973,2150,2625,3335,-132,91,-963,103,-95,-226,-26,16,17,19,-76,-5,420,-36779,0
4731133,2439,2978,2167,2645,3335,-131,91,-964,102,-93,-226,-21,12,7,25,-78,-1,420,-36779,0
4731151,2444,2984,2154,2630,3335,-131,91,-964,102,-93,-226,-21,12,7,25,-78,-1,420,-36779,0
4731163,2440,2979,2159,2636,3335,-128,90,-964,101,-92,-226,-7,2,-35,33,-81,16,420,-36779,0
4731183,2439,2978,2153,2628,3335,-127,89,-964,100,-91,-226,7,5,-52,34,-66,15,420,-36779,0
4731201,2441,2980,2148,2622,3335,-127,89,-964,100,-91,-226,7,5,-52,34,-66,15,420,-36779,0
4731213,2435,2973,2162,2639,3334,-125,88,-964,98,-89,-227,15,-23,-29,26,-65,6,420,-36779,0
4731233,2426,2962,2157,2633,3334,-124,88,-964,98,-88,-227,14,-29,-1,8,-61,3,420,-36779,0
4731251,2443,2982,2163,2641,3334,-124,88,-964,98,-88,-227,14,-29,-1,8,-61,3,420,-36779,0
4731263,2431,2968,2154,2630,3334,-122,88,-964,98,-86,-227,2,-19,8,-8,-74,-16,420,-36779,0
4731283,2429,2965,2153,2628,3335,-120,88,-965,98,-85,-227,3,-14,3,-12,-71,-25,420,-36779,0
4731301,2431,2968,2148,2622,3335,-120,88,-965,98,-85,-227,3,-14,3,-12,-71,-25,420,-36779,0
4731313,2431,2968,2153,2628,3335,-118,88,-965,98,-83,-226,0,15,-12,-12,-66,-33,420,-36779,0
4731333,2425,2960,2146,2620,3336,-117,88,-965,98,-82,-226,-2,18,-6,-6,-37,-22,420,-36779,0
4731351,2431,2968,2158,2634,3336,-117,88,-965,98,-82,-226,-2,18,-6,-6,-37,-22,420,-36779,0
4731364,2421,2956,2153,2628,3336,-116,89,-965,97,-89,-225,-17,15,4,3,-15,-12,420,-36779,0
4731383,2431,2968,2163,2641,3336,-116,89,-965,97,-89,-225,-17,15,4,3,-15,-12,420,-36779,0
4731396,2426,2962,2159,2636,3336,-116,88,-965,97,-81,-225,-24,0,31,10,-47,0,420,-36779,0
4731414,2426,2962,2157,2633,3336,-116,88,-965,97,-81,-225,-24,0,31,10,-47,0,420,-36779,0
4731426,2423,2958,2154,2630,3336,-115,88,-965,97,-81,-225,-27,-15,2,10,25,3,420,-36779,0
4731445,2429,2965,2149,2623,3336,-115,88,-965,97,-81,-225,-27,-15,2,10,25,3,420,-36779,0
4731457,2420,2954,2152,2627,3336,-115,88,-966,96,-79,-225,9,-15,-27,-14,-100,5,420,-36779,0
4731476,2427,2963,2144,2617,3336,-115,88,-966,96,-79,-225,9,-15,-27,-14,-100,5,420,-36779,0
4731489,2422,2957,2156,2632,3336,-112,88,-966,96,-78,-225,6,-5,-27,-8,-30,-28,420,-36779,0
4731507,2431,2968,2146,2620,3336,-112,88,-966,96,-78,-225,6,-5,-27,-8,-30,-28,420,-36779,0
4731519,2429,2965,2151,2626,3338,-111,89,-966,96,-78,-224,-12,2,28,-5,-3,-55,420,-36779,0
4731539,2412,2945,2150,2625,3338,-111,89,-966,97,-77,-223,-9,10,32,-9,-33,-37,420,-36779,0
4731557,2418,2952,2153,2628,3338,-111,89,-966,97,-77,-223,-9,10,32,-9,-33,-37,420,-36779,0
4731570,2419,2953,2149,2623,3338,-110,90,-966,97,-76,-223,-10,22,1,-13,-33,6,420,-36779,0
4731590,2410,2942,2154,2630,3338,-110,89,-966,96,-76,-224,-19,20,0,-3,-24,16,420,-36779,0
4731608,2421,2956,2152,2627,3338,-110,89,-966,96,-76,-224,-19,20,0,-3,-24,16,420,-36779,0
4731620,2423,2958,2155,2631,3338,-109,88,-966,96,-75,-224,-27,12,-12,13,-33,15,420,-36779,0
4731640,2424,2959,2156,2632,3337,-109,88,-966,96,-75,-224,-20,5,-13,19,-29,11,420,-36779,0
4731657,2429,2965,2159,2636,3337,-109,88,-966,96,-75,-224,-20,5,-13,19,-29,11,420,-36779,0
4731670,2424,2959,2155,2631,3337,-108,88,-966,95,-75,-225,-5,-15,-15,14,-31,13,420,-36779,0
4731689,2431,2968,2154,2630,3337,-108,88,-966,95,-75,-225,-5,-15,-15,14,-31,13,420,-36779,0
4731702,2424,2959,2155,2631,3336,-107,88,-966,95,-74,-225,2,-15,-23,-2,-44,15,420,-36779,0
4731722,2422,2957,2152,2627,3336,-106,88,-966,95,-73,-225,7,-7,-17,-8,-49,6,420,-36779,0
4731742,2423,2958,2157,2633,3336,-105,88,-966,95,-72,-225,7,-5,-7,-5,-46,-6,420,-36779,0
4731760,2420,2954,2161,2638,3336,-105,88,-966,95,-72,-225,7,-5,-7,-5,-46,-6,420,-36779,0
4731772,2421,2956,2153,2628,3336,-104,88,-966,94,-71,-225,4,11,-24,-6,-49,-10,420,-36779,0
4731793,2419,2953,2163,2641,3336,-103,88,-966,94,-70,-225,3,12,-34,-5,-49,-1,420,-36779,0
4731810,2427,2963,2148,2622,3336,-103,88,-966,94,-70,-225,3,12,-34,-5,-49,-1,420,-36779,0
4731823,2423,2958,2158,2634,3336,-101,88,-967,94,-69,-226,-14,0,16,0,-61,0,420,-36779,0
4731844,2416,2949,2148,2622,3336,-100,88,-967,94,-68,-226,-14,6,19,2,-58,-3,420,-36779,0
4731862,2409,2941,2155,2631,3336,-100,88,-967,94,-68,-226,-14,6,19,2,-58,-3,420,-36779,0
4731874,2414,2947,2154,2630,3336,-98,88,-967,93,-67,1773,-19,0,12,9,-46,12,420,-36779,0
4731894,2415,2948,2153,2628,3336,-98,87,-967,93,-66,-226,-15,3,13,11,-35,21,420,-36779,0
4731912,2417,2951,2152,2627,3336,-98,87,-967,93,-66,-226,-15,3,13,11,-35,21,420,-36779,0
4731924,2425,2960,2155,2631,3335,-97,87,-967,93,-66,-227,24,-8,-30,2,-21,23,420,-36779,0
4731945,2418,2952,2158,2634,3335,-97,87,-967,93,-65,-227,-16,-5,8,-12,-2,20,420,-36779,0
4731963,2415,2948,2152,2627,3335,-97,87,-967,93,-65,-227,-16,-5,8,-12,-2,20,420,-36779,0
4731975,2410,2942,2160,2637,3334,-97,88,-966,93,-65,-227,9,10,15,-9,-2,-13,420,-36779,0
4731995,2416,2949,2156,2632,3335,-96,88,-966,93,-65,-227,1,0,28,-13,3,-13,420,-36779,0
4732013,2415,2948,2175,2655,3335,-96,88,-966,93,-65,-227,1,0,28,-13,3,-13,420,-36779,0
4732025,2416,2949,2164,2642,3335,-96,88,-967,94,-65,-227,-7,16,21,-8,-1,13,420,-36779,0
4732045,2423,2958,2156,2632,3334,-96,88,-966,93,-65,-227,14,12,-12,-5,-11,20,420,-36779,0
4732063,2423,2958,2158,2634,3334,-96,88,-966,93,-65,-227,14,12,-12,-5,-11,20,420,-36779,0
4732076,2417,2951,2158,2634,3333,-96,88,-966,93,-64,-228,-5,4,-35,8,59,13,420,-36779,0
4732096,2416,2949,2157,2633,3333,-97,88,-966,93,-65,-228,-17,-13,0,6,43,3,420,-36779,0
4732113,2417,2951,2152,2627,3333,-97,88,-966,93,-65,-228,-17,-13,0,6,43,3,420,-36779,0
4732126,2415,2948,2153,2628,3333,-96,88,-966,93,-64,-228,-1,-2,-25,-3,-61,-1,420,-36779,0
4732146,2413,2946,2148,2622,3333,-95,88,-966,93,-63,-228,-8,6,5,0,-40,-3,420,-36779,0
4732164,2414,2947,2155,2631,3333,-95,88,-966,93,-63,-228,-8,6,5,0,-40,-3,420,-36779,0
4732175,2412,2945,2159,2636,3333,-95,88,-966,93,-63,-228,-7,3,-1,-1,24,-3,420,-36779,0
4732195,2416,2949,2158,2634,3333,-95,88,-966,93,-63,-228,-3,-1,8,-6,29,3,420,-36779,0
4732213,2420,2954,2160,2637,3333,-95,88,-966,93,-63,-228,-3,-1,8,-6,29,3,420,-36779,0
4732225,2431,2968,2147,2621,3333,-96,88,-966,93,-64,-228,18,-11,-2,-11,51,8,420,-36779,0
4732246,2419,2953,2151,2626,3333,-97,88,-966,94,-65,-228,21,-11,-5,-11,47,2,420,-36779,0
4732264,2419,2953,2153,2628,3333,-97,88,-966,94,-65,-228,21,-11,-5,-11,47,2,420,-36779,0
4732276,2423,2958,2148,2622,3333,-98,89,-966,95,-65,-228,12,-4,16,-18,9,-20,420,-36779,0
4732296,2421,2956,2175,2655,3334,-98,90,-966,95,-65,-228,13,-5,17,-22,-9,-25,420,-36779,0
4732314,2431,2968,2148,2622,3334,-98,90,-966,95,-65,-228,13,-5,17,-22,-9,-25,420,-36779,0
4732326,2416,2949,2149,2623,3335,-96,90,-966,95,-64,-227,15,15,7,-21,-27,-20,420,-36779,0
4732347,2417,2951,2149,2623,3335,-96,90,-966,95,-64,-227,14,24,12,-20,-30,-21,420,-36779,0
4732365,2426,2962,2148,2622,3335,-96,90,-966,95,-64,-227,14,24,12,-20,-30,-21,420,-36779,0
4732377,2416,2949,2152,2627,3335,-95,90,-967,95,-62,-226,16,26,11,10,-50,-15,420,-36779,0
4732397,2416,2949,2152,2627,3335,-93,90,-967,94,-62,-226,14,21,7,16,-58,-4,420,-36779,0
4732415,2423,2958,2153,2628,3335,-93,90,-967,94,-62,-226,14,21,7,16,-58,-4,420,-36779,0
4732427,2431,2968,2149,2623,3335,-91,89,-967,93,-60,-227,18,-11,-9,8,-101,35,420,-36779,0
4732447,2418,2952,2152,2627,3334,-89,89,-967,93,-58,-228,17,-20,-18,2,-119,21,420,-36779,0
4732465,2420,2954,2167,2645,3334,-89,89,-967,93,-58,-228,17,-20,-18,2,-119,21,420,-36779,0
4732478,2417,2951,2161,2638,3333,-85,89,-967,92,-55,-228,11,-15,-8,4,-128,-21,420,-36779,0
4732498,2417,2951,2163,2641,3333,-83,89,-967,92,-53,-228,10,-11,-5,5,-134,-40,420,-36779,0
4732516,2419,2953,2153,2628,3333,-83,89,-967,92,-53,-228,10,-11,-5,5,-134,-40,420,-36779,0
4732528,2411,2943,2160,2637,3335,-78,89,-968,91,-49,-227,13,13,-13,-5,-140,-31,420,-36779,0
4732548,2424,2959,2156,2632,3335,-76,89,-968,90,-47,-227,12,21,-18,-5,-151,-14,420,-36779,0
4732566,2413,2946,2158,2634,3335,-76,89,-968,90,-47,-227,12,21,-18,-5,-151,-14,420,-36779,0
4732579,2423,2958,2161,2638,3335,-71,89,-968,89,-43,-227,0,14,0,6,-158,-12,420,-36779,0
4732598,2410,2942,2159,2636,3335,-71,89,-968,89,-43,-227,0,14,0,6,-158,-12,420,-36779,0
4732610,2406,2937,2163,2641,3335,-66,88,-968,88,-38,-227,-11,3,6,15,-156,-5,420,-36779,0
4732629,2410,2942,2163,2641,3335,-66,88,-968,88,-38,-227,-11,3,6,15,-156,-5,420,-36779,0
4732641,2402,2932,2163,2641,3335,-62,88,-969,86,-34,-228,-16,10,-8,18,-143,-5,420,-36779,0
4732659,2401,2931,2173,2653,3335,-62,88,-969,86,-34,-228,-16,10,-8,18,-143,-5,420,-36779,0
4732671,2399,2929,2175,2655,3335,-58,87,-969,85,-32,-228,-18,16,-12,30,-104,-6,420,-36779,0
4732690,2405,2936,2169,2648,3335,-58,87,-969,85,-32,-228,-18,16,-12,30,-104,-6,420,-36779,0
4732702,2407,2938,2168,2647,3334,-56,85,-969,84,-30,-228,-22,15,-3,32,-63,10,420,-36779,0
4732720,2406,2937,2173,2653,3334,-56,85,-969,84,-30,-228,-22,15,-3,32,-63,10,420,-36779,0
4732733,2411,2943,2173,2653,3333,-55,84,-969,82,-30,-229,-12,-2,-9,39,-32,21,420,-36779,0
4732751,2409,2941,2172,2652,3333,-55,84,-969,82,-30,-229,-12,-2,-9,39,-32,21,420,-36779,0
4732763,2410,2942,2173,2653,3333,-55,83,-969,82,-30,-229,-6,-26,-22,38,6,5,420,-36779,0
4732781,2410,2942,2172,2652,3333,-55,83,-969,82,-30,-229,-6,-26,-22,38,6,5,420,-36779,0
4732793,2416,2949,2178,2659,3333,-56,83,-969,81,-31,-229,0,-33,-12,23,33,-15,420,-36779,0
4732811,2400,2930,2172,2652,3333,-56,83,-969,81,-31,-229,0,-33,-12,23,33,-15,420,-36779,0
4732823,2415,2948,2177,2658,3334,-57,83,-969,82,-32,-228,1,-25,-8,0,47,-19,420,-36779,0
4732842,2421,2956,2176,2656,3334,-57,83,-969,82,-32,-228,1,-25,-8,0,47,-19,420,-36779,0
4732854,2415,2948,2191,2675,3335,-58,84,-969,83,-33,-227,0,-8,-2,-18,56,-97,420,-36779,0
4732874,2400,2930,2171,2650,3335,-59,85,-969,83,-34,-227,3,-5,-5,-21,46,-22,420,-36779,0
4732893,2411,2943,2172,2652,3335,-59,85,-969,83,-34,-227,3,-5,-5,-21,46,-22,420,-36779,0
4732905,2421,2956,2173,2653,3336,-60,85,-969,84,-34,-226,0,14,-6,-18,1,-31,420,-36779,0
4732924,2403,2934,2168,2647,3336,-60,85,-969,84,-34,-226,0,14,-6,-18,1,-31,420,-36779,0
4732936,2405,2936,2168,2647,3337,-59,85,-969,84,-33,-226,-4,24,2,-11,-36,-25,420,-36779,0
4732954,2427,2963,2176,2656,3337,-59,85,-969,84,-33,-226,-4,24,2,-11,-36,-25,420,-36779,0
4732966,2403,2934,2173,2653,3337,-57,85,-969,84,-32,-225,-15,19,-12,0,-66,-5,420,-36779,0
4732987,2405,2936,2175,2655,3337,-56,85,-970,83,-31,-225,-13,12,-14,3,-68,1,420,-36779,0
4733004,2399,2929,2156,2632,3337,-56,85,-970,83,-31,-225,-13,12,-14,3,-68,1,420,-36779,0
4733017,2400,2930,2174,2654,3336,-55,85,-970,83,-30,-226,-19,-9,-1,8,-60,12,420,-36779,0
4733037,2400,2930,2173,2653,3336,-53,85,-970,83,-29,-226,-24,-11,5,4,-60,13,420,-36779,0
4733055,2402,2932,2175,2655,3336,-53,85,-970,83,-29,-226,-24,-11,5,4,-60,13,420,-36779,0
4733067,2397,2926,2170,2649,3336,-52,85,-969,82,-28,-227,-19,-10,-16,-6,-76,15,420,-36779,0
4733087,2400,2930,2175,2655,3335,-51,85,-969,82,-26,-227,-20,-5,-15,-8,-80,10,420,-36779,0
4733105,2394,2923,2171,2650,3335,-51,85,-969,82,-26,-227,-20,-5,-15,-8,-80,10,420,-36779,0
4733118,2392,2920,2172,2652,3335,-49,85,-969,82,-25,-227,-15,5,-9,0,-65,-3,420,-36779,0
4733138,2394,2923,2175,2655,3335,-48,85,-969,82,-24,-227,-9,18,-8,0,-61,0,420,-36779,0
4733156,2405,2936,2170,2649,3335,-48,85,-969,82,-24,-227,-9,18,-8,0,-61,0,420,-36779,0
4733168,2398,2927,2172,2652,3335,-46,85,-969,82,1976,-228,-4,12,-9,-5,-26,27,420,-36779,0
4733188,2397,2926,2169,2648,3334,-46,85,-969,81,-23,-228,-2,8,-5,-1,-14,26,420,-36779,0
4733206,2397,2926,2167,2645,3334,-46,85,-969,81,-23,-228,-2,8,-5,-1,-14,26,420,-36779,0
4733621,2407,2938,2169,2648,3336,-42,86,-970,82,-19,-227,-5,95,0,104,265,-80,420,-36776,0
4733641,2420,2954,2194,2678,3338,-48,85,-970,81,-24,-225,23,93,-60,129,335,-107,420,-36759,0
4733660,2415,2948,2194,2678,3338,-48,85,-970,81,-24,-225,23,93,-60,129,335,-107,420,-36735,0
4733673,2441,2980,2227,2719,3341,20423,82,-971,82,-34,-221,-8,303,32,-151,258,-59,420,-36687,1442
4733693,2420,2954,2191,2675,3343,-61,86,-970,85,-35,-221,-17,275,64,-281,107,20,420,-36649,1442
4733713,2455,2997,2219,2709,3341,-62,91,-969,91,-35,-223,19,139,0,-206,-51,113,420,-36622,1442
4733733,2437,2975,2200,2686,3338,-61,93,-969,91,-34,-224,20,41,33,147,-128,175,420,-36603,1442
4733753,2431,2968,2207,2694,3335,-59,89,-969,87,-32,-227,22,-85,81,295,-228,195,420,-36591,1442
4733772,2423,2958,2166,2644,3335,-59,89,-969,87,-32,-227,22,-85,81,295,-228,195,420,-36583,1442
4733785,2412,2945,2155,2631,3330,-52,79,-969,74,-27,-233,38,-318,55,371,-295,156,420,-36569,1785
4733805,2411,2943,2143,2616,3326,-46,71,-969,68,-23,-236,41,-351,23,255,-313,111,420,-36550,1785
4733824,2398,2927,2163,2641,3326,-46,71,-969,68,-23,-236,41,-351,23,255,-313,111,420,-36539,1785
4733837,2390,2918,2163,2641,3324,-35,69,-968,66,-15,-237,42,-269,-58,-121,-320,-10,420,-36535,1785
4733856,2375,2899,2175,2655,3324,-35,69,-968,66,-15,-237,42,-269,-58,-121,-320,-10,420,-36535,1785
4733869,2371,2894,2181,2663,3327,-25,71,-969,66,-7,-234,28,-104,-34,17,-308,-183,420,-36535,1785
4733890,2384,2910,2199,2684,3330,-19,70,-970,64,-2,-232,31,-47,-66,37,-308,-160,420,-36535,539
4733909,2391,2919,2179,2660,3330,-19,70,-970,64,-2,-232,31,-47,-66,37,-308,-160,420,-36535,539
4733922,2387,2914,2173,2653,3331,-90,72,-970,63,5,-231,0,3,-72,-88,-296,32,420,-36535,539
4733942,2393,2921,2189,2672,3330,-5,74,-970,64,10,-232,-6,18,-88,-98,-295,41,420,-36535,539
4733960,2386,2913,2198,2683,3330,-5,74,-970,64,10,-232,-6,18,-88,-98,-295,41,420,-36535,539
4733972,2384,2910,2190,2673,3330,2,76,-970,64,18,-232,-58,25,134,-57,-237,-42,420,-36535,539
4733993,2380,2905,2193,2677,3330,6,77,-970,64,22,-232,-52,46,87,-38,-226,-61,420,-36535,0
4734011,2382,2908,2207,2694,3330,6,77,-970,64,22,-232,-52,46,87,-38,-226,-61,420,-36535,0
4734023,2378,2903,2204,2691,3332,13,78,-970,63,27,-230,-20,61,14,7,-206,-50,420,-36535,0
4734042,2372,2896,2208,2695,3332,13,78,-970,63,27,-230,-20,61,14,7,-206,-50,420,-36535,0
4734055,2383,2909,2207,2694,3333,20,78,-970,61,34,-230,-26,42,79,23,-211,13,420,-36535,0
4734073,2379,2904,2214,2703,3333,20,78,-970,61,34,-230,-26,42,79,23,-211,13,420,-36535,0
4734085,2378,2903,2208,2695,3331,26,77,-970,59,39,-231,-2,24,-19,32,-207,53,420,-36535,0
4734104,2383,2909,2217,2706,3331,26,77,-970,59,39,-231,-2,24,-19,32,-207,53,420,-36535,0
4734116,2379,2904,2216,2705,3330,31,76,-969,57,44,-233,12,-17,-48,43,-178,20,420,-36535,0
4734135,2384,2910,2219,2709,3330,31,76,-969,57,44,-233,12,-17,-48,43,-178,20,420,-36535,0
4734148,2372,2896,2220,2710,3330,37,75,-969,55,47,-232,16,-27,-54,47,-123,-47,420,-36535,0
4734166,2366,2888,2222,2713,3330,37,75,-969,55,47,-232,16,-27,-54,47,-123,-47,420,-36535,0
4734178,2367,2890,2220,2710,3331,40,73,-970,54,49,-231,1,-25,-23,24,-96,-60,420,-36535,0
4734197,2356,2876,2224,2715,3331,40,73,-970,54,49,-231,1,-25,-23,24,-96,-60,420,-36535,0
4734209,2369,2892,2217,2706,3332,43,73,-970,53,51,-230,-7,-16,-4,-5,-69,-25,420,-36535,0
4734230,2352,2871,2231,2724,3332,44,73,-970,53,52,-230,-12,-13,-4,-14,-55,-15,420,-36535,0
4734250,2383,2909,2224,2715,3333,45,74,-970,53,53,-229,-23,2,8,-15,-46,-28,420,-36534,0
4734268,2367,2890,2208,2695,3333,45,74,-970,53,53,-229,-23,2,8,-15,-46,-28,420,-36534,0
4734280,2363,2885,2224,2715,3334,46,74,-970,53,54,-228,-29,19,20,0,-46,20426,420,-36534,0
4734300,2364,2886,2222,2713,3335,46,73,-970,53,55,-227,-36,24,22,3,-49,-48,420,-36534,0
4734318,2369,2892,2216,2705,3335,46,73,-970,53,55,-227,-36,24,22,3,-49,-48,420,-36534,15
4734330,2358,2879,2229,2721,3336,48,73,-970,52,48,-227,-78,24,182,23,-41,-26,420,-36533,15
4734351,2367,2890,2227,2719,3336,50,73,-970,51,57,-227,-8,73,-154,30,-91,-9,420,-36524,15
4734370,2370,2893,2223,2714,3336,50,73,-970,51,57,-227,-8,73,-154,30,-91,-9,420,-36512,15
4734383,2373,2897,2223,2714,3336,51,73,-970,51,58,-226,-35,208,71,-115,-30,-46,420,-36477,15
4734404,2383,2909,2241,2736,3337,52,75,-970,54,59,-225,-21,248,74,-253,31,-81,420,-36426,15
4734423,2427,2963,2256,2754,3337,52,75,-970,54,59,-225,-21,248,74,-253,31,-81,420,-36384,2333
4734437,2404,2935,2212,2700,3341,50,84,-971,65,59,-221,33,389,-93,-423,92,-113,420,-36306,2333
4734457,2481,3029,2303,2811,3343,48,93,-971,73,60,-219,7,409,60,-456,82,-106,420,-36236,2333
4734477,2444,2984,2305,2814,3346,47,101,-971,79,59,-217,7,238,-13,-218,107,-98,420,-36182,2333
4734498,2412,2945,2290,2796,3348,45,101,-971,75,57,-216,-5,271,110,358,93,-4,420,-36136,2333
4734517,2407,2938,2278,2781,3348,45,101,-971,75,57,-216,-5,271,110,358,93,-4,420,-36104,2333
4734530,2418,2952,2278,2781,3341,43,90,-971,68,55,-222,-11,-25,28,236,-35,310,420,-36051,5171
4734551,2418,2952,2263,2763,3334,44,87,-969,65,55,-228,-40,-130,75,200,-107,379,420,-36004,5171
4734571,2428,2964,2231,2724,3328,45,83,-968,61,56,-233,-40,-133,46,187,-132,251,420,-35949,5171
4734593,2432,2969,2229,2721,3325,48,80,-968,58,57,-236,-39,-149,38,172,-141,65,420,-35901,5171
4734612,2413,2946,2227,2719,3325,48,80,-968,58,57,-236,-39,-149,38,172,-141,65,420,-35867,5171
4734625,2411,2943,2233,2726,3328,53,75,-968,53,60,-233,-7,-85,-20,132,-148,-204,420,-35813,5171
4734646,2392,2920,2250,2747,3331,56,73,-969,50,62,-230,-2,-65,-24,81,-133,-199,420,-35762,4152
4734665,2392,2920,2249,2746,3331,56,73,-969,50,62,-230,-2,-65,-24,81,-133,-199,420,-35726,4152
4734679,2389,2916,2252,2749,3335,62,71,-970,47,67,-227,7,2,-47,-3,-157,-7,420,-35673,4152
4734699,2389,2916,2244,2739,3333,65,72,-969,48,70,-228,4,-22,-47,-49,-161,111,420,-35626,4152
4734717,2400,2930,2240,2735,3333,65,72,-969,48,70,-228,4,-22,-47,-49,-161,111,420,-35594,4152
4734731,2415,2948,2237,2731,3330,69,74,-968,49,74,-231,-3,-73,-57,-56,-132,100,420,-35543,4152
4734752,2403,2934,2240,2735,3330,70,75,-968,49,75,-232,-3,-52,-2,-26,-71,0,420,-35500,4103
4734771,2396,2925,2254,2752,3330,70,75,-968,49,75,-232,-3,-52,-2,-26,-71,0,420,-35472,4103
4734784,2393,2921,2252,2749,3331,71,74,-968,48,76,-230,6,-9,-18,35,16,-105,420,-35428,4103
